% program    : MADOCALIB ver.2.0
% inp file   : ..\\..\\..\\..\\sample_data\\data\\rinex\\MIZU00JPN_R_20250910000_01D_30S_MO.rnx
% inp file   : ..\\..\\..\\..\\sample_data\\data\\rinex\\BRDM00DLR_S_20250910000_01D_MN.rnx
% inp file   : ..\\..\\..\\..\\sample_data\\data\\l6\\2025\\091\\2025091_209.l6
% satantfile : 
% rcvantfile : ..\\..\\..\\..\\sample_data\\data\\igs20.atx
% obs start  : 2025/04/01 00:00:00.0 GPST (week2360 172800.0s)
% obs end    : 2025/04/01 23:59:30.0 GPST (week2360 259170.0s)
% pos mode   : PPP Kinematic
% freqs      : L1+2
% siggps     : L1/L2/L5
% sigqzs     : L1/L5/L2
% siggal     : E1/E5a/E5b/E6
% sigbds2    : B1I/B3I/B2I
% sigbds3    : B1I/B3I/B2a
% solution   : Forward
% elev mask  : 10.0 deg
% dynamics   : off
% tidecorr   : on
% ionos opt  : Iono-Free LC
% tropo opt  : Estimate ZTD
% ephemeris  : Broadcast+SSR APC
% navi sys   : GPS GLONASS Galileo QZSS
% amb mode   : OFF
% ar sys     : GPS Galileo QZSS BDS
% val ratio  : 1.5
% max std pos: 1.5 m
% ionocorr   : off
% antenna1   : SEPCHOKE_B3E6   NONE  ( 0.0000  0.0000  0.1206)
%
% (lat/lon/height=WGS84/ellipsoidal,Q=1:fix,2:float,3:sbas,4:dgps,5:single,6:ppp,ns=# of satellites)
%  GPST                  latitude(deg) longitude(deg)  height(m)   Q  ns   sdn(m)   sde(m)   sdu(m)  sdne(m)  sdeu(m)  sdun(m) age(s)  ratio
2025/04/01 00:01:00.000   39.135147183  141.132876743   117.9693   6  10   6.1096   4.3537  10.1142   2.8855  -3.8564  -6.4790   0.00    0.0
2025/04/01 00:01:30.000   39.135155861  141.132884070   116.7460   6  10   4.1319   3.0036   6.9246   1.9142  -2.6190  -4.4842   0.00    0.0
2025/04/01 00:02:00.000   39.135158162  141.132886040   116.9527   6  11   3.1418   2.2712   5.3687   1.3433  -1.9946  -3.5192   0.00    0.0
2025/04/01 00:02:30.000   39.135155982  141.132880032   117.1027   6  15   2.4892   1.8153   4.0971   0.9679  -1.4859  -2.7442   0.00    0.0
2025/04/01 00:03:00.000   39.135151244  141.132873119   118.2574   6  15   2.0068   1.5197   3.1867   0.7320  -1.1534  -2.1805   0.00    0.0
2025/04/01 00:03:30.000   39.135152384  141.132874095   117.4471   6  15   1.6205   1.3056   2.5196   0.5700  -0.9262  -1.7421   0.00    0.0
2025/04/01 00:04:00.000   39.135154073  141.132874081   116.8663   6  15   1.3218   1.1415   2.0444   0.4612  -0.7729  -1.4151   0.00    0.0
2025/04/01 00:04:30.000   39.135153716  141.132873559   116.9335   6  14   1.0972   1.0119   1.7112   0.3898  -0.6711  -1.1789   0.00    0.0
2025/04/01 00:05:00.000   39.135150611  141.132877200   117.4700   6  14   0.9300   0.9060   1.4765   0.3443  -0.6013  -1.0103   0.00    0.0
2025/04/01 00:05:30.000   39.135149059  141.132877157   117.6121   6  14   0.8051   0.8180   1.3086   0.3154  -0.5522  -0.8893   0.00    0.0
2025/04/01 00:06:00.000   39.135151480  141.132875357   117.1736   6  13   0.7113   0.7442   1.1855   0.2962  -0.5161  -0.8015   0.00    0.0
2025/04/01 00:06:30.000   39.135150349  141.132875803   117.2873   6  13   0.6399   0.6814   1.0929   0.2837  -0.4890  -0.7367   0.00    0.0
2025/04/01 00:07:00.000   39.135150493  141.132874592   117.2752   6  13   0.5846   0.6275   1.0211   0.2751  -0.4676  -0.6875   0.00    0.0
2025/04/01 00:07:30.000   39.135151403  141.132872967   117.1258   6  13   0.5410   0.5807   0.9632   0.2686  -0.4497  -0.6489   0.00    0.0
2025/04/01 00:08:00.000   39.135151679  141.132872979   116.9988   6  13   0.5056   0.5398   0.9141   0.2627  -0.4338  -0.6169   0.00    0.0
2025/04/01 00:08:30.000   39.135150656  141.132872823   117.2843   6  13   0.4762   0.5038   0.8714   0.2572  -0.4191  -0.5896   0.00    0.0
2025/04/01 00:09:00.000   39.135150763  141.132872256   117.2881   6  14   0.4510   0.4718   0.8325   0.2516  -0.4050  -0.5651   0.00    0.0
2025/04/01 00:09:30.000   39.135151379  141.132872108   117.1519   6  14   0.4272   0.4428   0.7928   0.2444  -0.3896  -0.5398   0.00    0.0
2025/04/01 00:10:00.000   39.135151415  141.132871939   117.2208   6  14   0.4035   0.4162   0.7509   0.2352  -0.3723  -0.5127   0.00    0.0
2025/04/01 00:10:30.000   39.135150941  141.132871964   117.2716   6  14   0.3795   0.3915   0.7064   0.2239  -0.3529  -0.4834   0.00    0.0
2025/04/01 00:11:00.000   39.135150840  141.132872113   117.3310   6  13   0.3554   0.3756   0.6606   0.2132  -0.3345  -0.4529   0.00    0.0
2025/04/01 00:11:30.000   39.135149741  141.132871325   117.4844   6  13   0.3317   0.3603   0.6145   0.2017  -0.3150  -0.4220   0.00    0.0
2025/04/01 00:12:00.000   39.135150193  141.132870959   117.3399   6  12   0.3090   0.3464   0.5746   0.1902  -0.2987  -0.3918   0.00    0.0
2025/04/01 00:12:30.000   39.135150038  141.132871563   117.3988   6  12   0.2878   0.3331   0.5375   0.1792  -0.2832  -0.3637   0.00    0.0
2025/04/01 00:13:00.000   39.135150222  141.132871744   117.3285   6  12   0.2684   0.3202   0.5026   0.1687  -0.2680  -0.3373   0.00    0.0
2025/04/01 00:13:30.000   39.135150504  141.132871250   117.2614   6  16   0.2508   0.3073   0.4698   0.1583  -0.2529  -0.3127   0.00    0.0
2025/04/01 00:14:00.000   39.135150130  141.132871009   117.3330   6  16   0.2348   0.2951   0.4395   0.1490  -0.2388  -0.2904   0.00    0.0
2025/04/01 00:14:30.000   39.135149841  141.132870901   117.3977   6  16   0.2208   0.2836   0.4120   0.1409  -0.2258  -0.2702   0.00    0.0
2025/04/01 00:15:00.000   39.135149673  141.132871063   117.4273   6  16   0.2084   0.2727   0.3871   0.1338  -0.2141  -0.2521   0.00    0.0
2025/04/01 00:15:30.000   39.135149491  141.132870505   117.4502   6  16   0.1974   0.2624   0.3645   0.1277  -0.2033  -0.2358   0.00    0.0
2025/04/01 00:16:00.000   39.135149551  141.132870405   117.4173   6  16   0.1875   0.2525   0.3440   0.1225  -0.1934  -0.2213   0.00    0.0
2025/04/01 00:16:30.000   39.135149726  141.132870890   117.3496   6  16   0.1787   0.2430   0.3254   0.1181  -0.1844  -0.2083   0.00    0.0
2025/04/01 00:17:00.000   39.135149649  141.132870130   117.3746   6  16   0.1708   0.2341   0.3086   0.1142  -0.1761  -0.1966   0.00    0.0
2025/04/01 00:17:30.000   39.135149620  141.132870603   117.4288   6  16   0.1636   0.2255   0.2932   0.1109  -0.1684  -0.1861   0.00    0.0
2025/04/01 00:18:00.000   39.135149732  141.132871587   117.3686   6  16   0.1571   0.2174   0.2793   0.1080  -0.1614  -0.1766   0.00    0.0
2025/04/01 00:18:30.000   39.135149360  141.132871119   117.4446   6  17   0.1510   0.2097   0.2665   0.1053  -0.1549  -0.1680   0.00    0.0
2025/04/01 00:19:00.000   39.135149199  141.132870103   117.4919   6  17   0.1452   0.2024   0.2547   0.1030  -0.1489  -0.1600   0.00    0.0
2025/04/01 00:19:30.000   39.135149368  141.132870371   117.4672   6  17   0.1399   0.1955   0.2439   0.1009  -0.1433  -0.1529   0.00    0.0
2025/04/01 00:20:00.000   39.135149406  141.132870774   117.4708   6  17   0.1350   0.1889   0.2340   0.0989  -0.1381  -0.1464   0.00    0.0
2025/04/01 00:20:30.000   39.135149421  141.132870594   117.5045   6  17   0.1304   0.1828   0.2249   0.0969  -0.1333  -0.1404   0.00    0.0
2025/04/01 00:21:00.000   39.135149760  141.132870268   117.3971   6  17   0.1260   0.1769   0.2164   0.0950  -0.1288  -0.1349   0.00    0.0
2025/04/01 00:21:30.000   39.135149607  141.132870572   117.4564   6  17   0.1219   0.1714   0.2086   0.0933  -0.1246  -0.1298   0.00    0.0
2025/04/01 00:22:00.000   39.135149347  141.132870900   117.4798   6  17   0.1179   0.1661   0.2014   0.0915  -0.1207  -0.1251   0.00    0.0
2025/04/01 00:22:30.000   39.135149533  141.132871176   117.4755   6  17   0.1142   0.1611   0.1946   0.0898  -0.1170  -0.1207   0.00    0.0
2025/04/01 00:23:00.000   39.135149309  141.132870394   117.4745   6  17   0.1106   0.1564   0.1883   0.0881  -0.1135  -0.1166   0.00    0.0
2025/04/01 00:23:30.000   39.135149392  141.132870733   117.4827   6  17   0.1072   0.1520   0.1824   0.0864  -0.1103  -0.1127   0.00    0.0
2025/04/01 00:24:00.000   39.135149427  141.132870708   117.4819   6  18   0.1040   0.1476   0.1769   0.0847  -0.1072  -0.1092   0.00    0.0
2025/04/01 00:24:30.000   39.135149188  141.132870416   117.5361   6  18   0.1007   0.1436   0.1716   0.0831  -0.1044  -0.1057   0.00    0.0
2025/04/01 00:25:00.000   39.135149173  141.132870456   117.4948   6  18   0.0976   0.1397   0.1667   0.0815  -0.1016  -0.1024   0.00    0.0
2025/04/01 00:25:30.000   39.135149367  141.132870485   117.4851   6  18   0.0947   0.1361   0.1620   0.0799  -0.0991  -0.0993   0.00    0.0
2025/04/01 00:26:00.000   39.135149336  141.132870199   117.4753   6  20   0.0919   0.1325   0.1576   0.0782  -0.0965  -0.0963   0.00    0.0
2025/04/01 00:26:30.000   39.135149045  141.132869755   117.5288   6  20   0.0892   0.1291   0.1534   0.0766  -0.0942  -0.0936   0.00    0.0
2025/04/01 00:27:00.000   39.135149037  141.132869689   117.5030   6  20   0.0866   0.1259   0.1493   0.0750  -0.0918  -0.0911   0.00    0.0
2025/04/01 00:27:30.000   39.135149071  141.132869521   117.5257   6  20   0.0842   0.1228   0.1455   0.0734  -0.0897  -0.0886   0.00    0.0
2025/04/01 00:28:00.000   39.135149140  141.132869534   117.5386   6  20   0.0818   0.1198   0.1418   0.0718  -0.0876  -0.0862   0.00    0.0
2025/04/01 00:28:30.000   39.135149202  141.132869908   117.4797   6  20   0.0795   0.1169   0.1382   0.0703  -0.0856  -0.0840   0.00    0.0
2025/04/01 00:29:00.000   39.135149221  141.132869760   117.4650   6  20   0.0772   0.1141   0.1348   0.0687  -0.0837  -0.0818   0.00    0.0
2025/04/01 00:29:30.000   39.135149170  141.132869599   117.4877   6  20   0.0752   0.1115   0.1315   0.0672  -0.0818  -0.0797   0.00    0.0
2025/04/01 00:30:00.000   39.135149291  141.132869925   117.4519   6  20   0.0731   0.1089   0.1284   0.0658  -0.0800  -0.0778   0.00    0.0
2025/04/01 00:30:30.000   39.135149344  141.132869926   117.4606   6  21   0.0712   0.1065   0.1253   0.0643  -0.0782  -0.0759   0.00    0.0
2025/04/01 00:31:00.000   39.135149340  141.132869668   117.4545   6  21   0.0692   0.1040   0.1223   0.0629  -0.0766  -0.0740   0.00    0.0
2025/04/01 00:31:30.000   39.135149298  141.132869583   117.4819   6  21   0.0674   0.1017   0.1195   0.0615  -0.0750  -0.0722   0.00    0.0
2025/04/01 00:32:00.000   39.135149374  141.132869556   117.4357   6  21   0.0657   0.0995   0.1166   0.0601  -0.0734  -0.0705   0.00    0.0
2025/04/01 00:32:30.000   39.135149529  141.132869793   117.4253   6  21   0.0639   0.0974   0.1140   0.0588  -0.0719  -0.0688   0.00    0.0
2025/04/01 00:33:00.000   39.135149461  141.132869875   117.4462   6  21   0.0624   0.0954   0.1114   0.0575  -0.0704  -0.0673   0.00    0.0
2025/04/01 00:33:30.000   39.135149553  141.132870067   117.4524   6  21   0.0608   0.0933   0.1090   0.0562  -0.0690  -0.0657   0.00    0.0
2025/04/01 00:34:00.000   39.135149617  141.132870260   117.4081   6  21   0.0593   0.0915   0.1067   0.0550  -0.0675  -0.0643   0.00    0.0
2025/04/01 00:34:30.000   39.135149566  141.132870104   117.4065   6  20   0.0578   0.0898   0.1044   0.0538  -0.0660  -0.0628   0.00    0.0
2025/04/01 00:35:00.000   39.135149756  141.132870278   117.4010   6  20   0.0565   0.0883   0.1023   0.0527  -0.0643  -0.0613   0.00    0.0
2025/04/01 00:35:30.000   39.135149717  141.132870401   117.4222   6  20   0.0553   0.0867   0.1004   0.0517  -0.0627  -0.0599   0.00    0.0
2025/04/01 00:36:00.000   39.135149598  141.132870353   117.4093   6  20   0.0540   0.0852   0.0985   0.0507  -0.0611  -0.0585   0.00    0.0
2025/04/01 00:36:30.000   39.135149729  141.132870239   117.3820   6  20   0.0528   0.0837   0.0968   0.0497  -0.0596  -0.0572   0.00    0.0
2025/04/01 00:37:00.000   39.135149805  141.132870254   117.3729   6  20   0.0518   0.0823   0.0954   0.0486  -0.0584  -0.0555   0.00    0.0
2025/04/01 00:37:30.000   39.135149737  141.132870325   117.3777   6  20   0.0506   0.0809   0.0936   0.0476  -0.0569  -0.0544   0.00    0.0
2025/04/01 00:38:00.000   39.135149762  141.132870502   117.3674   6  20   0.0494   0.0796   0.0920   0.0467  -0.0555  -0.0532   0.00    0.0
2025/04/01 00:38:30.000   39.135149889  141.132870557   117.3728   6  20   0.0483   0.0782   0.0904   0.0458  -0.0541  -0.0521   0.00    0.0
2025/04/01 00:39:00.000   39.135149891  141.132870411   117.3692   6  20   0.0473   0.0768   0.0890   0.0449  -0.0528  -0.0510   0.00    0.0
2025/04/01 00:39:30.000   39.135149947  141.132870652   117.3426   6  20   0.0466   0.0756   0.0878   0.0438  -0.0519  -0.0496   0.00    0.0
2025/04/01 00:40:00.000   39.135150017  141.132870794   117.3427   6  20   0.0455   0.0744   0.0862   0.0429  -0.0505  -0.0487   0.00    0.0
2025/04/01 00:40:30.000   39.135150005  141.132870687   117.3458   6  20   0.0446   0.0731   0.0848   0.0422  -0.0493  -0.0479   0.00    0.0
2025/04/01 00:41:00.000   39.135150026  141.132870695   117.3170   6  20   0.0439   0.0720   0.0837   0.0412  -0.0483  -0.0466   0.00    0.0
2025/04/01 00:41:30.000   39.135150013  141.132870613   117.3255   6  20   0.0431   0.0714   0.0833   0.0410  -0.0485  -0.0465   0.00    0.0
2025/04/01 00:42:00.000   39.135150069  141.132870760   117.3355   6  20   0.0424   0.0706   0.0823   0.0403  -0.0477  -0.0453   0.00    0.0
2025/04/01 00:42:30.000   39.135150011  141.132870758   117.3064   6  20   0.0416   0.0697   0.0807   0.0395  -0.0465  -0.0444   0.00    0.0
2025/04/01 00:43:00.000   39.135150101  141.132870872   117.3321   6  20   0.0409   0.0689   0.0795   0.0389  -0.0454  -0.0434   0.00    0.0
2025/04/01 00:43:30.000   39.135150062  141.132870767   117.3076   6  20   0.0401   0.0680   0.0787   0.0384  -0.0447  -0.0430   0.00    0.0
2025/04/01 00:44:00.000   39.135150006  141.132870849   117.3083   6  20   0.0394   0.0672   0.0774   0.0378  -0.0438  -0.0423   0.00    0.0
2025/04/01 00:44:30.000   39.135150147  141.132870823   117.3310   6  20   0.0388   0.0664   0.0768   0.0369  -0.0431  -0.0411   0.00    0.0
2025/04/01 00:45:00.000   39.135150049  141.132870819   117.3235   6  20   0.0382   0.0655   0.0758   0.0364  -0.0423  -0.0403   0.00    0.0
2025/04/01 00:45:30.000   39.135150099  141.132870834   117.3127   6  20   0.0375   0.0646   0.0748   0.0357  -0.0415  -0.0397   0.00    0.0
2025/04/01 00:46:00.000   39.135150098  141.132870880   117.3089   6  20   0.0370   0.0637   0.0739   0.0350  -0.0406  -0.0390   0.00    0.0
2025/04/01 00:46:30.000   39.135150183  141.132870958   117.3017   6  20   0.0364   0.0629   0.0730   0.0343  -0.0398  -0.0382   0.00    0.0
2025/04/01 00:47:00.000   39.135150189  141.132870895   117.2733   6  20   0.0357   0.0620   0.0718   0.0339  -0.0389  -0.0377   0.00    0.0
2025/04/01 00:47:30.000   39.135150199  141.132870897   117.2858   6  21   0.0351   0.0612   0.0708   0.0333  -0.0381  -0.0371   0.00    0.0
2025/04/01 00:48:00.000   39.135150270  141.132870975   117.2796   6  21   0.0345   0.0603   0.0698   0.0327  -0.0372  -0.0366   0.00    0.0
2025/04/01 00:48:30.000   39.135150226  141.132871034   117.2896   6  21   0.0342   0.0596   0.0692   0.0320  -0.0366  -0.0356   0.00    0.0
2025/04/01 00:49:00.000   39.135150150  141.132870886   117.2653   6  21   0.0337   0.0589   0.0683   0.0314  -0.0359  -0.0350   0.00    0.0
2025/04/01 00:49:30.000   39.135150226  141.132870912   117.2604   6  21   0.0332   0.0580   0.0674   0.0308  -0.0351  -0.0345   0.00    0.0
2025/04/01 00:50:00.000   39.135150277  141.132871129   117.2650   6  21   0.0328   0.0573   0.0667   0.0303  -0.0345  -0.0340   0.00    0.0
2025/04/01 00:50:30.000   39.135150268  141.132871125   117.2531   6  21   0.0322   0.0566   0.0657   0.0297  -0.0336  -0.0336   0.00    0.0
2025/04/01 00:51:00.000   39.135150256  141.132871011   117.2357   6  21   0.0318   0.0557   0.0651   0.0292  -0.0331  -0.0327   0.00    0.0
2025/04/01 00:51:30.000   39.135150405  141.132871025   117.2370   6  21   0.0313   0.0551   0.0644   0.0286  -0.0325  -0.0321   0.00    0.0
2025/04/01 00:52:00.000   39.135150321  141.132871146   117.2326   6  21   0.0308   0.0545   0.0637   0.0281  -0.0317  -0.0316   0.00    0.0
2025/04/01 00:52:30.000   39.135150400  141.132871162   117.2412   6  21   0.0305   0.0537   0.0628   0.0276  -0.0310  -0.0312   0.00    0.0
2025/04/01 00:53:00.000   39.135150299  141.132870976   117.2121   6  21   0.0301   0.0530   0.0623   0.0270  -0.0306  -0.0307   0.00    0.0
2025/04/01 00:53:30.000   39.135150395  141.132871179   117.2275   6  21   0.0298   0.0524   0.0616   0.0267  -0.0301  -0.0302   0.00    0.0
2025/04/01 00:54:00.000   39.135150430  141.132871270   117.2101   6  21   0.0294   0.0517   0.0610   0.0261  -0.0294  -0.0296   0.00    0.0
2025/04/01 00:54:30.000   39.135150433  141.132871274   117.2141   6  21   0.0291   0.0509   0.0604   0.0256  -0.0289  -0.0293   0.00    0.0
2025/04/01 00:55:00.000   39.135150482  141.132871259   117.2208   6  21   0.0284   0.0503   0.0598   0.0252  -0.0283  -0.0287   0.00    0.0
2025/04/01 00:55:30.000   39.135150296  141.132871217   117.2231   6  21   0.0284   0.0497   0.0592   0.0247  -0.0279  -0.0285   0.00    0.0
2025/04/01 00:56:00.000   39.135150320  141.132871137   117.2081   6  21   0.0280   0.0491   0.0585   0.0242  -0.0274  -0.0281   0.00    0.0
2025/04/01 00:56:30.000   39.135150470  141.132871357   117.2124   6  21   0.0277   0.0485   0.0580   0.0240  -0.0268  -0.0276   0.00    0.0
2025/04/01 00:57:00.000   39.135150554  141.132871460   117.2099   6  21   0.0273   0.0479   0.0574   0.0233  -0.0265  -0.0273   0.00    0.0
2025/04/01 00:57:30.000   39.135150402  141.132871451   117.1952   6  19   0.0272   0.0473   0.0569   0.0231  -0.0260  -0.0269   0.00    0.0
2025/04/01 00:58:00.000   39.135150466  141.132871322   117.1899   6  19   0.0269   0.0468   0.0564   0.0226  -0.0255  -0.0266   0.00    0.0
2025/04/01 00:58:30.000   39.135150557  141.132871427   117.1936   6  19   0.0266   0.0463   0.0560   0.0221  -0.0249  -0.0260   0.00    0.0
2025/04/01 00:59:00.000   39.135150509  141.132871336   117.1905   6  19   0.0263   0.0459   0.0555   0.0219  -0.0243  -0.0256   0.00    0.0
2025/04/01 00:59:30.000   39.135150522  141.132871426   117.2037   6  19   0.0260   0.0453   0.0552   0.0215  -0.0237  -0.0251   0.00    0.0
2025/04/01 01:00:00.000   39.135150566  141.132871374   117.1910   6  19   0.0259   0.0450   0.0545   0.0211  -0.0234  -0.0250   0.00    0.0
2025/04/01 01:00:30.000   39.135150497  141.132871471   117.1954   6  18   0.0256   0.0443   0.0542   0.0208  -0.0229  -0.0247   0.00    0.0
2025/04/01 01:01:00.000   39.135150604  141.132871602   117.1851   6  18   0.0255   0.0439   0.0538   0.0205  -0.0224  -0.0244   0.00    0.0
2025/04/01 01:01:30.000   39.135150479  141.132871563   117.1874   6  18   0.0253   0.0433   0.0534   0.0200  -0.0218  -0.0240   0.00    0.0
2025/04/01 01:02:00.000   39.135150470  141.132871371   117.1859   6  19   0.0250   0.0429   0.0530   0.0198  -0.0216  -0.0238   0.00    0.0
2025/04/01 01:02:30.000   39.135150452  141.132871369   117.1808   6  19   0.0246   0.0423   0.0519   0.0193  -0.0205  -0.0229   0.00    0.0
2025/04/01 01:03:00.000   39.135150629  141.132871583   117.1786   6  19   0.0244   0.0418   0.0516   0.0189  -0.0200  -0.0225   0.00    0.0
2025/04/01 01:03:30.000   39.135150647  141.132871641   117.1769   6  18   0.0243   0.0416   0.0510   0.0185  -0.0192  -0.0221   0.00    0.0
2025/04/01 01:04:00.000   39.135150550  141.132871542   117.1724   6  19   0.0239   0.0410   0.0507   0.0183  -0.0187  -0.0217   0.00    0.0
2025/04/01 01:04:30.000   39.135150541  141.132871486   117.1772   6  19   0.0236   0.0405   0.0500   0.0178  -0.0184  -0.0212   0.00    0.0
2025/04/01 01:05:00.000   39.135150589  141.132871403   117.1638   6  19   0.0234   0.0401   0.0498   0.0175  -0.0179  -0.0207   0.00    0.0
2025/04/01 01:05:30.000   39.135150688  141.132871613   117.1835   6  19   0.0232   0.0399   0.0494   0.0172  -0.0173  -0.0204   0.00    0.0
2025/04/01 01:06:00.000   39.135150520  141.132871545   117.1815   6  19   0.0230   0.0393   0.0491   0.0169  -0.0171  -0.0200   0.00    0.0
2025/04/01 01:06:30.000   39.135150403  141.132871473   117.1673   6  18   0.0228   0.0389   0.0488   0.0167  -0.0168  -0.0193   0.00    0.0
2025/04/01 01:07:00.000   39.135150462  141.132871488   117.1788   6  18   0.0228   0.0388   0.0486   0.0165  -0.0164  -0.0191   0.00    0.0
2025/04/01 01:07:30.000   39.135150727  141.132871567   117.1800   6  18   0.0226   0.0384   0.0484   0.0160  -0.0160  -0.0189   0.00    0.0
2025/04/01 01:08:00.000   39.135150529  141.132871458   117.1794   6  18   0.0226   0.0380   0.0481   0.0159  -0.0154  -0.0186   0.00    0.0
2025/04/01 01:08:30.000   39.135150575  141.132871552   117.1787   6  18   0.0222   0.0379   0.0479   0.0157  -0.0147  -0.0182   0.00    0.0
2025/04/01 01:09:00.000   39.135150582  141.132871462   117.1723   6  19   0.0223   0.0374   0.0476   0.0154  -0.0146  -0.0181   0.00    0.0
2025/04/01 01:09:30.000   39.135150529  141.132871423   117.1797   6  19   0.0220   0.0373   0.0470   0.0153  -0.0135  -0.0178   0.00    0.0
2025/04/01 01:10:00.000   39.135150659  141.132871526   117.1744   6  19   0.0219   0.0369   0.0469   0.0149  -0.0129  -0.0173   0.00    0.0
2025/04/01 01:10:30.000   39.135150558  141.132871741   117.1888   6  19   0.0217   0.0364   0.0465   0.0148  -0.0124  -0.0171   0.00    0.0
2025/04/01 01:11:00.000   39.135150599  141.132871621   117.1783   6  19   0.0214   0.0361   0.0464   0.0145  -0.0119  -0.0169   0.00    0.0
2025/04/01 01:11:30.000   39.135150571  141.132871483   117.1715   6  19   0.0215   0.0360   0.0461   0.0143  -0.0112  -0.0167   0.00    0.0
2025/04/01 01:12:00.000   39.135150542  141.132871622   117.1721   6  19   0.0212   0.0358   0.0460   0.0139  -0.0106  -0.0163   0.00    0.0
2025/04/01 01:12:30.000   39.135150609  141.132871799   117.1864   6  19   0.0212   0.0356   0.0457   0.0139  -0.0101  -0.0160   0.00    0.0
2025/04/01 01:13:00.000   39.135150793  141.132871473   117.1691   6  19   0.0210   0.0351   0.0455   0.0138  -0.0096  -0.0158   0.00    0.0
2025/04/01 01:13:30.000   39.135150463  141.132871573   117.1822   6  19   0.0209   0.0350   0.0454   0.0135  -0.0084  -0.0155   0.00    0.0
2025/04/01 01:14:00.000   39.135150563  141.132871649   117.1832   6  19   0.0206   0.0347   0.0454   0.0132  -0.0081  -0.0152   0.00    0.0
2025/04/01 01:14:30.000   39.135150535  141.132871527   117.1686   6  19   0.0207   0.0343   0.0452   0.0131  -0.0075  -0.0151   0.00    0.0
2025/04/01 01:15:00.000   39.135150678  141.132871665   117.1694   6  19   0.0206   0.0342   0.0450   0.0128  -0.0068  -0.0150   0.00    0.0
2025/04/01 01:15:30.000   39.135150800  141.132871837   117.1895   6  19   0.0205   0.0341   0.0449   0.0126  -0.0057  -0.0145   0.00    0.0
2025/04/01 01:16:00.000   39.135150710  141.132871637   117.1823   6  19   0.0204   0.0339   0.0447   0.0125  -0.0046  -0.0146   0.00    0.0
2025/04/01 01:16:30.000   39.135150754  141.132871674   117.1726   6  19   0.0202   0.0334   0.0446   0.0121  -0.0041  -0.0144   0.00    0.0
2025/04/01 01:17:00.000   39.135150625  141.132871655   117.1691   6  19   0.0201   0.0332   0.0444   0.0123  -0.0016  -0.0143   0.00    0.0
2025/04/01 01:17:30.000   39.135150546  141.132871720   117.1829   6  19   0.0202   0.0329   0.0444   0.0120  -0.0015  -0.0138   0.00    0.0
2025/04/01 01:18:00.000   39.135150543  141.132871567   117.1681   6  19   0.0200   0.0328   0.0443   0.0119   0.0034  -0.0137   0.00    0.0
2025/04/01 01:18:30.000   39.135150814  141.132871681   117.1764   6  19   0.0200   0.0325   0.0441   0.0117   0.0040  -0.0134   0.00    0.0
2025/04/01 01:19:00.000   39.135150654  141.132871719   117.1835   6  19   0.0198   0.0323   0.0440   0.0116   0.0047  -0.0132   0.00    0.0
2025/04/01 01:19:30.000   39.135150483  141.132871693   117.1824   6  19   0.0199   0.0322   0.0440   0.0108   0.0053  -0.0130   0.00    0.0
2025/04/01 01:20:00.000   39.135150659  141.132871672   117.1851   6  19   0.0196   0.0318   0.0441   0.0112   0.0064  -0.0128   0.00    0.0
2025/04/01 01:20:30.000   39.135150565  141.132871539   117.1857   6  19   0.0196   0.0318   0.0439   0.0108   0.0070  -0.0123   0.00    0.0
2025/04/01 01:21:00.000   39.135150553  141.132871666   117.1804   6  19   0.0195   0.0314   0.0438   0.0107   0.0073  -0.0123   0.00    0.0
2025/04/01 01:21:30.000   39.135150762  141.132871912   117.1891   6  19   0.0194   0.0313   0.0437   0.0107   0.0083  -0.0123   0.00    0.0
2025/04/01 01:22:00.000   39.135150598  141.132871760   117.1823   6  19   0.0193   0.0310   0.0435   0.0105   0.0077  -0.0123   0.00    0.0
2025/04/01 01:22:30.000   39.135150659  141.132871548   117.1737   6  19   0.0194   0.0309   0.0435   0.0104   0.0086  -0.0121   0.00    0.0
2025/04/01 01:23:00.000   39.135150746  141.132871848   117.1821   6  19   0.0191   0.0305   0.0437   0.0098   0.0085  -0.0117   0.00    0.0
2025/04/01 01:23:30.000   39.135150619  141.132871889   117.1982   6  21   0.0192   0.0303   0.0436   0.0103   0.0092  -0.0117   0.00    0.0
2025/04/01 01:24:00.000   39.135150581  141.132871616   117.1825   6  21   0.0188   0.0302   0.0433   0.0096   0.0093  -0.0118   0.00    0.0
2025/04/01 01:24:30.000   39.135150735  141.132871636   117.1768   6  21   0.0187   0.0298   0.0430   0.0098   0.0099  -0.0125   0.00    0.0
2025/04/01 01:25:00.000   39.135150725  141.132871774   117.1818   6  21   0.0182   0.0298   0.0431   0.0096   0.0103  -0.0119   0.00    0.0
2025/04/01 01:25:30.000   39.135150485  141.132871790   117.1993   6  21   0.0183   0.0296   0.0428   0.0098   0.0106  -0.0120   0.00    0.0
2025/04/01 01:26:00.000   39.135150560  141.132871743   117.1828   6  21   0.0183   0.0293   0.0428   0.0093   0.0105  -0.0122   0.00    0.0
2025/04/01 01:26:30.000   39.135150765  141.132871843   117.1792   6  20   0.0186   0.0290   0.0430   0.0094   0.0110  -0.0118   0.00    0.0
2025/04/01 01:27:00.000   39.135150725  141.132871855   117.1843   6  20   0.0185   0.0287   0.0430   0.0096   0.0115  -0.0115   0.00    0.0
2025/04/01 01:27:30.000   39.135150580  141.132871777   117.1881   6  21   0.0183   0.0288   0.0429   0.0091   0.0116  -0.0116   0.00    0.0
2025/04/01 01:28:00.000   39.135150656  141.132871632   117.1715   6  21   0.0179   0.0286   0.0426   0.0089   0.0111  -0.0115   0.00    0.0
2025/04/01 01:28:30.000   39.135150721  141.132871802   117.1902   6  21   0.0180   0.0284   0.0425   0.0088   0.0120  -0.0119   0.00    0.0
2025/04/01 01:29:00.000   39.135150672  141.132871722   117.1821   6  21   0.0175   0.0282   0.0425   0.0087   0.0120  -0.0118   0.00    0.0
2025/04/01 01:29:30.000   39.135150594  141.132871851   117.1931   6  21   0.0176   0.0281   0.0422   0.0082   0.0120  -0.0122   0.00    0.0
2025/04/01 01:30:00.000   39.135150761  141.132871788   117.1774   6  21   0.0175   0.0279   0.0421   0.0082   0.0121  -0.0119   0.00    0.0
2025/04/01 01:30:30.000   39.135150645  141.132871760   117.1690   6  21   0.0178   0.0280   0.0427   0.0090   0.0129  -0.0104   0.00    0.0
2025/04/01 01:31:00.000   39.135150744  141.132871596   117.1697   6  21   0.0177   0.0278   0.0422   0.0086   0.0126  -0.0112   0.00    0.0
2025/04/01 01:31:30.000   39.135150536  141.132871786   117.1844   6  21   0.0180   0.0276   0.0418   0.0081   0.0124  -0.0116   0.00    0.0
2025/04/01 01:32:00.000   39.135150602  141.132871811   117.1857   6  21   0.0175   0.0275   0.0421   0.0079   0.0128  -0.0115   0.00    0.0
2025/04/01 01:32:30.000   39.135150671  141.132871770   117.1795   6  21   0.0176   0.0274   0.0417   0.0084   0.0128  -0.0119   0.00    0.0
2025/04/01 01:33:00.000   39.135150686  141.132871692   117.1758   6  22   0.0174   0.0273   0.0417   0.0075   0.0129  -0.0120   0.00    0.0
2025/04/01 01:33:30.000   39.135150733  141.132871726   117.1677   6  22   0.0175   0.0271   0.0414   0.0079   0.0125  -0.0117   0.00    0.0
2025/04/01 01:34:00.000   39.135150571  141.132871751   117.1756   6  23   0.0171   0.0270   0.0411   0.0074   0.0124  -0.0118   0.00    0.0
2025/04/01 01:34:30.000   39.135150574  141.132871729   117.1789   6  23   0.0170   0.0267   0.0407   0.0080   0.0122  -0.0115   0.00    0.0
2025/04/01 01:35:00.000   39.135150625  141.132871673   117.1793   6  23   0.0167   0.0266   0.0407   0.0076   0.0124  -0.0112   0.00    0.0
2025/04/01 01:35:30.000   39.135150638  141.132871574   117.1727   6  23   0.0168   0.0265   0.0405   0.0077   0.0121  -0.0110   0.00    0.0
2025/04/01 01:36:00.000   39.135150623  141.132871777   117.1866   6  23   0.0165   0.0263   0.0406   0.0073   0.0123  -0.0111   0.00    0.0
2025/04/01 01:36:30.000   39.135150627  141.132871779   117.1731   6  23   0.0165   0.0262   0.0402   0.0074   0.0123  -0.0110   0.00    0.0
2025/04/01 01:37:00.000   39.135150661  141.132871715   117.1777   6  22   0.0163   0.0261   0.0404   0.0071   0.0123  -0.0108   0.00    0.0
2025/04/01 01:37:30.000   39.135150593  141.132871762   117.1917   6  22   0.0161   0.0261   0.0402   0.0071   0.0123  -0.0106   0.00    0.0
2025/04/01 01:38:00.000   39.135150647  141.132871699   117.1803   6  22   0.0160   0.0258   0.0401   0.0071   0.0122  -0.0109   0.00    0.0
2025/04/01 01:38:30.000   39.135150610  141.132871634   117.1752   6  22   0.0167   0.0259   0.0400   0.0071   0.0121  -0.0112   0.00    0.0
2025/04/01 01:39:00.000   39.135150686  141.132871709   117.1752   6  22   0.0161   0.0255   0.0398   0.0072   0.0123  -0.0111   0.00    0.0
2025/04/01 01:39:30.000   39.135150607  141.132871810   117.1781   6  22   0.0162   0.0254   0.0400   0.0067   0.0120  -0.0107   0.00    0.0
2025/04/01 01:40:00.000   39.135150676  141.132871718   117.1830   6  22   0.0159   0.0252   0.0397   0.0067   0.0118  -0.0112   0.00    0.0
2025/04/01 01:40:30.000   39.135150669  141.132871689   117.1854   6  22   0.0162   0.0248   0.0397   0.0071   0.0121  -0.0111   0.00    0.0
2025/04/01 01:41:00.000   39.135150580  141.132871722   117.2007   6  22   0.0158   0.0251   0.0395   0.0064   0.0121  -0.0108   0.00    0.0
2025/04/01 01:41:30.000   39.135150591  141.132871593   117.1938   6  22   0.0157   0.0248   0.0398   0.0063   0.0120  -0.0107   0.00    0.0
2025/04/01 01:42:00.000   39.135150652  141.132871675   117.1862   6  22   0.0160   0.0248   0.0393   0.0057   0.0114  -0.0108   0.00    0.0
2025/04/01 01:42:30.000   39.135150633  141.132871688   117.1852   6  22   0.0156   0.0246   0.0391   0.0058   0.0116  -0.0108   0.00    0.0
2025/04/01 01:43:00.000   39.135150673  141.132871622   117.1750   6  22   0.0154   0.0247   0.0392   0.0060   0.0118  -0.0106   0.00    0.0
2025/04/01 01:43:30.000   39.135150576  141.132871625   117.1838   6  22   0.0158   0.0244   0.0390   0.0056   0.0116  -0.0105   0.00    0.0
2025/04/01 01:44:00.000   39.135150605  141.132871570   117.1860   6  22   0.0156   0.0241   0.0389   0.0055   0.0116  -0.0108   0.00    0.0
2025/04/01 01:44:30.000   39.135150584  141.132871622   117.1846   6  22   0.0153   0.0243   0.0388   0.0044   0.0113  -0.0107   0.00    0.0
2025/04/01 01:45:00.000   39.135150623  141.132871715   117.1907   6  22   0.0158   0.0242   0.0383   0.0049   0.0113  -0.0106   0.00    0.0
2025/04/01 01:45:30.000   39.135150593  141.132871753   117.1914   6  22   0.0151   0.0239   0.0385   0.0055   0.0111  -0.0100   0.00    0.0
2025/04/01 01:46:00.000   39.135150604  141.132871608   117.1950   6  22   0.0153   0.0236   0.0386   0.0057   0.0115  -0.0105   0.00    0.0
2025/04/01 01:46:30.000   39.135150549  141.132871626   117.2094   6  22   0.0155   0.0235   0.0382   0.0050   0.0107  -0.0105   0.00    0.0
2025/04/01 01:47:00.000   39.135150643  141.132871765   117.1966   6  22   0.0154   0.0236   0.0381   0.0051   0.0115  -0.0105   0.00    0.0
2025/04/01 01:47:30.000   39.135150660  141.132871758   117.1963   6  22   0.0153   0.0233   0.0381   0.0049   0.0107  -0.0105   0.00    0.0
2025/04/01 01:48:00.000   39.135150573  141.132871784   117.1978   6  22   0.0153   0.0231   0.0382   0.0045   0.0110  -0.0108   0.00    0.0
2025/04/01 01:48:30.000   39.135150541  141.132871620   117.1941   6  22   0.0151   0.0231   0.0381   0.0052   0.0109  -0.0104   0.00    0.0
2025/04/01 01:49:00.000   39.135150662  141.132871731   117.1866   6  22   0.0154   0.0228   0.0377   0.0047   0.0104  -0.0105   0.00    0.0
2025/04/01 01:49:30.000   39.135150573  141.132871811   117.1969   6  22   0.0153   0.0229   0.0381   0.0039   0.0095  -0.0098   0.00    0.0
2025/04/01 01:50:00.000   39.135150575  141.132871693   117.1966   6  22   0.0153   0.0230   0.0379   0.0035   0.0097  -0.0100   0.00    0.0
2025/04/01 01:50:30.000   39.135150660  141.132871844   117.1838   6  22   0.0149   0.0229   0.0381   0.0040   0.0095  -0.0098   0.00    0.0
2025/04/01 01:51:00.000   39.135150621  141.132871705   117.1882   6  22   0.0153   0.0227   0.0378   0.0046   0.0095  -0.0104   0.00    0.0
2025/04/01 01:51:30.000   39.135150516  141.132871794   117.1900   6  22   0.0146   0.0227   0.0380   0.0038   0.0096  -0.0093   0.00    0.0
2025/04/01 01:52:00.000   39.135150619  141.132871876   117.1865   6  22   0.0152   0.0226   0.0376   0.0038   0.0095  -0.0099   0.00    0.0
2025/04/01 01:52:30.000   39.135150614  141.132871850   117.1713   6  22   0.0153   0.0224   0.0376   0.0010   0.0093  -0.0096   0.00    0.0
2025/04/01 01:53:00.000   39.135150565  141.132871777   117.1867   6  22   0.0148   0.0224   0.0376   0.0039   0.0095  -0.0098   0.00    0.0
2025/04/01 01:53:30.000   39.135150596  141.132871921   117.1732   6  22   0.0151   0.0222   0.0374   0.0020   0.0087  -0.0096   0.00    0.0
2025/04/01 01:54:00.000   39.135150589  141.132871867   117.1765   6  22   0.0147   0.0222   0.0375   0.0034   0.0094  -0.0096   0.00    0.0
2025/04/01 01:54:30.000   39.135150486  141.132871818   117.1903   6  22   0.0144   0.0218   0.0374   0.0023   0.0091  -0.0092   0.00    0.0
2025/04/01 01:55:00.000   39.135150630  141.132871803   117.1747   6  22   0.0147   0.0220   0.0370   0.0029   0.0093  -0.0092   0.00    0.0
2025/04/01 01:55:30.000   39.135150638  141.132871779   117.1803   6  22   0.0147   0.0218   0.0370   0.0018   0.0087  -0.0096   0.00    0.0
2025/04/01 01:56:00.000   39.135150599  141.132871824   117.1807   6  22   0.0146   0.0219   0.0371   0.0029   0.0093  -0.0095   0.00    0.0
2025/04/01 01:56:30.000   39.135150539  141.132871867   117.1793   6  22   0.0148   0.0217   0.0369   0.0037   0.0090  -0.0097   0.00    0.0
2025/04/01 01:57:00.000   39.135150605  141.132871781   117.1860   6  22   0.0144   0.0216   0.0370  -0.0011   0.0089  -0.0095   0.00    0.0
2025/04/01 01:57:30.000   39.135150614  141.132871795   117.1872   6  22   0.0144   0.0214   0.0369   0.0011   0.0090  -0.0092   0.00    0.0
2025/04/01 01:58:00.000   39.135150604  141.132871889   117.1780   6  22   0.0147   0.0213   0.0368   0.0019   0.0090  -0.0093   0.00    0.0
2025/04/01 01:58:30.000   39.135150533  141.132871845   117.1950   6  22   0.0146   0.0213   0.0366   0.0006   0.0080  -0.0095   0.00    0.0
2025/04/01 01:59:00.000   39.135150523  141.132871860   117.1763   6  22   0.0145   0.0212   0.0366  -0.0021   0.0084  -0.0092   0.00    0.0
2025/04/01 01:59:30.000   39.135150531  141.132871869   117.1757   6  22   0.0144   0.0213   0.0364  -0.0030   0.0081  -0.0092   0.00    0.0
2025/04/01 02:00:00.000   39.135150624  141.132871819   117.1725   6  22   0.0144   0.0209   0.0364   0.0011   0.0086  -0.0094   0.00    0.0
2025/04/01 02:00:30.000   39.135150521  141.132871749   117.1894   6  22   0.0144   0.0210   0.0366  -0.0029   0.0080  -0.0091   0.00    0.0
2025/04/01 02:01:00.000   39.135150539  141.132871744   117.1905   6  22   0.0147   0.0209   0.0363   0.0005   0.0084  -0.0095   0.00    0.0
2025/04/01 02:01:30.000   39.135150552  141.132871837   117.1707   6  22   0.0144   0.0206   0.0362  -0.0012   0.0080  -0.0095   0.00    0.0
2025/04/01 02:02:00.000   39.135150504  141.132871900   117.1753   6  22   0.0144   0.0205   0.0363   0.0015   0.0082  -0.0091   0.00    0.0
2025/04/01 02:02:30.000   39.135150614  141.132871683   117.1701   6  22   0.0145   0.0206   0.0359  -0.0021   0.0080  -0.0095   0.00    0.0
2025/04/01 02:03:00.000   39.135150546  141.132871864   117.1639   6  22   0.0142   0.0206   0.0359  -0.0028   0.0080  -0.0090   0.00    0.0
2025/04/01 02:03:30.000   39.135150493  141.132871902   117.1739   6  22   0.0146   0.0204   0.0358  -0.0024   0.0077  -0.0088   0.00    0.0
2025/04/01 02:04:00.000   39.135150540  141.132871793   117.1809   6  22   0.0145   0.0201   0.0358  -0.0023   0.0075  -0.0089   0.00    0.0
2025/04/01 02:04:30.000   39.135150571  141.132871770   117.1779   6  22   0.0143   0.0200   0.0359  -0.0025   0.0077  -0.0087   0.00    0.0
2025/04/01 02:05:00.000   39.135150528  141.132871902   117.1773   6  22   0.0140   0.0200   0.0359  -0.0027   0.0076  -0.0087   0.00    0.0
2025/04/01 02:05:30.000   39.135150503  141.132872049   117.1813   6  22   0.0145   0.0199   0.0357  -0.0017   0.0075  -0.0088   0.00    0.0
2025/04/01 02:06:00.000   39.135150537  141.132871870   117.1872   6  22   0.0144   0.0198   0.0355  -0.0021   0.0080  -0.0094   0.00    0.0
2025/04/01 02:06:30.000   39.135150607  141.132871823   117.1870   6  22   0.0143   0.0198   0.0358  -0.0024   0.0075  -0.0090   0.00    0.0
2025/04/01 02:07:00.000   39.135150507  141.132871915   117.1810   6  22   0.0146   0.0196   0.0356  -0.0036   0.0075  -0.0092   0.00    0.0
2025/04/01 02:07:30.000   39.135150466  141.132871851   117.2031   6  22   0.0147   0.0195   0.0353   0.0019   0.0076  -0.0087   0.00    0.0
2025/04/01 02:08:00.000   39.135150545  141.132871792   117.1966   6  22   0.0141   0.0196   0.0353  -0.0029   0.0079  -0.0088   0.00    0.0
2025/04/01 02:08:30.000   39.135150523  141.132871770   117.1882   6  22   0.0141   0.0196   0.0352  -0.0039   0.0076  -0.0090   0.00    0.0
2025/04/01 02:09:00.000   39.135150577  141.132872001   117.1871   6  21   0.0144   0.0195   0.0359  -0.0028   0.0070  -0.0095   0.00    0.0
2025/04/01 02:09:30.000   39.135150528  141.132871944   117.1973   6  21   0.0150   0.0192   0.0355  -0.0013   0.0068  -0.0094   0.00    0.0
2025/04/01 02:10:00.000   39.135150509  141.132871981   117.1953   6  21   0.0146   0.0193   0.0356  -0.0022   0.0063  -0.0092   0.00    0.0
2025/04/01 02:10:30.000   39.135150526  141.132871893   117.1998   6  21   0.0143   0.0192   0.0356  -0.0033   0.0065  -0.0091   0.00    0.0
2025/04/01 02:11:00.000   39.135150585  141.132871957   117.1838   6  21   0.0144   0.0192   0.0356   0.0005   0.0061  -0.0093   0.00    0.0
2025/04/01 02:11:30.000   39.135150461  141.132871893   117.2144   6  21   0.0146   0.0191   0.0353  -0.0030   0.0060  -0.0092   0.00    0.0
2025/04/01 02:12:00.000   39.135150499  141.132871818   117.2116   6  21   0.0145   0.0191   0.0358  -0.0024   0.0065  -0.0090   0.00    0.0
2025/04/01 02:12:30.000   39.135150537  141.132871957   117.2001   6  21   0.0140   0.0188   0.0357  -0.0037   0.0068  -0.0090   0.00    0.0
2025/04/01 02:13:00.000   39.135150543  141.132871950   117.1875   6  21   0.0147   0.0189   0.0355  -0.0041   0.0060  -0.0094   0.00    0.0
2025/04/01 02:13:30.000   39.135150441  141.132871897   117.2170   6  21   0.0144   0.0188   0.0356  -0.0010   0.0068  -0.0087   0.00    0.0
2025/04/01 02:14:00.000   39.135150560  141.132871976   117.1832   6  21   0.0142   0.0189   0.0355  -0.0031   0.0069  -0.0091   0.00    0.0
2025/04/01 02:14:30.000   39.135150583  141.132871969   117.1855   6  21   0.0146   0.0186   0.0355  -0.0022   0.0064  -0.0089   0.00    0.0
2025/04/01 02:15:00.000   39.135150452  141.132872075   117.2120   6  20   0.0144   0.0185   0.0355  -0.0037   0.0055  -0.0090   0.00    0.0
2025/04/01 02:15:30.000   39.135150555  141.132871939   117.1981   6  20   0.0142   0.0187   0.0356  -0.0032   0.0064  -0.0092   0.00    0.0
2025/04/01 02:16:00.000   39.135150607  141.132871879   117.1604   6  20   0.0147   0.0186   0.0356  -0.0027   0.0062  -0.0091   0.00    0.0
2025/04/01 02:16:30.000   39.135150495  141.132872058   117.1826   6  20   0.0137   0.0183   0.0357  -0.0034   0.0063  -0.0080   0.00    0.0
2025/04/01 02:17:00.000   39.135150446  141.132872004   117.2047   6  20   0.0143   0.0183   0.0355  -0.0039   0.0062  -0.0086   0.00    0.0
2025/04/01 02:17:30.000   39.135150528  141.132871979   117.1976   6  20   0.0143   0.0182   0.0354  -0.0033   0.0056  -0.0085   0.00    0.0
2025/04/01 02:18:00.000   39.135150546  141.132872092   117.1716   6  20   0.0142   0.0180   0.0355  -0.0033   0.0057  -0.0086   0.00    0.0
2025/04/01 02:18:30.000   39.135150468  141.132872121   117.1818   6  20   0.0143   0.0181   0.0356  -0.0038   0.0056  -0.0085   0.00    0.0
2025/04/01 02:19:00.000   39.135150468  141.132872003   117.1912   6  20   0.0143   0.0181   0.0355  -0.0038   0.0062  -0.0079   0.00    0.0
2025/04/01 02:19:30.000   39.135150463  141.132872004   117.1944   6  20   0.0141   0.0179   0.0353  -0.0035   0.0057  -0.0084   0.00    0.0
2025/04/01 02:20:00.000   39.135150598  141.132871961   117.1810   6  20   0.0139   0.0179   0.0352  -0.0039   0.0056  -0.0082   0.00    0.0
2025/04/01 02:20:30.000   39.135150388  141.132872026   117.1975   6  20   0.0144   0.0177   0.0355  -0.0041   0.0052  -0.0086   0.00    0.0
2025/04/01 02:21:00.000   39.135150483  141.132872031   117.1778   6  20   0.0141   0.0178   0.0353  -0.0043   0.0052  -0.0082   0.00    0.0
2025/04/01 02:21:30.000   39.135150489  141.132872027   117.1917   6  20   0.0142   0.0177   0.0355  -0.0033   0.0059  -0.0086   0.00    0.0
2025/04/01 02:22:00.000   39.135150487  141.132871941   117.1886   6  20   0.0146   0.0178   0.0353  -0.0024   0.0059  -0.0084   0.00    0.0
2025/04/01 02:22:30.000   39.135150514  141.132871988   117.1869   6  20   0.0144   0.0176   0.0355  -0.0037   0.0043  -0.0075   0.00    0.0
2025/04/01 02:23:00.000   39.135150471  141.132871986   117.1923   6  20   0.0140   0.0175   0.0355  -0.0030   0.0060  -0.0076   0.00    0.0
2025/04/01 02:23:30.000   39.135150477  141.132871999   117.2007   6  20   0.0142   0.0178   0.0353  -0.0031   0.0054  -0.0078   0.00    0.0
2025/04/01 02:24:00.000   39.135150476  141.132872149   117.1674   6  20   0.0143   0.0174   0.0353  -0.0042   0.0050  -0.0078   0.00    0.0
2025/04/01 02:24:30.000   39.135150457  141.132872116   117.1768   6  20   0.0141   0.0175   0.0353  -0.0044   0.0053  -0.0078   0.00    0.0
2025/04/01 02:25:00.000   39.135150438  141.132872129   117.1682   6  20   0.0142   0.0175   0.0352  -0.0044   0.0048  -0.0081   0.00    0.0
2025/04/01 02:25:30.000   39.135150494  141.132872103   117.1726   6  20   0.0144   0.0173   0.0353  -0.0038   0.0052  -0.0078   0.00    0.0
2025/04/01 02:26:00.000   39.135150508  141.132872023   117.1676   6  20   0.0143   0.0172   0.0351  -0.0046   0.0047  -0.0080   0.00    0.0
2025/04/01 02:26:30.000   39.135150513  141.132871988   117.1885   6  20   0.0140   0.0173   0.0352  -0.0046   0.0052  -0.0076   0.00    0.0
2025/04/01 02:27:00.000   39.135150442  141.132872010   117.2029   6  20   0.0143   0.0172   0.0352  -0.0043   0.0047  -0.0075   0.00    0.0
2025/04/01 02:27:30.000   39.135150481  141.132872077   117.1698   6  20   0.0140   0.0171   0.0353  -0.0043   0.0051  -0.0070   0.00    0.0
2025/04/01 02:28:00.000   39.135150462  141.132872059   117.1844   6  20   0.0146   0.0173   0.0352  -0.0040   0.0044  -0.0079   0.00    0.0
2025/04/01 02:28:30.000   39.135150513  141.132872003   117.1884   6  20   0.0143   0.0172   0.0350  -0.0039   0.0051  -0.0080   0.00    0.0
2025/04/01 02:29:00.000   39.135150566  141.132872038   117.1711   6  20   0.0139   0.0171   0.0353  -0.0050   0.0050  -0.0067   0.00    0.0
2025/04/01 02:29:30.000   39.135150504  141.132872072   117.2021   6  20   0.0141   0.0170   0.0351  -0.0041   0.0048  -0.0071   0.00    0.0
2025/04/01 02:30:00.000   39.135150546  141.132872030   117.1950   6  20   0.0139   0.0170   0.0352  -0.0048   0.0052  -0.0071   0.00    0.0
2025/04/01 02:30:30.000   39.135150480  141.132872121   117.1824   6  19   0.0143   0.0171   0.0357  -0.0034   0.0050  -0.0076   0.00    0.0
2025/04/01 02:31:00.000   39.135150508  141.132872027   117.1942   6  19   0.0144   0.0168   0.0357  -0.0039   0.0045  -0.0081   0.00    0.0
2025/04/01 02:31:30.000   39.135150510  141.132872022   117.1873   6  19   0.0144   0.0167   0.0354  -0.0047   0.0031  -0.0084   0.00    0.0
2025/04/01 02:32:00.000   39.135150477  141.132872060   117.1844   6  19   0.0145   0.0168   0.0357  -0.0039   0.0040  -0.0082   0.00    0.0
2025/04/01 02:32:30.000   39.135150460  141.132872188   117.1769   6  19   0.0147   0.0171   0.0374  -0.0057  -0.0047  -0.0047   0.00    0.0
2025/04/01 02:33:00.000   39.135150501  141.132872102   117.1714   6  19   0.0148   0.0171   0.0372  -0.0056  -0.0047  -0.0054   0.00    0.0
2025/04/01 02:33:30.000   39.135150459  141.132872030   117.1703   6  19   0.0146   0.0169   0.0368  -0.0047  -0.0023  -0.0063   0.00    0.0
2025/04/01 02:34:00.000   39.135150441  141.132872094   117.1982   6  19   0.0148   0.0172   0.0375  -0.0052  -0.0043  -0.0037   0.00    0.0
2025/04/01 02:34:30.000   39.135150550  141.132872043   117.1850   6  19   0.0149   0.0173   0.0372  -0.0048  -0.0029  -0.0033   0.00    0.0
2025/04/01 02:35:00.000   39.135150475  141.132872165   117.1761   6  19   0.0149   0.0168   0.0360  -0.0051   0.0022  -0.0065   0.00    0.0
2025/04/01 02:35:30.000   39.135150420  141.132872132   117.1879   6  19   0.0150   0.0170   0.0374  -0.0058  -0.0038  -0.0019   0.00    0.0
2025/04/01 02:36:00.000   39.135150410  141.132872033   117.1879   6  20   0.0152   0.0169   0.0374  -0.0060  -0.0042  -0.0038   0.00    0.0
2025/04/01 02:36:30.000   39.135150491  141.132872266   117.1907   6  20   0.0141   0.0168   0.0365  -0.0067  -0.0045  -0.0031   0.00    0.0
2025/04/01 02:37:00.000   39.135150424  141.132872122   117.1766   6  20   0.0147   0.0170   0.0365  -0.0054  -0.0043  -0.0051   0.00    0.0
2025/04/01 02:37:30.000   39.135150461  141.132872112   117.1567   6  20   0.0145   0.0168   0.0362  -0.0062  -0.0045  -0.0052   0.00    0.0
2025/04/01 02:38:00.000   39.135150439  141.132872134   117.1823   6  20   0.0148   0.0166   0.0360  -0.0057  -0.0039  -0.0059   0.00    0.0
2025/04/01 02:38:30.000   39.135150449  141.132872176   117.1703   6  20   0.0143   0.0168   0.0360  -0.0059  -0.0036  -0.0052   0.00    0.0
2025/04/01 02:39:00.000   39.135150384  141.132872242   117.1803   6  20   0.0147   0.0166   0.0357  -0.0066  -0.0044  -0.0054   0.00    0.0
2025/04/01 02:39:30.000   39.135150393  141.132872088   117.1927   6  20   0.0143   0.0167   0.0359  -0.0063  -0.0038  -0.0047   0.00    0.0
2025/04/01 02:40:00.000   39.135150444  141.132872128   117.2284   6  20   0.0146   0.0167   0.0357  -0.0069  -0.0033  -0.0053   0.00    0.0
2025/04/01 02:40:30.000   39.135150412  141.132872180   117.1813   6  20   0.0149   0.0164   0.0356  -0.0058  -0.0046  -0.0063   0.00    0.0
2025/04/01 02:41:00.000   39.135150473  141.132872106   117.1549   6  20   0.0147   0.0164   0.0356  -0.0064  -0.0049  -0.0053   0.00    0.0
2025/04/01 02:41:30.000   39.135150416  141.132872198   117.1842   6  20   0.0146   0.0163   0.0356  -0.0060  -0.0039  -0.0049   0.00    0.0
2025/04/01 02:42:00.000   39.135150450  141.132872116   117.2193   6  20   0.0145   0.0163   0.0357  -0.0067  -0.0038  -0.0043   0.00    0.0
2025/04/01 02:42:30.000   39.135150474  141.132872168   117.2014   6  20   0.0150   0.0164   0.0354  -0.0065  -0.0024  -0.0051   0.00    0.0
2025/04/01 02:43:00.000   39.135150509  141.132872114   117.1594   6  20   0.0146   0.0164   0.0353  -0.0069  -0.0034  -0.0043   0.00    0.0
2025/04/01 02:43:30.000   39.135150464  141.132872089   117.1897   6  20   0.0144   0.0165   0.0353  -0.0066  -0.0034  -0.0048   0.00    0.0
2025/04/01 02:44:00.000   39.135150470  141.132872083   117.1909   6  20   0.0145   0.0162   0.0351  -0.0067  -0.0037  -0.0039   0.00    0.0
2025/04/01 02:44:30.000   39.135150460  141.132872094   117.1908   6  20   0.0148   0.0162   0.0351  -0.0067  -0.0035  -0.0052   0.00    0.0
2025/04/01 02:45:00.000   39.135150393  141.132872137   117.2039   6  20   0.0148   0.0162   0.0352  -0.0064  -0.0039  -0.0054   0.00    0.0
2025/04/01 02:45:30.000   39.135150408  141.132872132   117.1778   6  20   0.0147   0.0165   0.0351  -0.0065  -0.0033  -0.0043   0.00    0.0
2025/04/01 02:46:00.000   39.135150474  141.132872174   117.1778   6  20   0.0146   0.0163   0.0352  -0.0066  -0.0043  -0.0045   0.00    0.0
2025/04/01 02:46:30.000   39.135150484  141.132872162   117.1993   6  20   0.0147   0.0158   0.0351  -0.0067  -0.0034  -0.0045   0.00    0.0
2025/04/01 02:47:00.000   39.135150449  141.132871961   117.1897   6  20   0.0146   0.0164   0.0352  -0.0064   0.0007  -0.0034   0.00    0.0
2025/04/01 02:47:30.000   39.135150457  141.132872145   117.1725   6  20   0.0150   0.0163   0.0350  -0.0065  -0.0036  -0.0045   0.00    0.0
2025/04/01 02:48:00.000   39.135150444  141.132872144   117.1893   6  20   0.0146   0.0161   0.0350  -0.0066  -0.0027  -0.0024   0.00    0.0
2025/04/01 02:48:30.000   39.135150374  141.132872112   117.1797   6  20   0.0145   0.0159   0.0349  -0.0068  -0.0023  -0.0020   0.00    0.0
2025/04/01 02:49:00.000   39.135150399  141.132872139   117.1844   6  20   0.0146   0.0161   0.0349  -0.0066  -0.0036  -0.0043   0.00    0.0
2025/04/01 02:49:30.000   39.135150419  141.132872127   117.1811   6  20   0.0147   0.0157   0.0348  -0.0076  -0.0039  -0.0052   0.00    0.0
2025/04/01 02:50:00.000   39.135150369  141.132872201   117.1739   6  20   0.0144   0.0160   0.0345  -0.0072  -0.0017  -0.0019   0.00    0.0
2025/04/01 02:50:30.000   39.135150406  141.132872147   117.2076   6  20   0.0150   0.0160   0.0347  -0.0064  -0.0026  -0.0042   0.00    0.0
2025/04/01 02:51:00.000   39.135150411  141.132872166   117.2009   6  20   0.0148   0.0158   0.0348  -0.0074  -0.0028  -0.0033   0.00    0.0
2025/04/01 02:51:30.000   39.135150461  141.132872087   117.2058   6  21   0.0143   0.0157   0.0349  -0.0072  -0.0036  -0.0021   0.00    0.0
2025/04/01 02:52:00.000   39.135150408  141.132872116   117.1928   6  21   0.0148   0.0159   0.0340  -0.0067  -0.0041  -0.0038   0.00    0.0
2025/04/01 02:52:30.000   39.135150427  141.132872098   117.1807   6  21   0.0147   0.0157   0.0340  -0.0068  -0.0034   0.0017   0.00    0.0
2025/04/01 02:53:00.000   39.135150444  141.132872150   117.1770   6  21   0.0148   0.0159   0.0338  -0.0062  -0.0043  -0.0022   0.00    0.0
2025/04/01 02:53:30.000   39.135150438  141.132872173   117.1828   6  22   0.0146   0.0158   0.0339  -0.0071  -0.0043   0.0040   0.00    0.0
2025/04/01 02:54:00.000   39.135150440  141.132872105   117.1745   6  22   0.0146   0.0159   0.0334  -0.0063  -0.0040   0.0051   0.00    0.0
2025/04/01 02:54:30.000   39.135150425  141.132872095   117.1911   6  22   0.0145   0.0156   0.0331  -0.0068  -0.0052   0.0048   0.00    0.0
2025/04/01 02:55:00.000   39.135150468  141.132872139   117.1782   6  22   0.0146   0.0155   0.0329  -0.0063  -0.0045   0.0060   0.00    0.0
2025/04/01 02:55:30.000   39.135150402  141.132872177   117.1746   6  22   0.0144   0.0156   0.0327  -0.0068  -0.0050   0.0049   0.00    0.0
2025/04/01 02:56:00.000   39.135150374  141.132872061   117.1807   6  22   0.0156   0.0163   0.0342  -0.0088  -0.0090   0.0094   0.00    0.0
2025/04/01 02:56:30.000   39.135150443  141.132872078   117.1926   6  22   0.0151   0.0159   0.0334  -0.0072  -0.0064   0.0080   0.00    0.0
2025/04/01 02:57:00.000   39.135150449  141.132872273   117.1806   6  22   0.0154   0.0160   0.0327  -0.0077  -0.0069   0.0072   0.00    0.0
2025/04/01 02:57:30.000   39.135150426  141.132872134   117.1728   6  22   0.0157   0.0163   0.0344  -0.0077  -0.0087   0.0102   0.00    0.0
2025/04/01 02:58:00.000   39.135150390  141.132872031   117.1818   6  22   0.0155   0.0164   0.0344  -0.0083  -0.0087   0.0101   0.00    0.0
2025/04/01 02:58:30.000   39.135150396  141.132872136   117.1689   6  21   0.0157   0.0162   0.0342  -0.0087  -0.0086   0.0108   0.00    0.0
2025/04/01 02:59:00.000   39.135150430  141.132872156   117.1763   6  21   0.0157   0.0160   0.0343  -0.0084  -0.0086   0.0104   0.00    0.0
2025/04/01 02:59:30.000   39.135150435  141.132872191   117.2123   6  21   0.0154   0.0160   0.0337  -0.0084  -0.0092   0.0099   0.00    0.0
2025/04/01 03:00:00.000   39.135150414  141.132872185   117.1599   6  21   0.0155   0.0160   0.0338  -0.0081  -0.0083   0.0102   0.00    0.0
2025/04/01 03:00:30.000   39.135150383  141.132872174   117.1634   6  21   0.0155   0.0162   0.0338  -0.0087  -0.0092   0.0101   0.00    0.0
2025/04/01 03:01:00.000   39.135150435  141.132872275   117.1823   6  21   0.0154   0.0157   0.0337  -0.0081  -0.0086   0.0104   0.00    0.0
2025/04/01 03:01:30.000   39.135150439  141.132872179   117.1945   6  21   0.0153   0.0160   0.0340  -0.0082  -0.0085   0.0104   0.00    0.0
2025/04/01 03:02:00.000   39.135150383  141.132872193   117.1710   6  21   0.0158   0.0158   0.0332  -0.0088  -0.0090   0.0104   0.00    0.0
2025/04/01 03:02:30.000   39.135150413  141.132872196   117.1838   6  21   0.0159   0.0157   0.0332  -0.0078  -0.0083   0.0104   0.00    0.0
2025/04/01 03:03:00.000   39.135150363  141.132872176   117.1730   6  21   0.0157   0.0157   0.0335  -0.0086  -0.0091   0.0100   0.00    0.0
2025/04/01 03:03:30.000   39.135150401  141.132872156   117.1720   6  21   0.0155   0.0156   0.0333  -0.0082  -0.0089   0.0099   0.00    0.0
2025/04/01 03:04:00.000   39.135150419  141.132872178   117.1856   6  21   0.0156   0.0159   0.0333  -0.0079  -0.0082   0.0103   0.00    0.0
2025/04/01 03:04:30.000   39.135150387  141.132872082   117.1958   6  21   0.0159   0.0155   0.0329  -0.0084  -0.0090   0.0098   0.00    0.0
2025/04/01 03:05:00.000   39.135150393  141.132872152   117.1771   6  21   0.0158   0.0154   0.0331  -0.0080  -0.0081   0.0100   0.00    0.0
2025/04/01 03:05:30.000   39.135150345  141.132872237   117.1635   6  21   0.0157   0.0154   0.0328  -0.0083  -0.0083   0.0102   0.00    0.0
2025/04/01 03:06:00.000   39.135150395  141.132872247   117.1788   6  21   0.0157   0.0158   0.0329  -0.0085  -0.0084   0.0107   0.00    0.0
2025/04/01 03:06:30.000   39.135150475  141.132872236   117.2000   6  21   0.0158   0.0155   0.0327  -0.0083  -0.0085   0.0104   0.00    0.0
2025/04/01 03:07:00.000   39.135150388  141.132872206   117.1572   6  21   0.0155   0.0157   0.0328  -0.0088  -0.0084   0.0108   0.00    0.0
2025/04/01 03:07:30.000   39.135150438  141.132872176   117.1907   6  21   0.0155   0.0158   0.0328  -0.0087  -0.0088   0.0110   0.00    0.0
2025/04/01 03:08:00.000   39.135150458  141.132872175   117.1972   6  21   0.0161   0.0153   0.0325  -0.0078  -0.0084   0.0100   0.00    0.0
2025/04/01 03:08:30.000   39.135150392  141.132872190   117.1828   6  21   0.0154   0.0155   0.0325  -0.0079  -0.0081   0.0107   0.00    0.0
2025/04/01 03:09:00.000   39.135150435  141.132872185   117.1719   6  21   0.0156   0.0157   0.0326  -0.0082  -0.0081   0.0111   0.00    0.0
2025/04/01 03:09:30.000   39.135150388  141.132872240   117.1658   6  21   0.0154   0.0155   0.0326  -0.0084  -0.0081   0.0109   0.00    0.0
2025/04/01 03:10:00.000   39.135150402  141.132872207   117.1840   6  21   0.0151   0.0153   0.0326  -0.0083  -0.0082   0.0107   0.00    0.0
2025/04/01 03:10:30.000   39.135150424  141.132872247   117.1755   6  21   0.0156   0.0153   0.0326  -0.0077  -0.0077   0.0107   0.00    0.0
2025/04/01 03:11:00.000   39.135150476  141.132872266   117.2000   6  21   0.0156   0.0153   0.0324  -0.0086  -0.0085   0.0104   0.00    0.0
2025/04/01 03:11:30.000   39.135150383  141.132872146   117.1752   6  21   0.0156   0.0155   0.0320  -0.0086  -0.0082   0.0105   0.00    0.0
2025/04/01 03:12:00.000   39.135150355  141.132872131   117.1645   6  21   0.0156   0.0151   0.0323  -0.0079  -0.0080   0.0104   0.00    0.0
2025/04/01 03:12:30.000   39.135150504  141.132872279   117.1948   6  21   0.0153   0.0153   0.0320  -0.0086  -0.0082   0.0107   0.00    0.0
2025/04/01 03:13:00.000   39.135150402  141.132872140   117.1690   6  21   0.0155   0.0156   0.0321  -0.0082  -0.0079   0.0103   0.00    0.0
2025/04/01 03:13:30.000   39.135150376  141.132872119   117.1673   6  21   0.0156   0.0155   0.0319  -0.0076  -0.0073   0.0103   0.00    0.0
2025/04/01 03:14:00.000   39.135150485  141.132872255   117.2030   6  21   0.0159   0.0152   0.0317  -0.0082  -0.0078   0.0098   0.00    0.0
2025/04/01 03:14:30.000   39.135150400  141.132872099   117.1731   6  21   0.0156   0.0150   0.0323  -0.0075  -0.0078   0.0103   0.00    0.0
2025/04/01 03:15:00.000   39.135150386  141.132872114   117.1696   6  21   0.0156   0.0151   0.0318  -0.0083  -0.0074   0.0101   0.00    0.0
2025/04/01 03:15:30.000   39.135150481  141.132872200   117.1876   6  22   0.0157   0.0151   0.0318  -0.0078  -0.0077   0.0101   0.00    0.0
2025/04/01 03:16:00.000   39.135150431  141.132872178   117.1813   6  22   0.0158   0.0150   0.0314  -0.0079  -0.0076   0.0102   0.00    0.0
2025/04/01 03:16:30.000   39.135150463  141.132872146   117.1871   6  22   0.0153   0.0148   0.0316  -0.0081  -0.0079   0.0096   0.00    0.0
2025/04/01 03:17:00.000   39.135150450  141.132872198   117.1850   6  22   0.0156   0.0154   0.0322  -0.0074  -0.0078   0.0106   0.00    0.0
2025/04/01 03:17:30.000   39.135150440  141.132872201   117.1683   6  22   0.0158   0.0146   0.0313  -0.0084  -0.0082   0.0096   0.00    0.0
2025/04/01 03:18:00.000   39.135150470  141.132872183   117.1959   6  21   0.0157   0.0148   0.0319  -0.0080  -0.0070   0.0103   0.00    0.0
2025/04/01 03:18:30.000   39.135150466  141.132872165   117.1925   6  21   0.0154   0.0150   0.0316  -0.0085  -0.0077   0.0099   0.00    0.0
2025/04/01 03:19:00.000   39.135150444  141.132872161   117.1840   6  21   0.0157   0.0148   0.0312  -0.0087  -0.0078   0.0095   0.00    0.0
2025/04/01 03:19:30.000   39.135150459  141.132872196   117.1769   6  21   0.0159   0.0152   0.0311  -0.0077  -0.0071   0.0095   0.00    0.0
2025/04/01 03:20:00.000   39.135150475  141.132872214   117.1682   6  21   0.0157   0.0151   0.0312  -0.0078  -0.0076   0.0103   0.00    0.0
2025/04/01 03:20:30.000   39.135150432  141.132872195   117.1626   6  21   0.0148   0.0150   0.0316  -0.0085  -0.0077   0.0104   0.00    0.0
2025/04/01 03:21:00.000   39.135150570  141.132872242   117.1917   6  21   0.0155   0.0150   0.0315  -0.0081  -0.0075   0.0102   0.00    0.0
2025/04/01 03:21:30.000   39.135150448  141.132872211   117.1922   6  21   0.0157   0.0146   0.0312  -0.0074  -0.0073   0.0101   0.00    0.0
2025/04/01 03:22:00.000   39.135150441  141.132872179   117.1769   6  21   0.0153   0.0148   0.0313  -0.0079  -0.0070   0.0101   0.00    0.0
2025/04/01 03:22:30.000   39.135150495  141.132872189   117.1900   6  21   0.0156   0.0151   0.0313  -0.0080  -0.0068   0.0101   0.00    0.0
2025/04/01 03:23:00.000   39.135150427  141.132872184   117.1643   6  21   0.0155   0.0145   0.0307  -0.0080  -0.0069   0.0099   0.00    0.0
2025/04/01 03:23:30.000   39.135150455  141.132872169   117.1629   6  21   0.0151   0.0153   0.0312  -0.0079  -0.0076   0.0100   0.00    0.0
2025/04/01 03:24:00.000   39.135150546  141.132872219   117.2061   6  21   0.0152   0.0151   0.0311  -0.0079  -0.0067   0.0102   0.00    0.0
2025/04/01 03:24:30.000   39.135150489  141.132872206   117.1794   6  21   0.0151   0.0149   0.0308  -0.0079  -0.0065   0.0100   0.00    0.0
2025/04/01 03:25:00.000   39.135150353  141.132872128   117.1444   6  21   0.0155   0.0147   0.0310  -0.0081  -0.0075   0.0094   0.00    0.0
2025/04/01 03:25:30.000   39.135150505  141.132872216   117.1970   6  21   0.0153   0.0142   0.0311  -0.0078  -0.0072   0.0097   0.00    0.0
2025/04/01 03:26:00.000   39.135150484  141.132872131   117.2026   6  21   0.0151   0.0144   0.0308  -0.0079  -0.0071   0.0102   0.00    0.0
2025/04/01 03:26:30.000   39.135150523  141.132872130   117.1851   6  21   0.0152   0.0146   0.0312  -0.0071  -0.0068   0.0105   0.00    0.0
2025/04/01 03:27:00.000   39.135150433  141.132872160   117.1514   6  21   0.0153   0.0148   0.0311  -0.0077  -0.0059   0.0097   0.00    0.0
2025/04/01 03:27:30.000   39.135150452  141.132872129   117.1724   6  21   0.0149   0.0146   0.0309  -0.0077  -0.0059   0.0099   0.00    0.0
2025/04/01 03:28:00.000   39.135150530  141.132872132   117.2010   6  21   0.0154   0.0147   0.0308  -0.0080  -0.0070   0.0100   0.00    0.0
2025/04/01 03:28:30.000   39.135150490  141.132872161   117.1908   6  21   0.0154   0.0147   0.0307  -0.0074  -0.0057   0.0095   0.00    0.0
