% program    : MADOCALIB ver.2.0
% inp file   : .\data\rinex\MIZU00JPN_R_20250910000_01D_30S_MO.rnx
% inp file   : .\data\rinex\BRDM00DLR_S_20250910000_01D_MN.rnx
% inp file   : .\data\l6_is-qzss-mdc-004\%Y\%n\%Y%n%HU.204.l6
% inp file   : .\data\l6_is-qzss-mdc-004\%Y\%n\%Y%n%HU.206.l6
% satantfile : 
% rcvantfile : .\data\igs20.atx
% obs start  : 2025/04/01 01:00:00.0 GPST (week2360 176400.0s)
% obs end    : 2025/04/01 01:59:30.0 GPST (week2360 179970.0s)
% pos mode   : PPP Kinematic
% freqs      : L1+2
% siggps     : L1/L2/L5
% sigqzs     : L1/L5/L2
% siggal     : E1/E5a/E5b/E6
% sigbds2    : B1I/B3I/B2I
% sigbds3    : B1I/B3I/B2a
% solution   : Forward
% elev mask  : 10.0 deg
% dynamics   : off
% tidecorr   : on
% ionos opt  : Iono-Free LC
% tropo opt  : Estimate ZTD
% ephemeris  : Broadcast+SSR APC
% navi sys   : GPS GLONASS Galileo QZSS
% amb mode   : OFF
% ar sys     : GPS Galileo QZSS BDS
% val ratio  : 1.5
% max std pos: 1.5 m
% ionocorr   : off
% antenna1   : SEPCHOKE_B3E6   NONE  ( 0.0000  0.0000  0.1206)
%
% (lat/lon/height=WGS84/ellipsoidal,Q=1:fix,2:float,3:sbas,4:dgps,5:single,6:ppp,ns=# of satellites)
%  GPST                  latitude(deg) longitude(deg)  height(m)   Q  ns   sdn(m)   sde(m)   sdu(m)  sdne(m)  sdeu(m)  sdun(m) age(s)  ratio
2025/04/01 01:00:00.000   39.135153508  141.132874873   116.3624   6  19   3.9112   3.0140   6.7834   1.7530  -2.7583  -3.2689   0.00    0.0
2025/04/01 01:00:30.000   39.135153105  141.132877844   116.0072   6  18   2.3354   2.0227   3.8257   1.0548  -1.4095  -1.8600   0.00    0.0
2025/04/01 01:01:00.000   39.135141903  141.132877914   117.1508   6  18   1.5631   1.5735   2.5176   0.7397  -0.7552  -1.2169   0.00    0.0
2025/04/01 01:01:30.000   39.135146623  141.132876540   117.6880   6  18   1.1207   1.3047   1.8557   0.5630  -0.3488  -0.8628   0.00    0.0
2025/04/01 01:02:00.000   39.135152853  141.132873793   117.6416   6  19   0.8452   1.1158   1.4827   0.4476   0.2245  -0.6459   0.00    0.0
2025/04/01 01:02:30.000   39.135156351  141.132874580   117.4222   6  19   0.6632   0.9751   1.2517   0.3694   0.3433  -0.5065   0.00    0.0
2025/04/01 01:03:00.000   39.135151157  141.132874625   117.5175   6  19   0.5365   0.8642   1.0924   0.3122   0.3800  -0.4104   0.00    0.0
2025/04/01 01:03:30.000   39.135148040  141.132874036   117.5227   6  18   0.4447   0.7752   0.9735   0.2687   0.3903  -0.3409   0.00    0.0
2025/04/01 01:04:00.000   39.135149111  141.132873947   117.4193   6  19   0.3758   0.7003   0.8794   0.2343   0.3866  -0.2887   0.00    0.0
2025/04/01 01:04:30.000   39.135150295  141.132873422   117.3403   6  19   0.3228   0.6364   0.8014   0.2061   0.3767  -0.2483   0.00    0.0
2025/04/01 01:05:00.000   39.135150337  141.132871705   117.4313   6  19   0.2810   0.5812   0.7343   0.1827   0.3633  -0.2162   0.00    0.0
2025/04/01 01:05:30.000   39.135150460  141.132872563   117.2658   6  19   0.2474   0.5331   0.6753   0.1631   0.3480  -0.1903   0.00    0.0
2025/04/01 01:06:00.000   39.135150425  141.132873066   117.2095   6  19   0.2199   0.4908   0.6229   0.1465   0.3318  -0.1691   0.00    0.0
2025/04/01 01:06:30.000   39.135150727  141.132873314   117.2224   6  18   0.1972   0.4576   0.5829   0.1323   0.3240  -0.1514   0.00    0.0
2025/04/01 01:07:00.000   39.135151175  141.132873247   117.2515   6  18   0.1781   0.4288   0.5492   0.1207   0.3168  -0.1357   0.00    0.0
2025/04/01 01:07:30.000   39.135150545  141.132872060   117.3470   6  18   0.1620   0.4035   0.5199   0.1106   0.3096  -0.1223   0.00    0.0
2025/04/01 01:08:00.000   39.135150675  141.132871786   117.2880   6  18   0.1481   0.3810   0.4941   0.1018   0.3025  -0.1108   0.00    0.0
2025/04/01 01:08:30.000   39.135150617  141.132871719   117.2662   6  18   0.1361   0.3609   0.4711   0.0940   0.2953  -0.1009   0.00    0.0
2025/04/01 01:09:00.000   39.135150442  141.132871631   117.2678   6  19   0.1257   0.3427   0.4504   0.0871   0.2880  -0.0923   0.00    0.0
2025/04/01 01:09:30.000   39.135150616  141.132871484   117.2715   6  19   0.1166   0.3262   0.4315   0.0810   0.2808  -0.0849   0.00    0.0
2025/04/01 01:10:00.000   39.135150784  141.132871523   117.2321   6  19   0.1086   0.3112   0.4143   0.0754   0.2736  -0.0783   0.00    0.0
2025/04/01 01:10:30.000   39.135150422  141.132872652   117.2411   6  19   0.1014   0.2974   0.3983   0.0705   0.2665  -0.0726   0.00    0.0
2025/04/01 01:11:00.000   39.135150492  141.132872517   117.2426   6  19   0.0951   0.2847   0.3836   0.0658   0.2594  -0.0674   0.00    0.0
2025/04/01 01:11:30.000   39.135150907  141.132872084   117.2138   6  19   0.0893   0.2729   0.3700   0.0618   0.2525  -0.0628   0.00    0.0
2025/04/01 01:12:00.000   39.135150820  141.132872312   117.2313   6  19   0.0843   0.2619   0.3572   0.0580   0.2457  -0.0589   0.00    0.0
2025/04/01 01:12:30.000   39.135150872  141.132873047   117.2397   6  19   0.0796   0.2516   0.3453   0.0546   0.2391  -0.0552   0.00    0.0
2025/04/01 01:13:00.000   39.135150856  141.132871777   117.2905   6  19   0.0755   0.2420   0.3340   0.0513   0.2326  -0.0521   0.00    0.0
2025/04/01 01:13:30.000   39.135150566  141.132872443   117.3379   6  19   0.0717   0.2330   0.3235   0.0484   0.2263  -0.0492   0.00    0.0
2025/04/01 01:14:00.000   39.135150867  141.132872778   117.3052   6  19   0.0682   0.2245   0.3136   0.0457   0.2202  -0.0467   0.00    0.0
2025/04/01 01:14:30.000   39.135150839  141.132872637   117.3228   6  19   0.0650   0.2165   0.3043   0.0431   0.2143  -0.0444   0.00    0.0
2025/04/01 01:15:00.000   39.135150832  141.132872747   117.3186   6  19   0.0621   0.2089   0.2955   0.0407   0.2086  -0.0423   0.00    0.0
2025/04/01 01:15:30.000   39.135150809  141.132873104   117.3470   6  19   0.0595   0.2017   0.2872   0.0384   0.2030  -0.0405   0.00    0.0
2025/04/01 01:16:00.000   39.135150641  141.132872709   117.3560   6  19   0.0570   0.1949   0.2794   0.0364   0.1977  -0.0389   0.00    0.0
2025/04/01 01:16:30.000   39.135150753  141.132872765   117.3197   6  19   0.0547   0.1885   0.2720   0.0346   0.1926  -0.0374   0.00    0.0
2025/04/01 01:17:00.000   39.135150585  141.132872673   117.3116   6  19   0.0526   0.1824   0.2649   0.0327   0.1877  -0.0359   0.00    0.0
2025/04/01 01:17:30.000   39.135150534  141.132872872   117.3366   6  19   0.0507   0.1766   0.2582   0.0309   0.1829  -0.0349   0.00    0.0
2025/04/01 01:18:00.000   39.135150528  141.132872500   117.3227   6  19   0.0489   0.1711   0.2519   0.0294   0.1783  -0.0337   0.00    0.0
2025/04/01 01:18:30.000   39.135150768  141.132872495   117.3209   6  19   0.0471   0.1658   0.2458   0.0278   0.1738  -0.0327   0.00    0.0
2025/04/01 01:19:00.000   39.135150546  141.132872466   117.3408   6  19   0.0457   0.1607   0.2401   0.0263   0.1695  -0.0319   0.00    0.0
2025/04/01 01:19:30.000   39.135150398  141.132872660   117.3480   6  19   0.0442   0.1558   0.2346   0.0249   0.1653  -0.0310   0.00    0.0
2025/04/01 01:20:00.000   39.135150573  141.132872519   117.3387   6  19   0.0429   0.1512   0.2293   0.0237   0.1613  -0.0304   0.00    0.0
2025/04/01 01:20:30.000   39.135150575  141.132872395   117.3453   6  19   0.0416   0.1468   0.2243   0.0223   0.1574  -0.0296   0.00    0.0
2025/04/01 01:21:00.000   39.135150636  141.132872614   117.3391   6  19   0.0403   0.1425   0.2194   0.0211   0.1536  -0.0289   0.00    0.0
2025/04/01 01:21:30.000   39.135150793  141.132872877   117.3322   6  19   0.0392   0.1384   0.2147   0.0200   0.1499  -0.0283   0.00    0.0
2025/04/01 01:22:00.000   39.135150598  141.132872634   117.3242   6  19   0.0382   0.1345   0.2102   0.0188   0.1463  -0.0277   0.00    0.0
2025/04/01 01:22:30.000   39.135150661  141.132872136   117.2973   6  19   0.0372   0.1307   0.2058   0.0179   0.1428  -0.0271   0.00    0.0
2025/04/01 01:23:00.000   39.135150691  141.132872397   117.2967   6  19   0.0364   0.1270   0.2016   0.0169   0.1394  -0.0267   0.00    0.0
2025/04/01 01:23:30.000   39.135150579  141.132872500   117.3074   6  21   0.0354   0.1235   0.1975   0.0158   0.1361  -0.0262   0.00    0.0
2025/04/01 01:24:00.000   39.135150572  141.132872064   117.2914   6  21   0.0343   0.1199   0.1933   0.0148   0.1327  -0.0262   0.00    0.0
2025/04/01 01:24:30.000   39.135150725  141.132871879   117.2672   6  21   0.0335   0.1166   0.1891   0.0137   0.1294  -0.0263   0.00    0.0
2025/04/01 01:25:00.000   39.135150684  141.132872006   117.2691   6  21   0.0329   0.1133   0.1849   0.0124   0.1261  -0.0263   0.00    0.0
2025/04/01 01:25:30.000   39.135150446  141.132872184   117.3020   6  21   0.0321   0.1099   0.1808   0.0114   0.1227  -0.0259   0.00    0.0
2025/04/01 01:26:00.000   39.135150578  141.132872352   117.2994   6  21   0.0315   0.1067   0.1765   0.0108   0.1193  -0.0261   0.00    0.0
2025/04/01 01:26:30.000   39.135150752  141.132872326   117.2700   6  20   0.0308   0.1040   0.1728   0.0085   0.1165  -0.0264   0.00    0.0
2025/04/01 01:27:00.000   39.135150696  141.132872207   117.2570   6  20   0.0303   0.1017   0.1694   0.0071   0.1140  -0.0264   0.00    0.0
2025/04/01 01:27:30.000   39.135150557  141.132872088   117.2600   6  21   0.0298   0.0994   0.1662   0.0057   0.1116  -0.0263   0.00    0.0
2025/04/01 01:28:00.000   39.135150630  141.132871870   117.2402   6  21   0.0289   0.0971   0.1626   0.0021   0.1091  -0.0263   0.00    0.0
2025/04/01 01:28:30.000   39.135150687  141.132871949   117.2438   6  21   0.0285   0.0948   0.1590  -0.0031   0.1065  -0.0264   0.00    0.0
2025/04/01 01:29:00.000   39.135150630  141.132871800   117.2278   6  21   0.0281   0.0925   0.1554  -0.0044   0.1038  -0.0263   0.00    0.0
2025/04/01 01:29:30.000   39.135150583  141.132872129   117.2495   6  21   0.0275   0.0902   0.1517  -0.0058   0.1011  -0.0262   0.00    0.0
2025/04/01 01:30:00.000   39.135150738  141.132871948   117.2169   6  21   0.0270   0.0879   0.1480  -0.0062   0.0984  -0.0261   0.00    0.0
2025/04/01 01:30:30.000   39.135150611  141.132871824   117.1933   6  21   0.0273   0.0856   0.1441  -0.0056   0.0956  -0.0263   0.00    0.0
2025/04/01 01:31:00.000   39.135150716  141.132871546   117.1926   6  21   0.0266   0.0834   0.1405  -0.0069   0.0927  -0.0264   0.00    0.0
2025/04/01 01:31:30.000   39.135150496  141.132871828   117.2139   6  21   0.0264   0.0812   0.1370  -0.0075   0.0899  -0.0266   0.00    0.0
2025/04/01 01:32:00.000   39.135150553  141.132871831   117.2103   6  21   0.0260   0.0790   0.1334  -0.0075   0.0871  -0.0265   0.00    0.0
2025/04/01 01:32:30.000   39.135150629  141.132871752   117.1936   6  21   0.0255   0.0768   0.1297  -0.0076   0.0843  -0.0265   0.00    0.0
2025/04/01 01:33:00.000   39.135150632  141.132871561   117.1762   6  22   0.0252   0.0748   0.1264  -0.0074   0.0817  -0.0262   0.00    0.0
2025/04/01 01:33:30.000   39.135150670  141.132871541   117.1580   6  22   0.0249   0.0729   0.1226  -0.0081   0.0789  -0.0260   0.00    0.0
2025/04/01 01:34:00.000   39.135150509  141.132871612   117.1652   6  23   0.0247   0.0709   0.1193  -0.0079   0.0763  -0.0258   0.00    0.0
2025/04/01 01:34:30.000   39.135150498  141.132871592   117.1716   6  23   0.0239   0.0689   0.1158  -0.0074   0.0737  -0.0253   0.00    0.0
2025/04/01 01:35:00.000   39.135150550  141.132871468   117.1611   6  23   0.0238   0.0671   0.1124  -0.0074   0.0711  -0.0250   0.00    0.0
2025/04/01 01:35:30.000   39.135150561  141.132871322   117.1575   6  23   0.0233   0.0653   0.1093  -0.0068   0.0686  -0.0244   0.00    0.0
2025/04/01 01:36:00.000   39.135150544  141.132871492   117.1627   6  23   0.0232   0.0636   0.1060  -0.0072   0.0663  -0.0243   0.00    0.0
2025/04/01 01:36:30.000   39.135150547  141.132871542   117.1465   6  23   0.0229   0.0620   0.1031  -0.0073   0.0640  -0.0235   0.00    0.0
2025/04/01 01:37:00.000   39.135150587  141.132871442   117.1443   6  22   0.0227   0.0605   0.1001  -0.0067   0.0618  -0.0233   0.00    0.0
2025/04/01 01:37:30.000   39.135150527  141.132871464   117.1552   6  22   0.0224   0.0589   0.0975  -0.0066   0.0597  -0.0229   0.00    0.0
2025/04/01 01:38:00.000   39.135150576  141.132871409   117.1501   6  22   0.0221   0.0575   0.0947  -0.0063   0.0576  -0.0225   0.00    0.0
2025/04/01 01:38:30.000   39.135150527  141.132871332   117.1514   6  22   0.0220   0.0560   0.0921  -0.0056   0.0556  -0.0222   0.00    0.0
2025/04/01 01:39:00.000   39.135150609  141.132871337   117.1410   6  22   0.0216   0.0547   0.0896  -0.0060   0.0537  -0.0219   0.00    0.0
2025/04/01 01:39:30.000   39.135150538  141.132871511   117.1471   6  22   0.0213   0.0534   0.0873  -0.0055   0.0519  -0.0217   0.00    0.0
2025/04/01 01:40:00.000   39.135150625  141.132871417   117.1486   6  22   0.0214   0.0522   0.0850  -0.0045   0.0502  -0.0213   0.00    0.0
2025/04/01 01:40:30.000   39.135150612  141.132871311   117.1440   6  22   0.0209   0.0510   0.0828  -0.0049   0.0486  -0.0209   0.00    0.0
2025/04/01 01:41:00.000   39.135150526  141.132871314   117.1553   6  22   0.0207   0.0499   0.0808  -0.0052   0.0469  -0.0206   0.00    0.0
2025/04/01 01:41:30.000   39.135150541  141.132871206   117.1569   6  22   0.0203   0.0488   0.0788  -0.0049   0.0454  -0.0202   0.00    0.0
2025/04/01 01:42:00.000   39.135150608  141.132871321   117.1522   6  22   0.0202   0.0478   0.0770  -0.0038   0.0440  -0.0200   0.00    0.0
2025/04/01 01:42:30.000   39.135150587  141.132871278   117.1431   6  22   0.0203   0.0468   0.0752  -0.0035   0.0427  -0.0196   0.00    0.0
2025/04/01 01:43:00.000   39.135150619  141.132871189   117.1310   6  22   0.0200   0.0459   0.0736  -0.0034   0.0414  -0.0194   0.00    0.0
2025/04/01 01:43:30.000   39.135150518  141.132871197   117.1409   6  22   0.0198   0.0450   0.0719  -0.0031   0.0399  -0.0189   0.00    0.0
2025/04/01 01:44:00.000   39.135150548  141.132871185   117.1484   6  22   0.0197   0.0441   0.0704  -0.0036   0.0388  -0.0189   0.00    0.0
2025/04/01 01:44:30.000   39.135150533  141.132871265   117.1494   6  22   0.0193   0.0433   0.0688  -0.0035   0.0377  -0.0188   0.00    0.0
2025/04/01 01:45:00.000   39.135150569  141.132871363   117.1538   6  22   0.0194   0.0425   0.0675  -0.0038   0.0366  -0.0183   0.00    0.0
2025/04/01 01:45:30.000   39.135150526  141.132871411   117.1536   6  22   0.0186   0.0418   0.0663  -0.0033   0.0356  -0.0178   0.00    0.0
2025/04/01 01:46:00.000   39.135150532  141.132871228   117.1549   6  22   0.0189   0.0409   0.0650  -0.0028   0.0345  -0.0178   0.00    0.0
2025/04/01 01:46:30.000   39.135150486  141.132871268   117.1739   6  22   0.0189   0.0404   0.0637  -0.0038   0.0337  -0.0175   0.00    0.0
2025/04/01 01:47:00.000   39.135150575  141.132871423   117.1601   6  22   0.0184   0.0397   0.0628  -0.0035   0.0327  -0.0171   0.00    0.0
2025/04/01 01:47:30.000   39.135150589  141.132871384   117.1526   6  22   0.0185   0.0392   0.0615  -0.0021   0.0319  -0.0170   0.00    0.0
2025/04/01 01:48:00.000   39.135150505  141.132871464   117.1583   6  22   0.0185   0.0384   0.0604  -0.0037   0.0309  -0.0170   0.00    0.0
2025/04/01 01:48:30.000   39.135150477  141.132871334   117.1604   6  22   0.0182   0.0377   0.0594  -0.0027   0.0301  -0.0167   0.00    0.0
2025/04/01 01:49:00.000   39.135150604  141.132871464   117.1532   6  22   0.0181   0.0373   0.0585  -0.0014   0.0295  -0.0165   0.00    0.0
2025/04/01 01:49:30.000   39.135150513  141.132871548   117.1641   6  22   0.0177   0.0369   0.0580  -0.0040   0.0284  -0.0157   0.00    0.0
2025/04/01 01:50:00.000   39.135150511  141.132871449   117.1684   6  22   0.0179   0.0365   0.0572  -0.0032   0.0277  -0.0157   0.00    0.0
2025/04/01 01:50:30.000   39.135150600  141.132871605   117.1514   6  22   0.0179   0.0357   0.0562  -0.0037   0.0271  -0.0153   0.00    0.0
2025/04/01 01:51:00.000   39.135150567  141.132871441   117.1543   6  22   0.0176   0.0354   0.0554  -0.0039   0.0263  -0.0154   0.00    0.0
2025/04/01 01:51:30.000   39.135150464  141.132871573   117.1624   6  22   0.0175   0.0349   0.0546  -0.0043   0.0255  -0.0150   0.00    0.0
2025/04/01 01:52:00.000   39.135150568  141.132871663   117.1573   6  22   0.0176   0.0345   0.0539  -0.0045   0.0251  -0.0149   0.00    0.0
2025/04/01 01:52:30.000   39.135150564  141.132871671   117.1435   6  22   0.0174   0.0340   0.0532  -0.0042   0.0248  -0.0148   0.00    0.0
2025/04/01 01:53:00.000   39.135150516  141.132871600   117.1610   6  22   0.0174   0.0334   0.0525  -0.0031   0.0240  -0.0147   0.00    0.0
2025/04/01 01:53:30.000   39.135150543  141.132871704   117.1402   6  22   0.0170   0.0330   0.0519  -0.0040   0.0236  -0.0144   0.00    0.0
2025/04/01 01:54:00.000   39.135150540  141.132871629   117.1394   6  22   0.0172   0.0328   0.0512  -0.0035   0.0230  -0.0146   0.00    0.0
2025/04/01 01:54:30.000   39.135150439  141.132871602   117.1583   6  22   0.0170   0.0322   0.0507  -0.0041   0.0223  -0.0142   0.00    0.0
2025/04/01 01:55:00.000   39.135150583  141.132871588   117.1436   6  22   0.0171   0.0320   0.0502  -0.0053   0.0218  -0.0141   0.00    0.0
2025/04/01 01:55:30.000   39.135150596  141.132871563   117.1490   6  22   0.0171   0.0316   0.0498  -0.0043   0.0216  -0.0138   0.00    0.0
2025/04/01 01:56:00.000   39.135150559  141.132871609   117.1497   6  22   0.0165   0.0311   0.0490  -0.0034   0.0211  -0.0139   0.00    0.0
2025/04/01 01:56:30.000   39.135150493  141.132871640   117.1468   6  22   0.0169   0.0307   0.0485  -0.0038   0.0208  -0.0134   0.00    0.0
2025/04/01 01:57:00.000   39.135150562  141.132871556   117.1541   6  22   0.0169   0.0305   0.0480  -0.0041   0.0202  -0.0135   0.00    0.0
2025/04/01 01:57:30.000   39.135150578  141.132871564   117.1538   6  22   0.0162   0.0303   0.0476  -0.0044   0.0199  -0.0129   0.00    0.0
2025/04/01 01:58:00.000   39.135150568  141.132871677   117.1447   6  22   0.0163   0.0298   0.0472  -0.0044   0.0195  -0.0134   0.00    0.0
2025/04/01 01:58:30.000   39.135150509  141.132871637   117.1602   6  22   0.0164   0.0295   0.0466  -0.0039   0.0191  -0.0134   0.00    0.0
2025/04/01 01:59:00.000   39.135150494  141.132871650   117.1421   6  22   0.0162   0.0291   0.0464  -0.0031   0.0188  -0.0130   0.00    0.0
2025/04/01 01:59:30.000   39.135150499  141.132871662   117.1415   6  22   0.0163   0.0289   0.0458  -0.0046   0.0184  -0.0131   0.00    0.0
