% program    : MADOCALIB ver.2.0
% inp file   : .\data\rinex\MIZU00JPN_R_20250910000_01D_30S_MO.rnx
% inp file   : .\data\rinex\BRDM00DLR_S_20250910000_01D_MN.rnx
% inp file   : .\data\l6_is-qzss-mdc-004\%Y\%n\%Y%n%HU.204.l6
% inp file   : .\data\l6_is-qzss-mdc-004\%Y\%n\%Y%n%HU.206.l6
% satantfile : 
% rcvantfile : .\data\igs20.atx
% obs start  : 2025/04/01 19:00:00.0 GPST (week2360 241200.0s)
% obs end    : 2025/04/01 19:59:30.0 GPST (week2360 244770.0s)
% pos mode   : PPP Kinematic
% freqs      : L1+2
% siggps     : L1/L2/L5
% sigqzs     : L1/L5/L2
% siggal     : E1/E5a/E5b/E6
% sigbds2    : B1I/B3I/B2I
% sigbds3    : B1I/B3I/B2a
% solution   : Forward
% elev mask  : 10.0 deg
% dynamics   : off
% tidecorr   : on
% ionos opt  : Iono-Free LC
% tropo opt  : Estimate ZTD
% ephemeris  : Broadcast+SSR APC
% navi sys   : GPS GLONASS Galileo QZSS
% amb mode   : OFF
% ar sys     : GPS Galileo QZSS BDS
% val ratio  : 1.5
% max std pos: 1.5 m
% ionocorr   : off
% antenna1   : SEPCHOKE_B3E6   NONE  ( 0.0000  0.0000  0.1206)
%
% (lat/lon/height=WGS84/ellipsoidal,Q=1:fix,2:float,3:sbas,4:dgps,5:single,6:ppp,ns=# of satellites)
%  GPST                  latitude(deg) longitude(deg)  height(m)   Q  ns   sdn(m)   sde(m)   sdu(m)  sdne(m)  sdeu(m)  sdun(m) age(s)  ratio
2025/04/01 19:00:00.000   39.135152258  141.132875511   115.8206   6  19   3.6979   2.9980   6.6238  -1.0153   1.6104  -2.1475   0.00    0.0
2025/04/01 19:00:30.000   39.135146893  141.132873992   117.7596   6  19   1.9747   2.1013   3.4563  -0.6774   0.8300  -1.0469   0.00    0.0
2025/04/01 19:01:00.000   39.135158423  141.132874658   115.7505   6  19   1.2350   1.6907   2.1494  -0.5362   0.4975  -0.5940   0.00    0.0
2025/04/01 19:01:30.000   39.135157905  141.132875740   115.2534   6  19   0.8568   1.4363   1.5009  -0.4559   0.3184  -0.3609   0.00    0.0
2025/04/01 19:02:00.000   39.135156058  141.132880071   116.0846   6  18   0.6396   1.2564   1.1347  -0.4015   0.1916  -0.2166   0.00    0.0
2025/04/01 19:02:30.000   39.135155025  141.132875229   116.3559   6  19   0.5027   1.1166   0.9048  -0.3624   0.0681  -0.1056   0.00    0.0
2025/04/01 19:03:00.000   39.135153154  141.132873298   116.5993   6  19   0.4103   1.0037   0.7480  -0.3312  -0.1074   0.0672   0.00    0.0
2025/04/01 19:03:30.000   39.135152052  141.132874505   116.8141   6  20   0.3441   0.9078   0.6332  -0.3039  -0.1422   0.1044   0.00    0.0
2025/04/01 19:04:00.000   39.135151542  141.132874879   117.1489   6  20   0.2942   0.8264   0.5450  -0.2799  -0.1528   0.1119   0.00    0.0
2025/04/01 19:04:30.000   39.135151280  141.132875364   117.1085   6  20   0.2553   0.7560   0.4747  -0.2583  -0.1528   0.1093   0.00    0.0
2025/04/01 19:05:00.000   39.135150483  141.132872833   117.0931   6  20   0.2241   0.6942   0.4175  -0.2385  -0.1473   0.1026   0.00    0.0
2025/04/01 19:05:30.000   39.135149778  141.132873214   117.1447   6  20   0.1987   0.6394   0.3702  -0.2205  -0.1393   0.0945   0.00    0.0
2025/04/01 19:06:00.000   39.135150167  141.132871895   117.2420   6  20   0.1776   0.5907   0.3307  -0.2042  -0.1300   0.0862   0.00    0.0
2025/04/01 19:06:30.000   39.135150750  141.132868544   117.2191   6  20   0.1600   0.5471   0.2974  -0.1894  -0.1206   0.0783   0.00    0.0
2025/04/01 19:07:00.000   39.135150984  141.132867313   117.2696   6  20   0.1450   0.5081   0.2691  -0.1761  -0.1114   0.0710   0.00    0.0
2025/04/01 19:07:30.000   39.135150828  141.132869107   117.3448   6  20   0.1322   0.4729   0.2450  -0.1640  -0.1026   0.0645   0.00    0.0
2025/04/01 19:08:00.000   39.135150717  141.132870968   117.3309   6  20   0.1213   0.4413   0.2242  -0.1531  -0.0945   0.0584   0.00    0.0
2025/04/01 19:08:30.000   39.135150748  141.132869832   117.2518   6  20   0.1118   0.4127   0.2062  -0.1433  -0.0869   0.0533   0.00    0.0
2025/04/01 19:09:00.000   39.135150406  141.132870493   117.3080   6  20   0.1035   0.3868   0.1904  -0.1344  -0.0800   0.0488   0.00    0.0
2025/04/01 19:09:30.000   39.135150668  141.132871474   117.2557   6  20   0.0962   0.3633   0.1766  -0.1264  -0.0738   0.0444   0.00    0.0
2025/04/01 19:10:00.000   39.135150710  141.132870826   117.2849   6  20   0.0898   0.3419   0.1644  -0.1191  -0.0680   0.0407   0.00    0.0
2025/04/01 19:10:30.000   39.135150767  141.132872454   117.2766   6  20   0.0841   0.3224   0.1535  -0.1124  -0.0628   0.0373   0.00    0.0
2025/04/01 19:11:00.000   39.135150859  141.132872218   117.2383   6  20   0.0790   0.3046   0.1440  -0.1064  -0.0579   0.0343   0.00    0.0
2025/04/01 19:11:30.000   39.135150942  141.132871565   117.2211   6  20   0.0744   0.2883   0.1354  -0.1009  -0.0537   0.0317   0.00    0.0
2025/04/01 19:12:00.000   39.135150768  141.132873205   117.2157   6  19   0.0704   0.2735   0.1285  -0.0960  -0.0507   0.0300   0.00    0.0
2025/04/01 19:12:30.000   39.135150748  141.132873417   117.2173   6  19   0.0668   0.2600   0.1228  -0.0915  -0.0489   0.0284   0.00    0.0
2025/04/01 19:13:00.000   39.135150860  141.132872183   117.1953   6  19   0.0634   0.2475   0.1177  -0.0873  -0.0472   0.0269   0.00    0.0
2025/04/01 19:13:30.000   39.135150767  141.132871804   117.2096   6  19   0.0605   0.2360   0.1130  -0.0836  -0.0455   0.0254   0.00    0.0
2025/04/01 19:14:00.000   39.135150876  141.132872135   117.2086   6  19   0.0578   0.2253   0.1085  -0.0800  -0.0437   0.0243   0.00    0.0
2025/04/01 19:14:30.000   39.135150791  141.132871821   117.2456   6  19   0.0552   0.2153   0.1044  -0.0767  -0.0422   0.0232   0.00    0.0
2025/04/01 19:15:00.000   39.135150933  141.132872019   117.2215   6  19   0.0529   0.2061   0.1007  -0.0737  -0.0407   0.0221   0.00    0.0
2025/04/01 19:15:30.000   39.135150786  141.132872072   117.2151   6  19   0.0507   0.1975   0.0972  -0.0709  -0.0390   0.0213   0.00    0.0
2025/04/01 19:16:00.000   39.135150871  141.132871552   117.2078   6  19   0.0489   0.1895   0.0938  -0.0683  -0.0376   0.0200   0.00    0.0
2025/04/01 19:16:30.000   39.135150837  141.132871621   117.2146   6  19   0.0470   0.1820   0.0907  -0.0658  -0.0361   0.0194   0.00    0.0
2025/04/01 19:17:00.000   39.135150808  141.132872218   117.2197   6  19   0.0455   0.1751   0.0879  -0.0635  -0.0348   0.0187   0.00    0.0
2025/04/01 19:17:30.000   39.135150799  141.132872305   117.2225   6  19   0.0439   0.1685   0.0851  -0.0613  -0.0334   0.0178   0.00    0.0
2025/04/01 19:18:00.000   39.135150972  141.132872031   117.1769   6  19   0.0424   0.1624   0.0825  -0.0594  -0.0321   0.0173   0.00    0.0
2025/04/01 19:18:30.000   39.135150834  141.132872290   117.2090   6  19   0.0413   0.1566   0.0800  -0.0575  -0.0310   0.0162   0.00    0.0
2025/04/01 19:19:00.000   39.135150754  141.132872603   117.2107   6  19   0.0399   0.1512   0.0780  -0.0557  -0.0297   0.0158   0.00    0.0
2025/04/01 19:19:30.000   39.135150961  141.132872574   117.1501   6  20   0.0388   0.1460   0.0758  -0.0540  -0.0287   0.0150   0.00    0.0
2025/04/01 19:20:00.000   39.135150916  141.132872606   117.1619   6  20   0.0377   0.1412   0.0737  -0.0524  -0.0278   0.0144   0.00    0.0
2025/04/01 19:20:30.000   39.135150873  141.132872100   117.1789   6  20   0.0367   0.1367   0.0717  -0.0510  -0.0268   0.0137   0.00    0.0
2025/04/01 19:21:00.000   39.135150894  141.132872019   117.1818   6  20   0.0357   0.1324   0.0698  -0.0496  -0.0258   0.0132   0.00    0.0
2025/04/01 19:21:30.000   39.135150873  141.132872008   117.1825   6  20   0.0348   0.1283   0.0681  -0.0483  -0.0250   0.0127   0.00    0.0
2025/04/01 19:22:00.000   39.135150802  141.132871984   117.1726   6  20   0.0339   0.1244   0.0667  -0.0470  -0.0241   0.0124   0.00    0.0
2025/04/01 19:22:30.000   39.135150920  141.132871898   117.1986   6  20   0.0332   0.1208   0.0649  -0.0458  -0.0233   0.0110   0.00    0.0
2025/04/01 19:23:00.000   39.135151003  141.132872057   117.1747   6  20   0.0325   0.1174   0.0635  -0.0447  -0.0222   0.0112   0.00    0.0
2025/04/01 19:23:30.000   39.135150798  141.132872266   117.1787   6  21   0.0318   0.1140   0.0622  -0.0436  -0.0217   0.0109   0.00    0.0
2025/04/01 19:24:00.000   39.135150786  141.132872231   117.1805   6  21   0.0312   0.1109   0.0608  -0.0426  -0.0208   0.0104   0.00    0.0
2025/04/01 19:24:30.000   39.135150807  141.132872034   117.1833   6  21   0.0307   0.1079   0.0594  -0.0417  -0.0200   0.0093   0.00    0.0
2025/04/01 19:25:00.000   39.135150858  141.132872449   117.1821   6  21   0.0301   0.1050   0.0583  -0.0407  -0.0194   0.0093   0.00    0.0
2025/04/01 19:25:30.000   39.135150807  141.132872354   117.1708   6  21   0.0295   0.1024   0.0571  -0.0399  -0.0187   0.0090   0.00    0.0
2025/04/01 19:26:00.000   39.135150958  141.132872062   117.1292   6  21   0.0289   0.0998   0.0559  -0.0390  -0.0181   0.0082   0.00    0.0
2025/04/01 19:26:30.000   39.135150853  141.132871907   117.1552   6  21   0.0285   0.0973   0.0549  -0.0382  -0.0175   0.0080   0.00    0.0
2025/04/01 19:27:00.000   39.135150845  141.132872148   117.1349   6  21   0.0279   0.0950   0.0540  -0.0375  -0.0168   0.0081   0.00    0.0
2025/04/01 19:27:30.000   39.135150779  141.132872310   117.1508   6  21   0.0277   0.0927   0.0532  -0.0367  -0.0165   0.0072   0.00    0.0
2025/04/01 19:28:00.000   39.135150755  141.132872522   117.1390   6  21   0.0273   0.0906   0.0520  -0.0361  -0.0161   0.0064   0.00    0.0
2025/04/01 19:28:30.000   39.135150756  141.132872238   117.1617   6  21   0.0267   0.0885   0.0513  -0.0353  -0.0153   0.0072   0.00    0.0
2025/04/01 19:29:00.000   39.135150941  141.132872390   117.1261   6  21   0.0266   0.0866   0.0505  -0.0346  -0.0147   0.0064   0.00    0.0
2025/04/01 19:29:30.000   39.135150896  141.132872524   117.1330   6  21   0.0261   0.0846   0.0497  -0.0343  -0.0146   0.0063   0.00    0.0
2025/04/01 19:30:00.000   39.135150753  141.132872393   117.1449   6  21   0.0257   0.0828   0.0491  -0.0335  -0.0143   0.0054   0.00    0.0
2025/04/01 19:30:30.000   39.135150791  141.132872609   117.1227   6  21   0.0255   0.0811   0.0482  -0.0330  -0.0135   0.0051   0.00    0.0
2025/04/01 19:31:00.000   39.135150757  141.132872869   117.1375   6  21   0.0251   0.0794   0.0477  -0.0324  -0.0129   0.0050   0.00    0.0
2025/04/01 19:31:30.000   39.135150718  141.132872884   117.1319   6  21   0.0249   0.0779   0.0469  -0.0320  -0.0127   0.0045   0.00    0.0
2025/04/01 19:32:00.000   39.135150800  141.132872659   117.1359   6  21   0.0245   0.0762   0.0462  -0.0314  -0.0124   0.0047   0.00    0.0
2025/04/01 19:32:30.000   39.135150840  141.132872483   117.1289   6  21   0.0244   0.0748   0.0456  -0.0310  -0.0122   0.0031   0.00    0.0
2025/04/01 19:33:00.000   39.135150678  141.132872391   117.1426   6  21   0.0239   0.0733   0.0451  -0.0304  -0.0116   0.0035   0.00    0.0
2025/04/01 19:33:30.000   39.135150776  141.132872507   117.1436   6  21   0.0235   0.0719   0.0447  -0.0301  -0.0114   0.0041   0.00    0.0
2025/04/01 19:34:00.000   39.135150797  141.132872514   117.1390   6  21   0.0234   0.0706   0.0442  -0.0296  -0.0108   0.0043   0.00    0.0
2025/04/01 19:34:30.000   39.135150679  141.132872359   117.1530   6  21   0.0232   0.0693   0.0436  -0.0292  -0.0109   0.0028   0.00    0.0
2025/04/01 19:35:00.000   39.135150926  141.132872164   117.1348   6  21   0.0232   0.0680   0.0433  -0.0287  -0.0104   0.0024   0.00    0.0
2025/04/01 19:35:30.000   39.135150754  141.132872131   117.1397   6  21   0.0229   0.0668   0.0426  -0.0285  -0.0099   0.0022   0.00    0.0
2025/04/01 19:36:00.000   39.135150716  141.132872403   117.1535   6  20   0.0228   0.0656   0.0422  -0.0281  -0.0103   0.0032   0.00    0.0
2025/04/01 19:36:30.000   39.135150742  141.132872160   117.1589   6  20   0.0225   0.0646   0.0422  -0.0276  -0.0099   0.0038   0.00    0.0
2025/04/01 19:37:00.000   39.135150696  141.132872492   117.1264   6  20   0.0224   0.0635   0.0418  -0.0273  -0.0098   0.0037   0.00    0.0
2025/04/01 19:37:30.000   39.135150790  141.132872376   117.1379   6  21   0.0220   0.0624   0.0417  -0.0270  -0.0095   0.0030   0.00    0.0
2025/04/01 19:38:00.000   39.135150764  141.132872409   117.1483   6  21   0.0218   0.0614   0.0409  -0.0267  -0.0101   0.0050   0.00    0.0
2025/04/01 19:38:30.000   39.135150749  141.132872339   117.1251   6  21   0.0215   0.0605   0.0408  -0.0264  -0.0098   0.0061   0.00    0.0
2025/04/01 19:39:00.000   39.135150686  141.132872371   117.1651   6  21   0.0214   0.0594   0.0404  -0.0261  -0.0104   0.0058   0.00    0.0
2025/04/01 19:39:30.000   39.135150789  141.132872554   117.1317   6  21   0.0215   0.0586   0.0402  -0.0257  -0.0101   0.0063   0.00    0.0
2025/04/01 19:40:00.000   39.135150814  141.132872627   117.1205   6  21   0.0211   0.0576   0.0403  -0.0254  -0.0099   0.0056   0.00    0.0
2025/04/01 19:40:30.000   39.135150697  141.132872489   117.1216   6  21   0.0210   0.0568   0.0398  -0.0252  -0.0100   0.0058   0.00    0.0
2025/04/01 19:41:00.000   39.135150724  141.132872477   117.1282   6  21   0.0209   0.0560   0.0398  -0.0246  -0.0099   0.0062   0.00    0.0
2025/04/01 19:41:30.000   39.135150767  141.132872488   117.1381   6  21   0.0208   0.0551   0.0393  -0.0244  -0.0097   0.0055   0.00    0.0
2025/04/01 19:42:00.000   39.135150797  141.132872563   117.1536   6  21   0.0204   0.0543   0.0392  -0.0244  -0.0096   0.0062   0.00    0.0
2025/04/01 19:42:30.000   39.135150703  141.132872536   117.1350   6  21   0.0206   0.0535   0.0388  -0.0240  -0.0094   0.0066   0.00    0.0
2025/04/01 19:43:00.000   39.135150635  141.132872460   117.1402   6  21   0.0205   0.0528   0.0388  -0.0237  -0.0094   0.0063   0.00    0.0
2025/04/01 19:43:30.000   39.135150665  141.132872577   117.1487   6  21   0.0204   0.0521   0.0387  -0.0236  -0.0096   0.0065   0.00    0.0
2025/04/01 19:44:00.000   39.135150802  141.132872548   117.1307   6  21   0.0203   0.0514   0.0384  -0.0233  -0.0097   0.0065   0.00    0.0
2025/04/01 19:44:30.000   39.135150685  141.132872325   117.1433   6  21   0.0204   0.0507   0.0382  -0.0229  -0.0088   0.0064   0.00    0.0
2025/04/01 19:45:00.000   39.135150821  141.132872383   117.1362   6  21   0.0200   0.0499   0.0383  -0.0229  -0.0094   0.0064   0.00    0.0
2025/04/01 19:45:30.000   39.135150717  141.132872536   117.1499   6  21   0.0196   0.0493   0.0381  -0.0226  -0.0093   0.0069   0.00    0.0
2025/04/01 19:46:00.000   39.135150699  141.132872562   117.1237   6  22   0.0198   0.0487   0.0378  -0.0225  -0.0091   0.0071   0.00    0.0
2025/04/01 19:46:30.000   39.135150675  141.132872776   117.1296   6  22   0.0195   0.0481   0.0375  -0.0222  -0.0093   0.0073   0.00    0.0
2025/04/01 19:47:00.000   39.135150717  141.132872526   117.1352   6  22   0.0194   0.0475   0.0374  -0.0220  -0.0098   0.0066   0.00    0.0
2025/04/01 19:47:30.000   39.135150788  141.132872452   117.1384   6  22   0.0194   0.0468   0.0368  -0.0216  -0.0091   0.0075   0.00    0.0
2025/04/01 19:48:00.000   39.135150685  141.132872358   117.1145   6  22   0.0191   0.0462   0.0373  -0.0217  -0.0098   0.0076   0.00    0.0
2025/04/01 19:48:30.000   39.135150763  141.132872293   117.1234   6  22   0.0190   0.0456   0.0368  -0.0215  -0.0095   0.0076   0.00    0.0
2025/04/01 19:49:00.000   39.135150789  141.132872328   117.1321   6  22   0.0190   0.0452   0.0369  -0.0212  -0.0093   0.0082   0.00    0.0
2025/04/01 19:49:30.000   39.135150746  141.132872368   117.1480   6  22   0.0190   0.0446   0.0367  -0.0211  -0.0091   0.0082   0.00    0.0
2025/04/01 19:50:00.000   39.135150868  141.132872283   117.1210   6  23   0.0191   0.0441   0.0367  -0.0209  -0.0092   0.0080   0.00    0.0
2025/04/01 19:50:30.000   39.135150644  141.132872329   117.1444   6  23   0.0188   0.0436   0.0362  -0.0207  -0.0094   0.0080   0.00    0.0
2025/04/01 19:51:00.000   39.135150653  141.132872555   117.1240   6  23   0.0187   0.0430   0.0363  -0.0204  -0.0093   0.0080   0.00    0.0
2025/04/01 19:51:30.000   39.135150820  141.132872346   117.1219   6  23   0.0184   0.0425   0.0359  -0.0203  -0.0090   0.0079   0.00    0.0
2025/04/01 19:52:00.000   39.135150802  141.132872246   117.1269   6  23   0.0187   0.0421   0.0361  -0.0200  -0.0086   0.0078   0.00    0.0
2025/04/01 19:52:30.000   39.135150712  141.132872193   117.1322   6  23   0.0186   0.0416   0.0358  -0.0199  -0.0089   0.0079   0.00    0.0
2025/04/01 19:53:00.000   39.135150772  141.132872175   117.1300   6  22   0.0191   0.0412   0.0359  -0.0197  -0.0084   0.0090   0.00    0.0
2025/04/01 19:53:30.000   39.135150760  141.132872211   117.1376   6  22   0.0187   0.0407   0.0362  -0.0195  -0.0086   0.0092   0.00    0.0
2025/04/01 19:54:00.000   39.135150627  141.132872242   117.1244   6  22   0.0186   0.0404   0.0359  -0.0192  -0.0085   0.0094   0.00    0.0
2025/04/01 19:54:30.000   39.135150787  141.132872220   117.1121   6  22   0.0186   0.0398   0.0359  -0.0193  -0.0082   0.0088   0.00    0.0
2025/04/01 19:55:00.000   39.135150837  141.132872020   117.1312   6  22   0.0185   0.0394   0.0357  -0.0191  -0.0086   0.0090   0.00    0.0
2025/04/01 19:55:30.000   39.135150772  141.132872250   117.1337   6  22   0.0185   0.0390   0.0357  -0.0189  -0.0083   0.0089   0.00    0.0
2025/04/01 19:56:00.000   39.135150875  141.132872062   117.1521   6  22   0.0185   0.0386   0.0355  -0.0189  -0.0084   0.0091   0.00    0.0
2025/04/01 19:56:30.000   39.135150774  141.132872174   117.1327   6  22   0.0184   0.0382   0.0355  -0.0184  -0.0082   0.0089   0.00    0.0
2025/04/01 19:57:00.000   39.135150835  141.132872166   117.1375   6  22   0.0184   0.0376   0.0354  -0.0182  -0.0080   0.0085   0.00    0.0
2025/04/01 19:57:30.000   39.135150777  141.132872179   117.1242   6  22   0.0182   0.0374   0.0353  -0.0184  -0.0078   0.0084   0.00    0.0
2025/04/01 19:58:00.000   39.135150721  141.132872142   117.1261   6  22   0.0181   0.0370   0.0355  -0.0181  -0.0076   0.0091   0.00    0.0
2025/04/01 19:58:30.000   39.135150811  141.132872107   117.1273   6  22   0.0183   0.0367   0.0353  -0.0181  -0.0080   0.0088   0.00    0.0
2025/04/01 19:59:00.000   39.135150853  141.132872232   117.1384   6  22   0.0180   0.0363   0.0352  -0.0180  -0.0080   0.0091   0.00    0.0
2025/04/01 19:59:30.000   39.135150829  141.132872095   117.1353   6  22   0.0179   0.0360   0.0353  -0.0179  -0.0074   0.0085   0.00    0.0
