% program    : MADOCALIB ver.2.0
% inp file   : .\data\rinex\MIZU00JPN_R_20250910000_01D_30S_MO.rnx
% inp file   : .\data\rinex\BRDM00DLR_S_20250910000_01D_MN.rnx
% inp file   : .\data\l6_is-qzss-mdc-004\%Y\%n\%Y%n%HU.204.l6
% inp file   : .\data\l6_is-qzss-mdc-004\%Y\%n\%Y%n%HU.206.l6
% satantfile : 
% rcvantfile : .\data\igs20.atx
% obs start  : 2025/04/01 17:00:00.0 GPST (week2360 234000.0s)
% obs end    : 2025/04/01 17:59:30.0 GPST (week2360 237570.0s)
% pos mode   : PPP Kinematic
% freqs      : L1+2
% siggps     : L1/L2/L5
% sigqzs     : L1/L5/L2
% siggal     : E1/E5a/E5b/E6
% sigbds2    : B1I/B3I/B2I
% sigbds3    : B1I/B3I/B2a
% solution   : Forward
% elev mask  : 10.0 deg
% dynamics   : off
% tidecorr   : on
% ionos opt  : Iono-Free LC
% tropo opt  : Estimate ZTD
% ephemeris  : Broadcast+SSR APC
% navi sys   : GPS GLONASS Galileo QZSS
% amb mode   : OFF
% ar sys     : GPS Galileo QZSS BDS
% val ratio  : 1.5
% max std pos: 1.5 m
% ionocorr   : off
% antenna1   : SEPCHOKE_B3E6   NONE  ( 0.0000  0.0000  0.1206)
%
% (lat/lon/height=WGS84/ellipsoidal,Q=1:fix,2:float,3:sbas,4:dgps,5:single,6:ppp,ns=# of satellites)
%  GPST                  latitude(deg) longitude(deg)  height(m)   Q  ns   sdn(m)   sde(m)   sdu(m)  sdne(m)  sdeu(m)  sdun(m) age(s)  ratio
2025/04/01 17:00:00.000   39.135148344  141.132875027   115.6171   6  22   2.8738   2.8034   6.5028   1.0615  -1.0220  -1.3014   0.00    0.0
2025/04/01 17:00:30.000   39.135151603  141.132879176   117.2193   6  22   1.6994   1.9130   3.6762   0.6382  -0.6680  -1.4292   0.00    0.0
2025/04/01 17:01:00.000   39.135160598  141.132876290   117.2700   6  22   1.1664   1.4778   2.4598   0.4330  -0.4606  -1.1585   0.00    0.0
2025/04/01 17:01:30.000   39.135154153  141.132877353   117.3825   6  22   0.8590   1.1965   1.7928   0.3110  -0.3167  -0.9134   0.00    0.0
2025/04/01 17:02:00.000   39.135153556  141.132876588   117.7103   6  22   0.6620   0.9944   1.3784   0.2325  -0.2117  -0.7284   0.00    0.0
2025/04/01 17:02:30.000   39.135151388  141.132876192   117.6707   6  22   0.5277   0.8416   1.1008   0.1796  -0.1297  -0.5921   0.00    0.0
2025/04/01 17:03:00.000   39.135150420  141.132876393   117.4377   6  21   0.4334   0.7283   0.9089   0.1528  -0.1029  -0.4938   0.00    0.0
2025/04/01 17:03:30.000   39.135148284  141.132875838   117.6080   6  21   0.3635   0.6381   0.7644   0.1331  -0.0724  -0.4177   0.00    0.0
2025/04/01 17:04:00.000   39.135148749  141.132874186   117.6423   6  21   0.3101   0.5651   0.6534   0.1177  -0.0402  -0.3581   0.00    0.0
2025/04/01 17:04:30.000   39.135149567  141.132873758   117.3705   6  21   0.2683   0.5049   0.5663   0.1052   0.0256  -0.3108   0.00    0.0
2025/04/01 17:05:00.000   39.135150610  141.132872822   117.3916   6  21   0.2350   0.4546   0.4968   0.0949   0.0444  -0.2726   0.00    0.0
2025/04/01 17:05:30.000   39.135150255  141.132872788   117.2366   6  22   0.2081   0.4114   0.4402   0.0861   0.0504  -0.2415   0.00    0.0
2025/04/01 17:06:00.000   39.135149744  141.132872577   117.2351   6  22   0.1858   0.3746   0.3934   0.0783   0.0538  -0.2157   0.00    0.0
2025/04/01 17:06:30.000   39.135149321  141.132872248   117.2693   6  22   0.1672   0.3428   0.3543   0.0714   0.0556  -0.1939   0.00    0.0
2025/04/01 17:07:00.000   39.135149678  141.132871944   117.2563   6  22   0.1513   0.3150   0.3212   0.0648   0.0565  -0.1755   0.00    0.0
2025/04/01 17:07:30.000   39.135149830  141.132871756   117.2152   6  22   0.1378   0.2906   0.2931   0.0588   0.0567  -0.1597   0.00    0.0
2025/04/01 17:08:00.000   39.135149522  141.132872034   117.2155   6  22   0.1263   0.2689   0.2688   0.0534   0.0563  -0.1462   0.00    0.0
2025/04/01 17:08:30.000   39.135149205  141.132872474   117.2146   6  22   0.1161   0.2497   0.2478   0.0485   0.0554  -0.1344   0.00    0.0
2025/04/01 17:09:00.000   39.135149387  141.132871651   117.2995   6  22   0.1074   0.2326   0.2295   0.0440   0.0543  -0.1241   0.00    0.0
2025/04/01 17:09:30.000   39.135149852  141.132871450   117.2935   6  22   0.0996   0.2171   0.2134   0.0399   0.0529  -0.1151   0.00    0.0
2025/04/01 17:10:00.000   39.135149904  141.132871623   117.2355   6  22   0.0927   0.2034   0.1993   0.0364   0.0514  -0.1070   0.00    0.0
2025/04/01 17:10:30.000   39.135149804  141.132872207   117.2100   6  22   0.0867   0.1909   0.1866   0.0329   0.0498  -0.1000   0.00    0.0
2025/04/01 17:11:00.000   39.135149769  141.132872412   117.2407   6  23   0.0813   0.1796   0.1754   0.0298   0.0481  -0.0937   0.00    0.0
2025/04/01 17:11:30.000   39.135149843  141.132872272   117.2508   6  23   0.0764   0.1695   0.1653   0.0274   0.0465  -0.0879   0.00    0.0
2025/04/01 17:12:00.000   39.135149757  141.132872062   117.2502   6  23   0.0721   0.1601   0.1562   0.0247   0.0447  -0.0829   0.00    0.0
2025/04/01 17:12:30.000   39.135149803  141.132871947   117.2626   6  23   0.0682   0.1516   0.1480   0.0226   0.0429  -0.0783   0.00    0.0
2025/04/01 17:13:00.000   39.135150027  141.132872034   117.2566   6  23   0.0645   0.1439   0.1405   0.0204   0.0414  -0.0742   0.00    0.0
2025/04/01 17:13:30.000   39.135150101  141.132872209   117.2124   6  23   0.0614   0.1367   0.1339   0.0186   0.0396  -0.0703   0.00    0.0
2025/04/01 17:14:00.000   39.135150198  141.132872122   117.2244   6  23   0.0584   0.1302   0.1276   0.0166   0.0380  -0.0669   0.00    0.0
2025/04/01 17:14:30.000   39.135150179  141.132872212   117.2173   6  23   0.0556   0.1242   0.1220   0.0151   0.0367  -0.0637   0.00    0.0
2025/04/01 17:15:00.000   39.135150105  141.132872199   117.2191   6  23   0.0531   0.1186   0.1168   0.0135   0.0352  -0.0608   0.00    0.0
2025/04/01 17:15:30.000   39.135150111  141.132872166   117.2239   6  23   0.0509   0.1136   0.1120   0.0117   0.0340  -0.0580   0.00    0.0
2025/04/01 17:16:00.000   39.135150112  141.132872194   117.2146   6  23   0.0487   0.1087   0.1077   0.0112   0.0324  -0.0556   0.00    0.0
2025/04/01 17:16:30.000   39.135150124  141.132872136   117.2313   6  23   0.0468   0.1043   0.1036   0.0093   0.0314  -0.0533   0.00    0.0
2025/04/01 17:17:00.000   39.135150132  141.132872210   117.2110   6  22   0.0451   0.1003   0.1000   0.0074   0.0297  -0.0511   0.00    0.0
2025/04/01 17:17:30.000   39.135150186  141.132872409   117.2074   6  23   0.0435   0.0965   0.0963   0.0061   0.0290  -0.0492   0.00    0.0
2025/04/01 17:18:00.000   39.135150188  141.132872368   117.2000   6  23   0.0419   0.0929   0.0931   0.0044   0.0279  -0.0474   0.00    0.0
2025/04/01 17:18:30.000   39.135150209  141.132872361   117.2293   6  23   0.0405   0.0896   0.0900   0.0034   0.0272  -0.0457   0.00    0.0
2025/04/01 17:19:00.000   39.135150317  141.132872179   117.2255   6  24   0.0390   0.0865   0.0872   0.0031   0.0260  -0.0438   0.00    0.0
2025/04/01 17:19:30.000   39.135150269  141.132872271   117.2002   6  23   0.0378   0.0837   0.0846  -0.0022   0.0253  -0.0425   0.00    0.0
2025/04/01 17:20:00.000   39.135150324  141.132872314   117.1883   6  23   0.0367   0.0809   0.0820  -0.0041   0.0241  -0.0411   0.00    0.0
2025/04/01 17:20:30.000   39.135150337  141.132872366   117.1788   6  23   0.0356   0.0784   0.0796  -0.0031   0.0235  -0.0398   0.00    0.0
2025/04/01 17:21:00.000   39.135150458  141.132872187   117.1857   6  23   0.0345   0.0760   0.0775  -0.0051   0.0225  -0.0385   0.00    0.0
2025/04/01 17:21:30.000   39.135150442  141.132872264   117.2019   6  23   0.0335   0.0739   0.0753  -0.0052   0.0217  -0.0373   0.00    0.0
2025/04/01 17:22:00.000   39.135150389  141.132872290   117.1959   6  23   0.0327   0.0717   0.0733  -0.0053   0.0209  -0.0363   0.00    0.0
2025/04/01 17:22:30.000   39.135150397  141.132872249   117.1824   6  23   0.0318   0.0698   0.0715  -0.0071   0.0199  -0.0353   0.00    0.0
2025/04/01 17:23:00.000   39.135150556  141.132872089   117.1808   6  23   0.0309   0.0678   0.0698  -0.0060   0.0187  -0.0341   0.00    0.0
2025/04/01 17:23:30.000   39.135150489  141.132872137   117.1824   6  24   0.0303   0.0660   0.0681  -0.0064   0.0184  -0.0334   0.00    0.0
2025/04/01 17:24:00.000   39.135150516  141.132872049   117.1861   6  24   0.0295   0.0642   0.0666  -0.0066   0.0177  -0.0325   0.00    0.0
2025/04/01 17:24:30.000   39.135150506  141.132872088   117.1506   6  24   0.0288   0.0628   0.0651  -0.0061   0.0167  -0.0315   0.00    0.0
2025/04/01 17:25:00.000   39.135150528  141.132872069   117.1718   6  24   0.0281   0.0611   0.0636  -0.0056   0.0161  -0.0306   0.00    0.0
2025/04/01 17:25:30.000   39.135150483  141.132872044   117.1937   6  24   0.0277   0.0595   0.0621  -0.0065   0.0149  -0.0299   0.00    0.0
2025/04/01 17:26:00.000   39.135150578  141.132872104   117.1693   6  24   0.0271   0.0582   0.0608  -0.0061   0.0148  -0.0291   0.00    0.0
2025/04/01 17:26:30.000   39.135150639  141.132872064   117.1813   6  24   0.0265   0.0570   0.0598  -0.0057   0.0144  -0.0283   0.00    0.0
2025/04/01 17:27:00.000   39.135150615  141.132871998   117.1633   6  23   0.0259   0.0556   0.0587  -0.0058   0.0131  -0.0276   0.00    0.0
2025/04/01 17:27:30.000   39.135150569  141.132872043   117.1430   6  23   0.0255   0.0544   0.0577  -0.0068   0.0125  -0.0272   0.00    0.0
2025/04/01 17:28:00.000   39.135150640  141.132872069   117.1776   6  23   0.0248   0.0534   0.0567  -0.0064   0.0130  -0.0264   0.00    0.0
2025/04/01 17:28:30.000   39.135150686  141.132872098   117.1659   6  23   0.0245   0.0521   0.0556  -0.0061   0.0116  -0.0258   0.00    0.0
2025/04/01 17:29:00.000   39.135150598  141.132872186   117.1646   6  23   0.0241   0.0511   0.0547  -0.0070   0.0115  -0.0253   0.00    0.0
2025/04/01 17:29:30.000   39.135150597  141.132872250   117.1685   6  23   0.0238   0.0500   0.0538  -0.0060   0.0109  -0.0247   0.00    0.0
2025/04/01 17:30:00.000   39.135150734  141.132872152   117.1511   6  23   0.0234   0.0492   0.0529  -0.0060   0.0105  -0.0241   0.00    0.0
2025/04/01 17:30:30.000   39.135150689  141.132872196   117.1645   6  23   0.0230   0.0482   0.0521  -0.0064   0.0101  -0.0237   0.00    0.0
2025/04/01 17:31:00.000   39.135150699  141.132872225   117.1736   6  23   0.0226   0.0474   0.0513  -0.0066   0.0094  -0.0231   0.00    0.0
2025/04/01 17:31:30.000   39.135150656  141.132872257   117.1536   6  23   0.0224   0.0464   0.0507  -0.0055   0.0081  -0.0228   0.00    0.0
2025/04/01 17:32:00.000   39.135150632  141.132872270   117.1631   6  23   0.0218   0.0457   0.0501  -0.0056   0.0083  -0.0221   0.00    0.0
2025/04/01 17:32:30.000   39.135150695  141.132872174   117.1876   6  23   0.0217   0.0449   0.0490  -0.0058   0.0084  -0.0218   0.00    0.0
2025/04/01 17:33:00.000   39.135150726  141.132872205   117.1817   6  23   0.0214   0.0442   0.0487  -0.0059   0.0080  -0.0211   0.00    0.0
2025/04/01 17:33:30.000   39.135150679  141.132872336   117.1550   6  23   0.0207   0.0435   0.0480  -0.0063   0.0079  -0.0209   0.00    0.0
2025/04/01 17:34:00.000   39.135150676  141.132872274   117.1585   6  23   0.0208   0.0427   0.0472  -0.0067   0.0060  -0.0207   0.00    0.0
2025/04/01 17:34:30.000   39.135150724  141.132872182   117.1783   6  22   0.0208   0.0420   0.0467  -0.0068   0.0056  -0.0202   0.00    0.0
2025/04/01 17:35:00.000   39.135150652  141.132872146   117.1708   6  22   0.0206   0.0412   0.0462  -0.0055   0.0058  -0.0199   0.00    0.0
2025/04/01 17:35:30.000   39.135150639  141.132872211   117.1580   6  22   0.0200   0.0408   0.0457  -0.0067   0.0066  -0.0195   0.00    0.0
2025/04/01 17:36:00.000   39.135150715  141.132872285   117.1709   6  22   0.0200   0.0402   0.0454  -0.0054   0.0052  -0.0192   0.00    0.0
2025/04/01 17:36:30.000   39.135150673  141.132872207   117.1789   6  22   0.0197   0.0397   0.0449  -0.0058   0.0050  -0.0189   0.00    0.0
2025/04/01 17:37:00.000   39.135150710  141.132872141   117.1590   6  22   0.0191   0.0393   0.0447  -0.0048   0.0056  -0.0183   0.00    0.0
2025/04/01 17:37:30.000   39.135150650  141.132872283   117.1616   6  22   0.0192   0.0384   0.0441  -0.0060   0.0037  -0.0182   0.00    0.0
2025/04/01 17:38:00.000   39.135150680  141.132872196   117.1796   6  22   0.0189   0.0381   0.0436  -0.0055   0.0046  -0.0179   0.00    0.0
2025/04/01 17:38:30.000   39.135150662  141.132872216   117.1646   6  22   0.0190   0.0376   0.0432  -0.0054   0.0044  -0.0176   0.00    0.0
2025/04/01 17:39:00.000   39.135150605  141.132872327   117.1787   6  22   0.0188   0.0374   0.0428  -0.0044   0.0049  -0.0175   0.00    0.0
2025/04/01 17:39:30.000   39.135150648  141.132872223   117.1737   6  22   0.0182   0.0369   0.0424  -0.0051   0.0036  -0.0169   0.00    0.0
2025/04/01 17:40:00.000   39.135150673  141.132872172   117.1814   6  22   0.0176   0.0366   0.0423  -0.0054   0.0043  -0.0165   0.00    0.0
2025/04/01 17:40:30.000   39.135150727  141.132872097   117.1677   6  22   0.0181   0.0360   0.0415  -0.0052   0.0035  -0.0166   0.00    0.0
2025/04/01 17:41:00.000   39.135150620  141.132872148   117.1670   6  22   0.0178   0.0356   0.0412  -0.0055   0.0044  -0.0161   0.00    0.0
2025/04/01 17:41:30.000   39.135150687  141.132872200   117.1824   6  22   0.0178   0.0351   0.0409  -0.0054   0.0035  -0.0159   0.00    0.0
2025/04/01 17:42:00.000   39.135150632  141.132872233   117.1789   6  22   0.0178   0.0346   0.0405  -0.0053   0.0031  -0.0158   0.00    0.0
2025/04/01 17:42:30.000   39.135150716  141.132872202   117.1774   6  22   0.0175   0.0345   0.0404  -0.0052   0.0041  -0.0157   0.00    0.0
2025/04/01 17:43:00.000   39.135150666  141.132872189   117.1893   6  22   0.0172   0.0339   0.0400  -0.0054   0.0037  -0.0154   0.00    0.0
2025/04/01 17:43:30.000   39.135150629  141.132872081   117.1761   6  22   0.0170   0.0338   0.0396  -0.0051   0.0019  -0.0150   0.00    0.0
2025/04/01 17:44:00.000   39.135150619  141.132872173   117.2037   6  22   0.0173   0.0332   0.0392  -0.0056  -0.0014  -0.0150   0.00    0.0
2025/04/01 17:44:30.000   39.135150672  141.132872197   117.1943   6  22   0.0171   0.0331   0.0391  -0.0052  -0.0023  -0.0148   0.00    0.0
2025/04/01 17:45:00.000   39.135150688  141.132872176   117.1749   6  22   0.0170   0.0328   0.0392  -0.0046  -0.0000  -0.0145   0.00    0.0
2025/04/01 17:45:30.000   39.135150688  141.132872246   117.2003   6  22   0.0169   0.0325   0.0383  -0.0053  -0.0029  -0.0143   0.00    0.0
2025/04/01 17:46:00.000   39.135150702  141.132872217   117.1892   6  22   0.0167   0.0320   0.0384  -0.0045  -0.0025  -0.0140   0.00    0.0
2025/04/01 17:46:30.000   39.135150647  141.132872038   117.1730   6  22   0.0166   0.0319   0.0382  -0.0050   0.0022  -0.0139   0.00    0.0
2025/04/01 17:47:00.000   39.135150619  141.132872088   117.1696   6  22   0.0165   0.0314   0.0378  -0.0046  -0.0031  -0.0137   0.00    0.0
2025/04/01 17:47:30.000   39.135150661  141.132872169   117.1757   6  22   0.0166   0.0311   0.0377  -0.0042  -0.0018  -0.0136   0.00    0.0
2025/04/01 17:48:00.000   39.135150698  141.132872150   117.1728   6  21   0.0164   0.0309   0.0383  -0.0047   0.0023  -0.0130   0.00    0.0
2025/04/01 17:48:30.000   39.135150598  141.132872093   117.1573   6  22   0.0160   0.0306   0.0371  -0.0046  -0.0020  -0.0133   0.00    0.0
2025/04/01 17:49:00.000   39.135150593  141.132872102   117.1422   6  22   0.0161   0.0303   0.0369  -0.0050   0.0014  -0.0130   0.00    0.0
2025/04/01 17:49:30.000   39.135150705  141.132872257   117.2018   6  22   0.0165   0.0303   0.0371  -0.0057   0.0013  -0.0130   0.00    0.0
2025/04/01 17:50:00.000   39.135150627  141.132872210   117.1971   6  21   0.0162   0.0300   0.0369  -0.0042  -0.0021  -0.0132   0.00    0.0
2025/04/01 17:50:30.000   39.135150652  141.132872236   117.1547   6  21   0.0158   0.0296   0.0367  -0.0050  -0.0032  -0.0130   0.00    0.0
2025/04/01 17:51:00.000   39.135150665  141.132872258   117.1816   6  21   0.0160   0.0293   0.0369  -0.0052  -0.0047  -0.0132   0.00    0.0
2025/04/01 17:51:30.000   39.135150677  141.132872120   117.1744   6  21   0.0161   0.0294   0.0365  -0.0047  -0.0039  -0.0129   0.00    0.0
2025/04/01 17:52:00.000   39.135150658  141.132872206   117.1581   6  21   0.0159   0.0292   0.0364  -0.0051   0.0005  -0.0130   0.00    0.0
2025/04/01 17:52:30.000   39.135150592  141.132872242   117.1705   6  21   0.0160   0.0290   0.0362  -0.0052  -0.0022  -0.0128   0.00    0.0
2025/04/01 17:53:00.000   39.135150635  141.132872208   117.1681   6  21   0.0157   0.0286   0.0359  -0.0050  -0.0040  -0.0122   0.00    0.0
2025/04/01 17:53:30.000   39.135150682  141.132872197   117.1657   6  21   0.0151   0.0282   0.0361  -0.0042  -0.0038  -0.0124   0.00    0.0
2025/04/01 17:54:00.000   39.135150709  141.132872276   117.1895   6  21   0.0156   0.0284   0.0360  -0.0052  -0.0034  -0.0122   0.00    0.0
2025/04/01 17:54:30.000   39.135150595  141.132872102   117.1805   6  21   0.0156   0.0282   0.0358  -0.0053  -0.0029  -0.0122   0.00    0.0
2025/04/01 17:55:00.000   39.135150621  141.132872123   117.1770   6  21   0.0154   0.0278   0.0354  -0.0047  -0.0042  -0.0120   0.00    0.0
2025/04/01 17:55:30.000   39.135150635  141.132872179   117.1730   6  21   0.0155   0.0274   0.0353  -0.0057  -0.0045  -0.0120   0.00    0.0
2025/04/01 17:56:00.000   39.135150641  141.132872145   117.1680   6  21   0.0151   0.0275   0.0351  -0.0055  -0.0033  -0.0117   0.00    0.0
2025/04/01 17:56:30.000   39.135150662  141.132872080   117.1996   6  21   0.0154   0.0271   0.0349  -0.0055  -0.0036  -0.0114   0.00    0.0
2025/04/01 17:57:00.000   39.135150732  141.132872118   117.1887   6  21   0.0154   0.0273   0.0351  -0.0049  -0.0023  -0.0118   0.00    0.0
2025/04/01 17:57:30.000   39.135150722  141.132872173   117.1762   6  21   0.0150   0.0271   0.0348  -0.0045  -0.0034  -0.0114   0.00    0.0
2025/04/01 17:58:00.000   39.135150606  141.132872128   117.1935   6  21   0.0149   0.0268   0.0348  -0.0049  -0.0049  -0.0116   0.00    0.0
2025/04/01 17:58:30.000   39.135150664  141.132872090   117.1874   6  21   0.0152   0.0267   0.0349  -0.0049  -0.0039  -0.0111   0.00    0.0
2025/04/01 17:59:00.000   39.135150637  141.132872171   117.1932   6  21   0.0153   0.0267   0.0347  -0.0060  -0.0038  -0.0115   0.00    0.0
2025/04/01 17:59:30.000   39.135150671  141.132872188   117.1896   6  21   0.0152   0.0262   0.0343  -0.0049  -0.0040  -0.0112   0.00    0.0
