% program    : MADOCALIB ver.2.0
% inp file   : .\data\rinex\MIZU00JPN_R_20250910000_01D_30S_MO.rnx
% inp file   : .\data\rinex\BRDM00DLR_S_20250910000_01D_MN.rnx
% inp file   : .\data\l6_is-qzss-mdc-004\%Y\%n\%Y%n%HU.204.l6
% inp file   : .\data\l6_is-qzss-mdc-004\%Y\%n\%Y%n%HU.206.l6
% satantfile : 
% rcvantfile : .\data\igs20.atx
% obs start  : 2025/04/01 07:00:00.0 GPST (week2360 198000.0s)
% obs end    : 2025/04/01 07:59:30.0 GPST (week2360 201570.0s)
% pos mode   : PPP Kinematic
% freqs      : L1+2
% siggps     : L1/L2/L5
% sigqzs     : L1/L5/L2
% siggal     : E1/E5a/E5b/E6
% sigbds2    : B1I/B3I/B2I
% sigbds3    : B1I/B3I/B2a
% solution   : Forward
% elev mask  : 10.0 deg
% dynamics   : off
% tidecorr   : on
% ionos opt  : Iono-Free LC
% tropo opt  : Estimate ZTD
% ephemeris  : Broadcast+SSR APC
% navi sys   : GPS GLONASS Galileo QZSS
% amb mode   : OFF
% ar sys     : GPS Galileo QZSS BDS
% val ratio  : 1.5
% max std pos: 1.5 m
% ionocorr   : off
% antenna1   : SEPCHOKE_B3E6   NONE  ( 0.0000  0.0000  0.1206)
%
% (lat/lon/height=WGS84/ellipsoidal,Q=1:fix,2:float,3:sbas,4:dgps,5:single,6:ppp,ns=# of satellites)
%  GPST                  latitude(deg) longitude(deg)  height(m)   Q  ns   sdn(m)   sde(m)   sdu(m)  sdne(m)  sdeu(m)  sdun(m) age(s)  ratio
2025/04/01 07:00:00.000   39.135147823  141.132875064   117.5967   6  28   2.7170   2.1338   6.4559  -0.6179   1.0129  -2.9848   0.00    0.0
2025/04/01 07:00:30.000   39.135153157  141.132872482   116.2222   6  28   1.6576   1.4680   2.9117  -0.3487   0.3020  -1.4844   0.00    0.0
2025/04/01 07:01:00.000   39.135146596  141.132872969   117.3979   6  28   1.1586   1.1492   1.7226  -0.2527  -0.1591  -0.9355   0.00    0.0
2025/04/01 07:01:30.000   39.135147309  141.132875563   117.3792   6  28   0.8603   0.9436   1.1878  -0.2018  -0.2045  -0.6560   0.00    0.0
2025/04/01 07:02:00.000   39.135151579  141.132876813   117.3042   6  28   0.6658   0.7940   0.9025  -0.1686  -0.2014  -0.4877   0.00    0.0
2025/04/01 07:02:30.000   39.135149427  141.132875835   117.5168   6  28   0.5323   0.6788   0.7324  -0.1447  -0.1902  -0.3761   0.00    0.0
2025/04/01 07:03:00.000   39.135147184  141.132875483   117.5608   6  28   0.4368   0.5874   0.6221  -0.1265  -0.1784  -0.2973   0.00    0.0
2025/04/01 07:03:30.000   39.135149028  141.132874831   117.3133   6  28   0.3663   0.5135   0.5453  -0.1122  -0.1674  -0.2391   0.00    0.0
2025/04/01 07:04:00.000   39.135148359  141.132876110   117.3686   6  28   0.3127   0.4528   0.4881  -0.1006  -0.1574  -0.1947   0.00    0.0
2025/04/01 07:04:30.000   39.135147723  141.132876906   117.3837   6  28   0.2709   0.4025   0.4429  -0.0910  -0.1484  -0.1599   0.00    0.0
2025/04/01 07:05:00.000   39.135148798  141.132876579   117.2755   6  28   0.2376   0.3603   0.4056  -0.0831  -0.1400  -0.1322   0.00    0.0
2025/04/01 07:05:30.000   39.135149376  141.132875778   117.1594   6  28   0.2107   0.3247   0.3738  -0.0763  -0.1322  -0.1100   0.00    0.0
2025/04/01 07:06:00.000   39.135149270  141.132875237   117.0880   6  28   0.1886   0.2943   0.3458  -0.0704  -0.1249  -0.0919   0.00    0.0
2025/04/01 07:06:30.000   39.135148740  141.132875745   117.0418   6  28   0.1700   0.2683   0.3210  -0.0652  -0.1180  -0.0771   0.00    0.0
2025/04/01 07:07:00.000   39.135148655  141.132875086   117.1192   6  28   0.1544   0.2457   0.2988  -0.0607  -0.1116  -0.0649   0.00    0.0
2025/04/01 07:07:30.000   39.135149086  141.132874811   117.0873   6  28   0.1411   0.2260   0.2787  -0.0567  -0.1055  -0.0546   0.00    0.0
2025/04/01 07:08:00.000   39.135149310  141.132875615   116.9851   6  28   0.1295   0.2089   0.2605  -0.0531  -0.0998  -0.0461   0.00    0.0
2025/04/01 07:08:30.000   39.135149211  141.132874640   117.0819   6  28   0.1196   0.1936   0.2440  -0.0498  -0.0945  -0.0391   0.00    0.0
2025/04/01 07:09:00.000   39.135149656  141.132874147   117.0009   6  28   0.1109   0.1802   0.2290  -0.0471  -0.0897  -0.0332   0.00    0.0
2025/04/01 07:09:30.000   39.135149944  141.132874119   116.9439   6  28   0.1033   0.1682   0.2153  -0.0443  -0.0850  -0.0281   0.00    0.0
2025/04/01 07:10:00.000   39.135149570  141.132873736   117.0786   6  28   0.0964   0.1575   0.2028  -0.0417  -0.0807  -0.0240   0.00    0.0
2025/04/01 07:10:30.000   39.135149729  141.132873263   117.1269   6  28   0.0902   0.1479   0.1911  -0.0396  -0.0767  -0.0208   0.00    0.0
2025/04/01 07:11:00.000   39.135149881  141.132872840   117.0805   6  29   0.0849   0.1391   0.1809  -0.0374  -0.0730  -0.0172   0.00    0.0
2025/04/01 07:11:30.000   39.135149735  141.132872849   117.0686   6  29   0.0799   0.1313   0.1711  -0.0356  -0.0697  -0.0145   0.00    0.0
2025/04/01 07:12:00.000   39.135149911  141.132872770   117.0545   6  29   0.0755   0.1242   0.1620  -0.0337  -0.0663  -0.0123   0.00    0.0
2025/04/01 07:12:30.000   39.135150141  141.132873068   117.0431   6  30   0.0714   0.1177   0.1534  -0.0321  -0.0630  -0.0113   0.00    0.0
2025/04/01 07:13:00.000   39.135150112  141.132873041   117.0937   6  30   0.0679   0.1117   0.1452  -0.0305  -0.0601  -0.0110   0.00    0.0
2025/04/01 07:13:30.000   39.135150113  141.132872968   117.0931   6  31   0.0646   0.1062   0.1376  -0.0294  -0.0571  -0.0110   0.00    0.0
2025/04/01 07:14:00.000   39.135150123  141.132872468   117.0957   6  31   0.0615   0.1011   0.1302  -0.0278  -0.0542  -0.0120   0.00    0.0
2025/04/01 07:14:30.000   39.135150235  141.132872378   117.0934   6  31   0.0584   0.0964   0.1235  -0.0264  -0.0515  -0.0122   0.00    0.0
2025/04/01 07:15:00.000   39.135150271  141.132872255   117.0827   6  31   0.0558   0.0920   0.1171  -0.0252  -0.0489  -0.0126   0.00    0.0
2025/04/01 07:15:30.000   39.135150092  141.132872293   117.1020   6  31   0.0536   0.0880   0.1112  -0.0239  -0.0465  -0.0132   0.00    0.0
2025/04/01 07:16:00.000   39.135150147  141.132872051   117.0864   6  31   0.0514   0.0844   0.1055  -0.0231  -0.0442  -0.0140   0.00    0.0
2025/04/01 07:16:30.000   39.135150290  141.132872172   117.0708   6  30   0.0493   0.0809   0.1005  -0.0219  -0.0419  -0.0147   0.00    0.0
2025/04/01 07:17:00.000   39.135150263  141.132872246   117.0722   6  30   0.0474   0.0776   0.0957  -0.0208  -0.0400  -0.0151   0.00    0.0
2025/04/01 07:17:30.000   39.135150130  141.132872345   117.0787   6  30   0.0458   0.0745   0.0912  -0.0200  -0.0381  -0.0159   0.00    0.0
2025/04/01 07:18:00.000   39.135150274  141.132872232   117.1507   6  30   0.0442   0.0718   0.0872  -0.0193  -0.0362  -0.0156   0.00    0.0
2025/04/01 07:18:30.000   39.135150349  141.132872241   117.0826   6  30   0.0424   0.0692   0.0835  -0.0186  -0.0346  -0.0156   0.00    0.0
2025/04/01 07:19:00.000   39.135150241  141.132872118   117.0941   6  30   0.0411   0.0665   0.0800  -0.0177  -0.0332  -0.0156   0.00    0.0
2025/04/01 07:19:30.000   39.135150215  141.132872243   117.1504   6  30   0.0394   0.0642   0.0767  -0.0171  -0.0318  -0.0156   0.00    0.0
2025/04/01 07:20:00.000   39.135150221  141.132872395   117.0936   6  30   0.0386   0.0622   0.0738  -0.0165  -0.0304  -0.0156   0.00    0.0
2025/04/01 07:20:30.000   39.135150270  141.132872219   117.0821   6  30   0.0375   0.0601   0.0712  -0.0159  -0.0292  -0.0158   0.00    0.0
2025/04/01 07:21:00.000   39.135150415  141.132872333   117.0428   6  30   0.0361   0.0581   0.0686  -0.0150  -0.0280  -0.0160   0.00    0.0
2025/04/01 07:21:30.000   39.135150315  141.132872262   117.0903   6  30   0.0350   0.0565   0.0663  -0.0139  -0.0270  -0.0155   0.00    0.0
2025/04/01 07:22:00.000   39.135150356  141.132872087   117.1342   6  30   0.0340   0.0546   0.0642  -0.0142  -0.0262  -0.0149   0.00    0.0
2025/04/01 07:22:30.000   39.135150452  141.132872058   117.1314   6  30   0.0334   0.0531   0.0623  -0.0133  -0.0252  -0.0151   0.00    0.0
2025/04/01 07:23:00.000   39.135150466  141.132871979   117.1030   6  30   0.0322   0.0515   0.0605  -0.0128  -0.0241  -0.0146   0.00    0.0
2025/04/01 07:23:30.000   39.135150525  141.132871928   117.0755   6  30   0.0315   0.0502   0.0586  -0.0126  -0.0234  -0.0147   0.00    0.0
2025/04/01 07:24:00.000   39.135150596  141.132872039   117.0706   6  30   0.0310   0.0487   0.0570  -0.0125  -0.0229  -0.0150   0.00    0.0
2025/04/01 07:24:30.000   39.135150436  141.132871909   117.1079   6  30   0.0301   0.0474   0.0555  -0.0121  -0.0225  -0.0143   0.00    0.0
2025/04/01 07:25:00.000   39.135150530  141.132871944   117.1104   6  30   0.0296   0.0461   0.0541  -0.0116  -0.0216  -0.0148   0.00    0.0
2025/04/01 07:25:30.000   39.135150640  141.132871920   117.0907   6  30   0.0285   0.0449   0.0529  -0.0113  -0.0209  -0.0145   0.00    0.0
2025/04/01 07:26:00.000   39.135150557  141.132871890   117.1057   6  30   0.0279   0.0438   0.0515  -0.0102  -0.0204  -0.0139   0.00    0.0
2025/04/01 07:26:30.000   39.135150666  141.132871888   117.0901   6  30   0.0275   0.0427   0.0503  -0.0109  -0.0202  -0.0136   0.00    0.0
2025/04/01 07:27:00.000   39.135150616  141.132871979   117.0842   6  30   0.0270   0.0417   0.0494  -0.0095  -0.0190  -0.0136   0.00    0.0
2025/04/01 07:27:30.000   39.135150553  141.132872023   117.0947   6  30   0.0264   0.0407   0.0485  -0.0105  -0.0188  -0.0142   0.00    0.0
2025/04/01 07:28:00.000   39.135150598  141.132871926   117.0912   6  30   0.0261   0.0398   0.0475  -0.0099  -0.0186  -0.0136   0.00    0.0
2025/04/01 07:28:30.000   39.135150710  141.132871888   117.0758   6  30   0.0253   0.0392   0.0465  -0.0091  -0.0180  -0.0128   0.00    0.0
2025/04/01 07:29:00.000   39.135150576  141.132871842   117.1105   6  30   0.0250   0.0382   0.0459  -0.0097  -0.0179  -0.0123   0.00    0.0
2025/04/01 07:29:30.000   39.135150533  141.132871898   117.0903   6  30   0.0246   0.0376   0.0448  -0.0088  -0.0169  -0.0121   0.00    0.0
2025/04/01 07:30:00.000   39.135150556  141.132871883   117.0772   6  30   0.0243   0.0365   0.0441  -0.0092  -0.0172  -0.0131   0.00    0.0
2025/04/01 07:30:30.000   39.135150583  141.132871898   117.0733   6  30   0.0237   0.0357   0.0437  -0.0080  -0.0164  -0.0125   0.00    0.0
2025/04/01 07:31:00.000   39.135150615  141.132871960   117.0903   6  30   0.0237   0.0349   0.0429  -0.0087  -0.0162  -0.0130   0.00    0.0
2025/04/01 07:31:30.000   39.135150639  141.132871970   117.0692   6  30   0.0228   0.0343   0.0421  -0.0070  -0.0162  -0.0119   0.00    0.0
2025/04/01 07:32:00.000   39.135150551  141.132871878   117.1096   6  30   0.0231   0.0337   0.0414  -0.0069  -0.0159  -0.0122   0.00    0.0
2025/04/01 07:32:30.000   39.135150744  141.132871895   117.0894   6  30   0.0221   0.0332   0.0409  -0.0072  -0.0161  -0.0116   0.00    0.0
2025/04/01 07:33:00.000   39.135150629  141.132872014   117.0812   6  30   0.0220   0.0326   0.0403  -0.0074  -0.0154  -0.0121   0.00    0.0
2025/04/01 07:33:30.000   39.135150530  141.132872089   117.0859   6  30   0.0219   0.0318   0.0400  -0.0062  -0.0144  -0.0117   0.00    0.0
2025/04/01 07:34:00.000   39.135150593  141.132872024   117.0971   6  30   0.0216   0.0314   0.0393  -0.0067  -0.0147  -0.0119   0.00    0.0
2025/04/01 07:34:30.000   39.135150602  141.132872027   117.0889   6  30   0.0215   0.0309   0.0388  -0.0064  -0.0145  -0.0117   0.00    0.0
2025/04/01 07:35:00.000   39.135150622  141.132872121   117.0901   6  30   0.0206   0.0303   0.0385  -0.0062  -0.0141  -0.0110   0.00    0.0
2025/04/01 07:35:30.000   39.135150594  141.132872235   117.0796   6  29   0.0201   0.0302   0.0378  -0.0048  -0.0141  -0.0106   0.00    0.0
2025/04/01 07:36:00.000   39.135150549  141.132872224   117.0907   6  29   0.0202   0.0295   0.0382  -0.0065  -0.0133  -0.0107   0.00    0.0
2025/04/01 07:36:30.000   39.135150546  141.132872161   117.0979   6  29   0.0200   0.0291   0.0374  -0.0068  -0.0141  -0.0106   0.00    0.0
2025/04/01 07:37:00.000   39.135150609  141.132872228   117.0887   6  29   0.0197   0.0285   0.0367  -0.0027  -0.0131  -0.0107   0.00    0.0
2025/04/01 07:37:30.000   39.135150560  141.132872282   117.0731   6  29   0.0198   0.0281   0.0370  -0.0058  -0.0135  -0.0108   0.00    0.0
2025/04/01 07:38:00.000   39.135150516  141.132872233   117.0883   6  29   0.0199   0.0279   0.0364  -0.0041  -0.0130  -0.0104   0.00    0.0
2025/04/01 07:38:30.000   39.135150553  141.132872256   117.1099   6  29   0.0192   0.0277   0.0363  -0.0040  -0.0126  -0.0106   0.00    0.0
2025/04/01 07:39:00.000   39.135150611  141.132872305   117.0913   6  29   0.0191   0.0273   0.0358  -0.0057  -0.0127  -0.0110   0.00    0.0
2025/04/01 07:39:30.000   39.135150536  141.132872332   117.0914   6  29   0.0186   0.0268   0.0359  -0.0053  -0.0129  -0.0098   0.00    0.0
2025/04/01 07:40:00.000   39.135150595  141.132872328   117.0592   6  29   0.0184   0.0265   0.0352  -0.0047  -0.0129  -0.0101   0.00    0.0
2025/04/01 07:40:30.000   39.135150601  141.132872345   117.1181   6  30   0.0185   0.0259   0.0351  -0.0044  -0.0121  -0.0097   0.00    0.0
2025/04/01 07:41:00.000   39.135150572  141.132872365   117.0836   6  30   0.0183   0.0261   0.0349  -0.0043  -0.0125  -0.0090   0.00    0.0
2025/04/01 07:41:30.000   39.135150578  141.132872343   117.0559   6  30   0.0177   0.0255   0.0347  -0.0051  -0.0124  -0.0092   0.00    0.0
2025/04/01 07:42:00.000   39.135150502  141.132872301   117.0964   6  30   0.0176   0.0255   0.0343  -0.0048  -0.0120  -0.0090   0.00    0.0
2025/04/01 07:42:30.000   39.135150580  141.132872326   117.1047   6  30   0.0179   0.0251   0.0337  -0.0056  -0.0126  -0.0090   0.00    0.0
2025/04/01 07:43:00.000   39.135150606  141.132872347   117.0990   6  30   0.0173   0.0243   0.0335  -0.0028  -0.0119  -0.0090   0.00    0.0
2025/04/01 07:43:30.000   39.135150648  141.132872295   117.0948   6  30   0.0177   0.0241   0.0336  -0.0042  -0.0119  -0.0088   0.00    0.0
2025/04/01 07:44:00.000   39.135150610  141.132872333   117.0883   6  30   0.0174   0.0240   0.0332   0.0023  -0.0115  -0.0089   0.00    0.0
2025/04/01 07:44:30.000   39.135150445  141.132872290   117.1311   6  30   0.0171   0.0237   0.0333  -0.0048  -0.0122  -0.0082   0.00    0.0
2025/04/01 07:45:00.000   39.135150499  141.132872320   117.1052   6  29   0.0174   0.0235   0.0335  -0.0045  -0.0116  -0.0075   0.00    0.0
2025/04/01 07:45:30.000   39.135150562  141.132872370   117.0756   6  28   0.0175   0.0232   0.0333  -0.0030  -0.0114  -0.0074   0.00    0.0
2025/04/01 07:46:00.000   39.135150602  141.132872336   117.0895   6  28   0.0175   0.0229   0.0332  -0.0042  -0.0118  -0.0066   0.00    0.0
2025/04/01 07:46:30.000   39.135150455  141.132872240   117.1245   6  28   0.0171   0.0228   0.0329  -0.0049  -0.0118  -0.0071   0.00    0.0
2025/04/01 07:47:00.000   39.135150611  141.132872294   117.0922   6  28   0.0174   0.0228   0.0326  -0.0048  -0.0114  -0.0065   0.00    0.0
2025/04/01 07:47:30.000   39.135150628  141.132872349   117.0875   6  28   0.0170   0.0224   0.0325  -0.0005  -0.0115  -0.0051   0.00    0.0
2025/04/01 07:48:00.000   39.135150536  141.132872308   117.0906   6  27   0.0169   0.0225   0.0326  -0.0022  -0.0117  -0.0060   0.00    0.0
2025/04/01 07:48:30.000   39.135150584  141.132872300   117.0947   6  27   0.0169   0.0219   0.0328  -0.0048  -0.0118  -0.0054   0.00    0.0
2025/04/01 07:49:00.000   39.135150512  141.132872291   117.1003   6  27   0.0170   0.0217   0.0325  -0.0033  -0.0117  -0.0062   0.00    0.0
2025/04/01 07:49:30.000   39.135150662  141.132872297   117.0944   6  28   0.0169   0.0214   0.0327   0.0005  -0.0114  -0.0050   0.00    0.0
2025/04/01 07:50:00.000   39.135150652  141.132872313   117.0628   6  28   0.0169   0.0216   0.0327  -0.0022  -0.0118  -0.0049   0.00    0.0
2025/04/01 07:50:30.000   39.135150615  141.132872306   117.1071   6  28   0.0166   0.0215   0.0321  -0.0032  -0.0111  -0.0059   0.00    0.0
2025/04/01 07:51:00.000   39.135150559  141.132872252   117.1053   6  28   0.0160   0.0210   0.0319  -0.0029  -0.0115  -0.0066   0.00    0.0
2025/04/01 07:51:30.000   39.135150602  141.132872253   117.1070   6  28   0.0168   0.0213   0.0319  -0.0020  -0.0110  -0.0061   0.00    0.0
2025/04/01 07:52:00.000   39.135150579  141.132872185   117.1115   6  28   0.0167   0.0210   0.0321  -0.0033  -0.0112  -0.0059   0.00    0.0
2025/04/01 07:52:30.000   39.135150676  141.132872286   117.0833   6  28   0.0164   0.0210   0.0319  -0.0030  -0.0115  -0.0057   0.00    0.0
2025/04/01 07:53:00.000   39.135150619  141.132872289   117.1016   6  28   0.0163   0.0206   0.0317  -0.0019  -0.0112  -0.0058   0.00    0.0
2025/04/01 07:53:30.000   39.135150613  141.132872201   117.1086   6  29   0.0158   0.0208   0.0318  -0.0046  -0.0114  -0.0060   0.00    0.0
2025/04/01 07:54:00.000   39.135150712  141.132872201   117.0887   6  29   0.0160   0.0205   0.0314  -0.0030  -0.0114  -0.0062   0.00    0.0
2025/04/01 07:54:30.000   39.135150527  141.132872216   117.0958   6  29   0.0154   0.0200   0.0314  -0.0007  -0.0103  -0.0067   0.00    0.0
2025/04/01 07:55:00.000   39.135150601  141.132872238   117.1071   6  29   0.0153   0.0198   0.0312  -0.0015  -0.0108  -0.0066   0.00    0.0
2025/04/01 07:55:30.000   39.135150668  141.132872192   117.0948   6  29   0.0157   0.0200   0.0313  -0.0021  -0.0107  -0.0066   0.00    0.0
2025/04/01 07:56:00.000   39.135150622  141.132872215   117.1144   6  29   0.0154   0.0199   0.0313  -0.0034  -0.0107  -0.0063   0.00    0.0
2025/04/01 07:56:30.000   39.135150636  141.132872303   117.0815   6  29   0.0153   0.0200   0.0309   0.0017  -0.0104  -0.0069   0.00    0.0
2025/04/01 07:57:00.000   39.135150639  141.132872247   117.0984   6  29   0.0157   0.0193   0.0308  -0.0021  -0.0105  -0.0072   0.00    0.0
2025/04/01 07:57:30.000   39.135150697  141.132872177   117.1074   6  29   0.0156   0.0195   0.0310  -0.0008  -0.0108  -0.0070   0.00    0.0
2025/04/01 07:58:00.000   39.135150634  141.132872174   117.1134   6  29   0.0149   0.0193   0.0306   0.0013  -0.0105  -0.0074   0.00    0.0
2025/04/01 07:58:30.000   39.135150566  141.132872283   117.1057   6  29   0.0149   0.0196   0.0310  -0.0031  -0.0107  -0.0056   0.00    0.0
2025/04/01 07:59:00.000   39.135150636  141.132872266   117.1057   6  28   0.0154   0.0194   0.0309   0.0015  -0.0111  -0.0073   0.00    0.0
2025/04/01 07:59:30.000   39.135150581  141.132872209   117.1168   6  28   0.0153   0.0191   0.0312  -0.0018  -0.0113  -0.0071   0.00    0.0
