% program    : MADOCALIB ver.2.0
% inp file   : .\data\rinex\MIZU00JPN_R_20250910000_01D_30S_MO.rnx
% inp file   : .\data\rinex\BRDM00DLR_S_20250910000_01D_MN.rnx
% inp file   : .\data\l6_is-qzss-mdc-004\%Y\%n\%Y%n%HU.204.l6
% inp file   : .\data\l6_is-qzss-mdc-004\%Y\%n\%Y%n%HU.206.l6
% satantfile : 
% rcvantfile : .\data\igs20.atx
% obs start  : 2025/04/01 23:00:00.0 GPST (week2360 255600.0s)
% obs end    : 2025/04/01 23:59:30.0 GPST (week2360 259170.0s)
% pos mode   : PPP Kinematic
% freqs      : L1+2
% siggps     : L1/L2/L5
% sigqzs     : L1/L5/L2
% siggal     : E1/E5a/E5b/E6
% sigbds2    : B1I/B3I/B2I
% sigbds3    : B1I/B3I/B2a
% solution   : Forward
% elev mask  : 10.0 deg
% dynamics   : off
% tidecorr   : on
% ionos opt  : Iono-Free LC
% tropo opt  : Estimate ZTD
% ephemeris  : Broadcast+SSR APC
% navi sys   : GPS GLONASS Galileo QZSS
% amb mode   : OFF
% ar sys     : GPS Galileo QZSS BDS
% val ratio  : 1.5
% max std pos: 1.5 m
% ionocorr   : off
% antenna1   : SEPCHOKE_B3E6   NONE  ( 0.0000  0.0000  0.1206)
%
% (lat/lon/height=WGS84/ellipsoidal,Q=1:fix,2:float,3:sbas,4:dgps,5:single,6:ppp,ns=# of satellites)
%  GPST                  latitude(deg) longitude(deg)  height(m)   Q  ns   sdn(m)   sde(m)   sdu(m)  sdne(m)  sdeu(m)  sdun(m) age(s)  ratio
2025/04/01 22:59:59.997   39.135145989  141.132871693   116.4533   6  15   4.2706   2.9546   7.5773   1.0774  -1.1328  -3.6813   0.00    0.0
2025/04/01 23:00:30.000   39.135148537  141.132871960   116.1366   6  15   2.8238   2.0329   4.5259   0.5681  -0.5254  -2.5661   0.00    0.0
2025/04/01 23:01:00.000   39.135147414  141.132873732   116.2418   6  15   2.0941   1.5895   3.1214   0.1848   0.2071  -1.9643   0.00    0.0
2025/04/01 23:01:30.000   39.135142766  141.132873489   117.5213   6  15   1.6289   1.3057   2.3377  -0.2825   0.4005  -1.5572   0.00    0.0
2025/04/01 23:02:00.000   39.135145408  141.132874122   117.5622   6  13   1.3200   1.1147   1.8786  -0.3586   0.4555  -1.2838   0.00    0.0
2025/04/01 23:02:30.000   39.135148411  141.132875820   117.0675   6  13   1.0926   0.9667   1.5595  -0.3718   0.4667  -1.0772   0.00    0.0
2025/04/01 23:03:00.000   39.135147845  141.132874556   117.1857   6  13   0.9210   0.8482   1.3289  -0.3623   0.4581  -0.9186   0.00    0.0
2025/04/01 23:03:30.000   39.135146777  141.132875091   117.3131   6  13   0.7885   0.7512   1.1556  -0.3437   0.4404  -0.7948   0.00    0.0
2025/04/01 23:04:00.000   39.135147664  141.132875874   117.2898   6  13   0.6842   0.6705   1.0208  -0.3219   0.4186  -0.6966   0.00    0.0
2025/04/01 23:04:30.000   39.135147598  141.132875107   117.4216   6  13   0.6004   0.6024   0.9126  -0.2996   0.3952  -0.6171   0.00    0.0
2025/04/01 23:05:00.000   39.135147239  141.132874581   117.4748   6  13   0.5322   0.5445   0.8236  -0.2780   0.3716  -0.5519   0.00    0.0
2025/04/01 23:05:30.000   39.135147388  141.132874241   117.5273   6  13   0.4758   0.4946   0.7488  -0.2578   0.3485  -0.4975   0.00    0.0
2025/04/01 23:06:00.000   39.135148193  141.132874605   117.4244   6  13   0.4286   0.4514   0.6850  -0.2392   0.3264  -0.4516   0.00    0.0
2025/04/01 23:06:30.000   39.135148307  141.132874854   117.3490   6  13   0.3886   0.4136   0.6299  -0.2221   0.3055  -0.4124   0.00    0.0
2025/04/01 23:07:00.000   39.135148477  141.132874451   117.3428   6  13   0.3545   0.3805   0.5818  -0.2065   0.2860  -0.3785   0.00    0.0
2025/04/01 23:07:30.000   39.135148685  141.132874033   117.3843   6  13   0.3250   0.3512   0.5396  -0.1923   0.2678  -0.3490   0.00    0.0
2025/04/01 23:08:00.000   39.135148769  141.132873866   117.3330   6  13   0.2994   0.3252   0.5022  -0.1794   0.2510  -0.3232   0.00    0.0
2025/04/01 23:08:30.000   39.135148264  141.132873402   117.4418   6  13   0.2770   0.3021   0.4690  -0.1677   0.2354  -0.3004   0.00    0.0
2025/04/01 23:09:00.000   39.135148376  141.132873460   117.4260   6  13   0.2573   0.2814   0.4393  -0.1570   0.2211  -0.2802   0.00    0.0
2025/04/01 23:09:30.000   39.135148756  141.132873274   117.3903   6  13   0.2398   0.2628   0.4127  -0.1472   0.2079  -0.2621   0.00    0.0
2025/04/01 23:10:00.000   39.135148687  141.132872862   117.4094   6  13   0.2242   0.2460   0.3887  -0.1383   0.1958  -0.2460   0.00    0.0
2025/04/01 23:10:30.000   39.135148977  141.132872757   117.3505   6  14   0.2103   0.2308   0.3670  -0.1302   0.1846  -0.2314   0.00    0.0
2025/04/01 23:11:00.000   39.135149319  141.132872586   117.3180   6  14   0.1978   0.2171   0.3471  -0.1228   0.1742  -0.2183   0.00    0.0
2025/04/01 23:11:30.000   39.135149514  141.132872468   117.2985   6  14   0.1864   0.2046   0.3290  -0.1159   0.1646  -0.2064   0.00    0.0
2025/04/01 23:12:00.000   39.135149699  141.132872476   117.2385   6  14   0.1762   0.1932   0.3123  -0.1097   0.1557  -0.1956   0.00    0.0
2025/04/01 23:12:30.000   39.135149770  141.132872233   117.2738   6  14   0.1669   0.1827   0.2970  -0.1039   0.1475  -0.1857   0.00    0.0
2025/04/01 23:13:00.000   39.135149840  141.132872370   117.2512   6  14   0.1584   0.1731   0.2829  -0.0985   0.1398  -0.1767   0.00    0.0
2025/04/01 23:13:30.000   39.135149930  141.132872401   117.2311   6  14   0.1506   0.1643   0.2700  -0.0936   0.1327  -0.1683   0.00    0.0
2025/04/01 23:14:00.000   39.135149960  141.132872354   117.2430   6  14   0.1435   0.1562   0.2579  -0.0891   0.1260  -0.1607   0.00    0.0
2025/04/01 23:14:30.000   39.135150044  141.132872451   117.2255   6  14   0.1369   0.1487   0.2468  -0.0848   0.1198  -0.1537   0.00    0.0
2025/04/01 23:15:00.000   39.135150113  141.132872196   117.2406   6  14   0.1308   0.1417   0.2365  -0.0808   0.1141  -0.1472   0.00    0.0
2025/04/01 23:15:30.000   39.135150347  141.132872247   117.1690   6  14   0.1252   0.1353   0.2269  -0.0771   0.1087  -0.1411   0.00    0.0
2025/04/01 23:16:00.000   39.135150271  141.132872088   117.1951   6  14   0.1201   0.1294   0.2181  -0.0737   0.1037  -0.1355   0.00    0.0
2025/04/01 23:16:30.000   39.135150310  141.132872233   117.2027   6  14   0.1152   0.1238   0.2098  -0.0704   0.0991  -0.1303   0.00    0.0
2025/04/01 23:17:00.000   39.135150382  141.132872198   117.1873   6  14   0.1107   0.1186   0.2021  -0.0674   0.0946  -0.1254   0.00    0.0
2025/04/01 23:17:30.000   39.135150338  141.132872222   117.2228   6  14   0.1066   0.1138   0.1949  -0.0646   0.0905  -0.1208   0.00    0.0
2025/04/01 23:18:00.000   39.135150431  141.132872273   117.2150   6  14   0.1027   0.1092   0.1882  -0.0620   0.0866  -0.1166   0.00    0.0
2025/04/01 23:18:30.000   39.135150461  141.132872346   117.2025   6  14   0.0990   0.1050   0.1820  -0.0593   0.0830  -0.1125   0.00    0.0
2025/04/01 23:19:00.000   39.135150546  141.132872233   117.2098   6  14   0.0956   0.1010   0.1761  -0.0570   0.0795  -0.1088   0.00    0.0
2025/04/01 23:19:30.000   39.135150697  141.132872239   117.1647   6  14   0.0924   0.0973   0.1706  -0.0548   0.0762  -0.1053   0.00    0.0
2025/04/01 23:20:00.000   39.135150723  141.132872216   117.1792   6  14   0.0894   0.0938   0.1655  -0.0527   0.0732  -0.1019   0.00    0.0
2025/04/01 23:20:30.000   39.135150746  141.132872096   117.1814   6  14   0.0865   0.0905   0.1606  -0.0507   0.0702  -0.0988   0.00    0.0
2025/04/01 23:21:00.000   39.135150808  141.132872140   117.1747   6  14   0.0839   0.0874   0.1561  -0.0488   0.0674  -0.0958   0.00    0.0
2025/04/01 23:21:30.000   39.135150846  141.132872115   117.1633   6  14   0.0813   0.0845   0.1518  -0.0470   0.0648  -0.0930   0.00    0.0
2025/04/01 23:22:00.000   39.135150890  141.132872089   117.1554   6  15   0.0790   0.0817   0.1477  -0.0453   0.0623  -0.0904   0.00    0.0
2025/04/01 23:22:30.000   39.135150789  141.132871981   117.1634   6  15   0.0766   0.0791   0.1437  -0.0437   0.0599  -0.0879   0.00    0.0
2025/04/01 23:23:00.000   39.135150780  141.132872028   117.1444   6  15   0.0744   0.0766   0.1399  -0.0420   0.0576  -0.0856   0.00    0.0
2025/04/01 23:23:30.000   39.135150850  141.132872147   117.1591   6  15   0.0724   0.0742   0.1364  -0.0406   0.0555  -0.0834   0.00    0.0
2025/04/01 23:24:00.000   39.135151019  141.132872008   117.1261   6  15   0.0705   0.0721   0.1331  -0.0391   0.0534  -0.0812   0.00    0.0
2025/04/01 23:24:30.000   39.135150980  141.132871924   117.1341   6  15   0.0686   0.0700   0.1300  -0.0377   0.0514  -0.0792   0.00    0.0
2025/04/01 23:25:00.000   39.135150996  141.132871920   117.1278   6  15   0.0669   0.0678   0.1270  -0.0364   0.0495  -0.0772   0.00    0.0
2025/04/01 23:25:30.000   39.135150976  141.132871970   117.1175   6  15   0.0652   0.0661   0.1240  -0.0354   0.0475  -0.0753   0.00    0.0
2025/04/01 23:26:00.000   39.135151007  141.132871806   117.1319   6  15   0.0635   0.0642   0.1214  -0.0340   0.0458  -0.0736   0.00    0.0
2025/04/01 23:26:30.000   39.135150971  141.132871828   117.1315   6  15   0.0621   0.0625   0.1188  -0.0329   0.0441  -0.0719   0.00    0.0
2025/04/01 23:27:00.000   39.135150923  141.132871823   117.1598   6  15   0.0606   0.0608   0.1163  -0.0318   0.0425  -0.0702   0.00    0.0
2025/04/01 23:27:30.000   39.135151012  141.132871721   117.1288   6  15   0.0593   0.0592   0.1140  -0.0308   0.0408  -0.0687   0.00    0.0
2025/04/01 23:28:00.000   39.135150963  141.132871776   117.1064   6  15   0.0579   0.0579   0.1117  -0.0297   0.0393  -0.0671   0.00    0.0
2025/04/01 23:28:30.000   39.135150987  141.132871809   117.1360   6  15   0.0567   0.0563   0.1095  -0.0288   0.0378  -0.0657   0.00    0.0
2025/04/01 23:29:00.000   39.135150947  141.132871838   117.1346   6  15   0.0554   0.0550   0.1074  -0.0279   0.0363  -0.0644   0.00    0.0
2025/04/01 23:29:30.000   39.135150967  141.132871756   117.1123   6  15   0.0544   0.0537   0.1054  -0.0270   0.0349  -0.0630   0.00    0.0
2025/04/01 23:30:00.000   39.135150910  141.132871826   117.1518   6  15   0.0533   0.0526   0.1034  -0.0261   0.0335  -0.0617   0.00    0.0
2025/04/01 23:30:30.000   39.135150885  141.132871801   117.1452   6  15   0.0522   0.0513   0.1017  -0.0252   0.0322  -0.0604   0.00    0.0
2025/04/01 23:31:00.000   39.135150947  141.132871695   117.1277   6  15   0.0512   0.0502   0.0999  -0.0244   0.0308  -0.0592   0.00    0.0
2025/04/01 23:31:30.000   39.135150891  141.132871800   117.1243   6  15   0.0502   0.0492   0.0982  -0.0236   0.0295  -0.0581   0.00    0.0
2025/04/01 23:32:00.000   39.135150932  141.132871789   117.1174   6  15   0.0492   0.0480   0.0966  -0.0227   0.0284  -0.0570   0.00    0.0
2025/04/01 23:32:30.000   39.135150956  141.132871744   117.1131   6  14   0.0487   0.0471   0.0951  -0.0223   0.0270  -0.0556   0.00    0.0
2025/04/01 23:33:00.000   39.135150975  141.132871723   117.1051   6  14   0.0478   0.0461   0.0937  -0.0214   0.0259  -0.0546   0.00    0.0
2025/04/01 23:33:30.000   39.135150926  141.132871877   117.1014   6  15   0.0467   0.0452   0.0920  -0.0204   0.0251  -0.0538   0.00    0.0
2025/04/01 23:34:00.000   39.135150942  141.132871759   117.0896   6  15   0.0458   0.0445   0.0906  -0.0198   0.0237  -0.0528   0.00    0.0
2025/04/01 23:34:30.000   39.135150955  141.132871796   117.1096   6  15   0.0450   0.0436   0.0892  -0.0192   0.0225  -0.0519   0.00    0.0
2025/04/01 23:35:00.000   39.135150929  141.132871848   117.1152   6  14   0.0444   0.0426   0.0880  -0.0184   0.0216  -0.0511   0.00    0.0
2025/04/01 23:35:30.000   39.135150931  141.132871857   117.1017   6  14   0.0436   0.0419   0.0867  -0.0179   0.0205  -0.0502   0.00    0.0
2025/04/01 23:36:00.000   39.135150921  141.132871888   117.1048   6  14   0.0429   0.0413   0.0857  -0.0174   0.0195  -0.0493   0.00    0.0
2025/04/01 23:36:30.000   39.135150904  141.132871928   117.0890   6  14   0.0422   0.0406   0.0846  -0.0170   0.0183  -0.0486   0.00    0.0
2025/04/01 23:37:00.000   39.135150863  141.132871914   117.1211   6  14   0.0416   0.0398   0.0836  -0.0163   0.0178  -0.0479   0.00    0.0
2025/04/01 23:37:30.000   39.135150800  141.132871928   117.1251   6  14   0.0411   0.0391   0.0826  -0.0157   0.0168  -0.0471   0.00    0.0
2025/04/01 23:38:00.000   39.135150858  141.132871929   117.1170   6  13   0.0407   0.0386   0.0817  -0.0154   0.0155  -0.0462   0.00    0.0
2025/04/01 23:38:30.000   39.135150878  141.132871943   117.1121   6  13   0.0401   0.0381   0.0808  -0.0151   0.0146  -0.0455   0.00    0.0
2025/04/01 23:39:00.000   39.135150826  141.132871923   117.1154   6  13   0.0396   0.0376   0.0799  -0.0145   0.0134  -0.0448   0.00    0.0
2025/04/01 23:39:30.000   39.135150850  141.132871870   117.1254   6  13   0.0390   0.0371   0.0790  -0.0142   0.0128  -0.0441   0.00    0.0
2025/04/01 23:40:00.000   39.135150787  141.132871893   117.1174   6  13   0.0385   0.0366   0.0783  -0.0134   0.0125  -0.0436   0.00    0.0
2025/04/01 23:40:30.000   39.135150804  141.132871927   117.1258   6  13   0.0380   0.0360   0.0774  -0.0130   0.0116  -0.0430   0.00    0.0
2025/04/01 23:41:00.000   39.135150766  141.132871969   117.1093   6  13   0.0374   0.0358   0.0767  -0.0127   0.0107  -0.0423   0.00    0.0
2025/04/01 23:41:30.000   39.135150817  141.132871989   117.1094   6  13   0.0370   0.0352   0.0761  -0.0124   0.0098  -0.0417   0.00    0.0
2025/04/01 23:42:00.000   39.135150845  141.132871923   117.1252   6  13   0.0365   0.0349   0.0752  -0.0121   0.0087  -0.0411   0.00    0.0
2025/04/01 23:42:30.000   39.135150797  141.132871993   117.1177   6  13   0.0361   0.0344   0.0747  -0.0111   0.0088  -0.0406   0.00    0.0
2025/04/01 23:43:00.000   39.135150779  141.132872043   117.0987   6  13   0.0356   0.0340   0.0740  -0.0109   0.0079  -0.0400   0.00    0.0
2025/04/01 23:43:30.000   39.135150834  141.132871933   117.1097   6  13   0.0352   0.0336   0.0734  -0.0106   0.0067  -0.0396   0.00    0.0
2025/04/01 23:44:00.000   39.135150807  141.132871960   117.1416   6  13   0.0348   0.0333   0.0726  -0.0100   0.0054  -0.0390   0.00    0.0
2025/04/01 23:44:30.000   39.135150796  141.132871891   117.1203   6  13   0.0344   0.0329   0.0722  -0.0100   0.0032  -0.0385   0.00    0.0
2025/04/01 23:45:00.000   39.135150835  141.132871925   117.1251   6  13   0.0340   0.0326   0.0714  -0.0096  -0.0002  -0.0381   0.00    0.0
2025/04/01 23:45:30.000   39.135150865  141.132871997   117.1167   6  13   0.0336   0.0322   0.0709  -0.0090  -0.0027  -0.0375   0.00    0.0
2025/04/01 23:46:00.000   39.135150832  141.132871935   117.1058   6  13   0.0333   0.0320   0.0703  -0.0083  -0.0037  -0.0371   0.00    0.0
2025/04/01 23:46:30.000   39.135150827  141.132871971   117.1331   6  13   0.0329   0.0316   0.0699  -0.0082  -0.0050  -0.0366   0.00    0.0
2025/04/01 23:47:00.000   39.135150804  141.132871963   117.1562   6  13   0.0325   0.0314   0.0694  -0.0076  -0.0063  -0.0363   0.00    0.0
2025/04/01 23:47:30.000   39.135150759  141.132872005   117.1392   6  13   0.0322   0.0309   0.0687  -0.0072  -0.0059  -0.0358   0.00    0.0
2025/04/01 23:48:00.000   39.135150821  141.132871952   117.1278   6  13   0.0319   0.0307   0.0683  -0.0070  -0.0073  -0.0354   0.00    0.0
2025/04/01 23:48:30.000   39.135150771  141.132871985   117.1352   6  13   0.0314   0.0306   0.0678  -0.0067  -0.0078  -0.0350   0.00    0.0
2025/04/01 23:49:00.000   39.135150716  141.132872054   117.1399   6  13   0.0312   0.0303   0.0673  -0.0058  -0.0084  -0.0346   0.00    0.0
2025/04/01 23:49:30.000   39.135150766  141.132871986   117.1465   6  13   0.0308   0.0300   0.0669  -0.0059  -0.0086  -0.0343   0.00    0.0
2025/04/01 23:50:00.000   39.135150747  141.132872027   117.1540   6  13   0.0306   0.0297   0.0666  -0.0055  -0.0090  -0.0338   0.00    0.0
2025/04/01 23:50:30.000   39.135150723  141.132872055   117.1446   6  13   0.0304   0.0295   0.0661  -0.0045  -0.0094  -0.0334   0.00    0.0
2025/04/01 23:51:00.000   39.135150756  141.132871987   117.1378   6  13   0.0300   0.0295   0.0656  -0.0047  -0.0099  -0.0330   0.00    0.0
2025/04/01 23:51:30.000   39.135150642  141.132872030   117.1459   6  13   0.0297   0.0291   0.0653  -0.0040  -0.0103  -0.0327   0.00    0.0
2025/04/01 23:52:00.000   39.135150636  141.132872091   117.1598   6  13   0.0295   0.0289   0.0649  -0.0042  -0.0106  -0.0323   0.00    0.0
2025/04/01 23:52:30.000   39.135150727  141.132871943   117.1336   6  13   0.0291   0.0288   0.0646  -0.0034  -0.0106  -0.0319   0.00    0.0
2025/04/01 23:53:00.000   39.135150696  141.132871963   117.1628   6  13   0.0288   0.0285   0.0641  -0.0038  -0.0113  -0.0317   0.00    0.0
2025/04/01 23:53:30.000   39.135150696  141.132871998   117.1320   6  13   0.0286   0.0281   0.0639  -0.0031  -0.0113  -0.0314   0.00    0.0
2025/04/01 23:54:00.000   39.135150701  141.132871940   117.1333   6  13   0.0283   0.0281   0.0635  -0.0027  -0.0114  -0.0310   0.00    0.0
2025/04/01 23:54:30.000   39.135150734  141.132871924   117.1532   6  13   0.0281   0.0278   0.0631   0.0009  -0.0117  -0.0307   0.00    0.0
2025/04/01 23:55:00.000   39.135150679  141.132871970   117.1720   6  13   0.0279   0.0276   0.0629   0.0027  -0.0116  -0.0304   0.00    0.0
2025/04/01 23:55:30.000   39.135150666  141.132871943   117.1518   6  13   0.0277   0.0276   0.0624   0.0023  -0.0120  -0.0301   0.00    0.0
2025/04/01 23:56:00.000   39.135150699  141.132871943   117.1353   6  13   0.0275   0.0272   0.0622   0.0037  -0.0119  -0.0298   0.00    0.0
2025/04/01 23:56:30.000   39.135150702  141.132871940   117.1536   6  13   0.0272   0.0272   0.0619   0.0034  -0.0119  -0.0295   0.00    0.0
2025/04/01 23:57:00.000   39.135150709  141.132871931   117.1726   6  13   0.0270   0.0270   0.0616   0.0047  -0.0119  -0.0293   0.00    0.0
2025/04/01 23:57:30.000   39.135150648  141.132871910   117.1548   6  13   0.0269   0.0268   0.0614   0.0046  -0.0122  -0.0289   0.00    0.0
2025/04/01 23:58:00.000   39.135150670  141.132871882   117.1613   6  13   0.0266   0.0268   0.0611   0.0043  -0.0127  -0.0286   0.00    0.0
2025/04/01 23:58:30.000   39.135150650  141.132871813   117.1610   6  13   0.0265   0.0265   0.0608   0.0050  -0.0124  -0.0282   0.00    0.0
2025/04/01 23:59:00.000   39.135150646  141.132871867   117.1881   6  13   0.0263   0.0264   0.0605   0.0046  -0.0127  -0.0281   0.00    0.0
2025/04/01 23:59:30.000   39.135150735  141.132871842   117.1751   6  13   0.0260   0.0264   0.0602   0.0049  -0.0128  -0.0277   0.00    0.0
