% program    : MADOCALIB ver.2.0
% inp file   : .\data\rinex\MIZU00JPN_R_20250910000_01D_30S_MO.rnx
% inp file   : .\data\rinex\BRDM00DLR_S_20250910000_01D_MN.rnx
% inp file   : .\data\l6_is-qzss-mdc-004\%Y\%n\%Y%n%HU.204.l6
% inp file   : .\data\l6_is-qzss-mdc-004\%Y\%n\%Y%n%HU.206.l6
% satantfile : 
% rcvantfile : .\data\igs20.atx
% obs start  : 2025/04/01 10:00:00.0 GPST (week2360 208800.0s)
% obs end    : 2025/04/01 10:59:30.0 GPST (week2360 212370.0s)
% pos mode   : PPP Kinematic
% freqs      : L1+2
% siggps     : L1/L2/L5
% sigqzs     : L1/L5/L2
% siggal     : E1/E5a/E5b/E6
% sigbds2    : B1I/B3I/B2I
% sigbds3    : B1I/B3I/B2a
% solution   : Forward
% elev mask  : 10.0 deg
% dynamics   : off
% tidecorr   : on
% ionos opt  : Iono-Free LC
% tropo opt  : Estimate ZTD
% ephemeris  : Broadcast+SSR APC
% navi sys   : GPS GLONASS Galileo QZSS
% amb mode   : OFF
% ar sys     : GPS Galileo QZSS BDS
% val ratio  : 1.5
% max std pos: 1.5 m
% ionocorr   : off
% antenna1   : SEPCHOKE_B3E6   NONE  ( 0.0000  0.0000  0.1206)
%
% (lat/lon/height=WGS84/ellipsoidal,Q=1:fix,2:float,3:sbas,4:dgps,5:single,6:ppp,ns=# of satellites)
%  GPST                  latitude(deg) longitude(deg)  height(m)   Q  ns   sdn(m)   sde(m)   sdu(m)  sdne(m)  sdeu(m)  sdun(m) age(s)  ratio
2025/04/01 10:00:00.000   39.135145823  141.132874729   117.3937   6  25   2.9078   2.6958   5.4569   0.3653   0.9073  -1.8483   0.00    0.0
2025/04/01 10:00:30.000   39.135142518  141.132874666   118.1307   6  25   1.6207   1.8871   3.0611   0.4484   0.4480  -0.9789   0.00    0.0
2025/04/01 10:01:00.000   39.135140784  141.132876373   116.7658   6  25   1.0382   1.5132   1.9965   0.4255   0.2347  -0.5975   0.00    0.0
2025/04/01 10:01:30.000   39.135148238  141.132873513   116.5316   6  25   0.7279   1.2794   1.4418   0.3858   0.1322  -0.3972   0.00    0.0
2025/04/01 10:02:00.000   39.135151865  141.132871712   116.8491   6  25   0.5443   1.1117   1.1153   0.3469   0.0968  -0.2787   0.00    0.0
2025/04/01 10:02:30.000   39.135150644  141.132871331   116.8425   6  25   0.4264   0.9819   0.9011   0.3120   0.0944  -0.2030   0.00    0.0
2025/04/01 10:03:00.000   39.135148703  141.132874516   117.2600   6  24   0.3459   0.8777   0.7621   0.2817   0.0759  -0.1509   0.00    0.0
2025/04/01 10:03:30.000   39.135149649  141.132874641   117.3486   6  24   0.2881   0.7904   0.6627   0.2547   0.0653  -0.1128   0.00    0.0
2025/04/01 10:04:00.000   39.135150239  141.132875079   117.7039   6  25   0.2447   0.7157   0.5868   0.2307   0.0587  -0.0835   0.00    0.0
2025/04/01 10:04:30.000   39.135150352  141.132872903   117.4002   6  25   0.2114   0.6513   0.5261   0.2097   0.0546  -0.0598   0.00    0.0
2025/04/01 10:05:00.000   39.135150753  141.132871096   117.4654   6  25   0.1851   0.5954   0.4758   0.1911   0.0512  -0.0396   0.00    0.0
2025/04/01 10:05:30.000   39.135151008  141.132872060   117.4038   6  25   0.1637   0.5463   0.4332   0.1747   0.0484  -0.0196   0.00    0.0
2025/04/01 10:06:00.000   39.135150958  141.132873125   117.3604   6  25   0.1463   0.5032   0.3964   0.1602   0.0453   0.0174   0.00    0.0
2025/04/01 10:06:30.000   39.135150764  141.132872290   117.3904   6  25   0.1317   0.4650   0.3643   0.1473   0.0420   0.0261   0.00    0.0
2025/04/01 10:07:00.000   39.135150874  141.132873113   117.2866   6  25   0.1194   0.4310   0.3361   0.1358   0.0391   0.0296   0.00    0.0
2025/04/01 10:07:30.000   39.135150912  141.132872482   117.3181   6  25   0.1089   0.4008   0.3112   0.1255   0.0359   0.0309   0.00    0.0
2025/04/01 10:08:00.000   39.135151051  141.132873757   117.3483   6  25   0.0999   0.3737   0.2890   0.1163   0.0330   0.0315   0.00    0.0
2025/04/01 10:08:30.000   39.135151211  141.132873416   117.2907   6  25   0.0920   0.3494   0.2693   0.1080   0.0301   0.0311   0.00    0.0
2025/04/01 10:09:00.000   39.135150884  141.132871960   117.2220   6  25   0.0852   0.3275   0.2516   0.1006   0.0272   0.0304   0.00    0.0
2025/04/01 10:09:30.000   39.135150907  141.132872874   117.2110   6  25   0.0792   0.3077   0.2358   0.0938   0.0249   0.0295   0.00    0.0
2025/04/01 10:10:00.000   39.135151025  141.132873678   117.2699   6  25   0.0738   0.2898   0.2215   0.0877   0.0224   0.0288   0.00    0.0
2025/04/01 10:10:30.000   39.135150972  141.132873017   117.2594   6  25   0.0690   0.2734   0.2086   0.0821   0.0200   0.0276   0.00    0.0
2025/04/01 10:11:00.000   39.135151060  141.132873988   117.2534   6  25   0.0648   0.2585   0.1969   0.0771   0.0175   0.0266   0.00    0.0
2025/04/01 10:11:30.000   39.135150920  141.132873302   117.2239   6  25   0.0611   0.2450   0.1863   0.0725   0.0152   0.0257   0.00    0.0
2025/04/01 10:12:00.000   39.135150785  141.132871860   117.1034   6  25   0.0576   0.2325   0.1766   0.0682   0.0132   0.0247   0.00    0.0
2025/04/01 10:12:30.000   39.135150880  141.132871926   117.1060   6  25   0.0545   0.2211   0.1678   0.0643   0.0111   0.0238   0.00    0.0
2025/04/01 10:13:00.000   39.135150852  141.132871985   117.2046   6  25   0.0516   0.2105   0.1596   0.0607   0.0079   0.0226   0.00    0.0
2025/04/01 10:13:30.000   39.135150731  141.132871472   117.1785   6  25   0.0490   0.2008   0.1520   0.0574   0.0033   0.0213   0.00    0.0
2025/04/01 10:14:00.000   39.135151056  141.132872685   117.1440   6  25   0.0466   0.1918   0.1451   0.0542  -0.0056   0.0207   0.00    0.0
2025/04/01 10:14:30.000   39.135151012  141.132872812   117.1262   6  25   0.0445   0.1834   0.1386   0.0514  -0.0087   0.0198   0.00    0.0
2025/04/01 10:15:00.000   39.135150902  141.132872056   117.1748   6  25   0.0425   0.1757   0.1327   0.0487  -0.0107   0.0188   0.00    0.0
2025/04/01 10:15:30.000   39.135150857  141.132871358   117.1875   6  25   0.0408   0.1685   0.1271   0.0463  -0.0117   0.0179   0.00    0.0
2025/04/01 10:16:00.000   39.135150877  141.132871358   117.1695   6  25   0.0391   0.1618   0.1219   0.0439  -0.0130   0.0169   0.00    0.0
2025/04/01 10:16:30.000   39.135150959  141.132871844   117.1609   6  25   0.0375   0.1556   0.1170   0.0419  -0.0139   0.0162   0.00    0.0
2025/04/01 10:17:00.000   39.135150945  141.132871336   117.1218   6  25   0.0361   0.1497   0.1126   0.0397  -0.0146   0.0154   0.00    0.0
2025/04/01 10:17:30.000   39.135150997  141.132871554   117.1588   6  25   0.0348   0.1443   0.1084   0.0379  -0.0149   0.0146   0.00    0.0
2025/04/01 10:18:00.000   39.135151040  141.132871711   117.1566   6  25   0.0337   0.1391   0.1044   0.0361  -0.0157   0.0139   0.00    0.0
2025/04/01 10:18:30.000   39.135151063  141.132871464   117.1279   6  25   0.0325   0.1343   0.1007   0.0345  -0.0160   0.0135   0.00    0.0
2025/04/01 10:19:00.000   39.135150949  141.132871306   117.1253   6  25   0.0314   0.1299   0.0973   0.0329  -0.0162   0.0128   0.00    0.0
2025/04/01 10:19:30.000   39.135150976  141.132871566   117.1430   6  25   0.0303   0.1255   0.0940   0.0315  -0.0163   0.0123   0.00    0.0
2025/04/01 10:20:00.000   39.135150943  141.132871797   117.1535   6  25   0.0295   0.1215   0.0910   0.0302  -0.0166   0.0119   0.00    0.0
2025/04/01 10:20:30.000   39.135150894  141.132871983   117.1385   6  25   0.0286   0.1178   0.0882   0.0287  -0.0166   0.0112   0.00    0.0
2025/04/01 10:21:00.000   39.135150831  141.132871750   117.1363   6  25   0.0278   0.1141   0.0855   0.0276  -0.0170   0.0106   0.00    0.0
2025/04/01 10:21:30.000   39.135150837  141.132871682   117.1273   6  25   0.0271   0.1108   0.0829   0.0262  -0.0166   0.0103   0.00    0.0
2025/04/01 10:22:00.000   39.135150680  141.132871186   117.1141   6  25   0.0265   0.1076   0.0806   0.0252  -0.0166   0.0099   0.00    0.0
2025/04/01 10:22:30.000   39.135150655  141.132871618   117.1530   6  25   0.0257   0.1046   0.0782   0.0240  -0.0170   0.0092   0.00    0.0
2025/04/01 10:23:00.000   39.135150766  141.132871303   117.1122   6  25   0.0250   0.1017   0.0762   0.0230  -0.0167   0.0094   0.00    0.0
2025/04/01 10:23:30.000   39.135150754  141.132871641   117.1532   6  25   0.0243   0.0989   0.0742   0.0221  -0.0167   0.0088   0.00    0.0
2025/04/01 10:24:00.000   39.135150767  141.132871924   117.1597   6  26   0.0240   0.0963   0.0722   0.0211  -0.0166   0.0077   0.00    0.0
2025/04/01 10:24:30.000   39.135150756  141.132872021   117.1362   6  26   0.0230   0.0939   0.0703   0.0205  -0.0168   0.0086   0.00    0.0
2025/04/01 10:25:00.000   39.135150636  141.132871584   117.1279   6  26   0.0230   0.0915   0.0684   0.0194  -0.0167   0.0079   0.00    0.0
2025/04/01 10:25:30.000   39.135150614  141.132871517   117.1091   6  26   0.0222   0.0893   0.0668   0.0185  -0.0162   0.0082   0.00    0.0
2025/04/01 10:26:00.000   39.135150692  141.132871471   117.0834   6  26   0.0218   0.0870   0.0653   0.0178  -0.0167   0.0076   0.00    0.0
2025/04/01 10:26:30.000   39.135150689  141.132871876   117.1002   6  27   0.0215   0.0850   0.0638   0.0173  -0.0168   0.0075   0.00    0.0
2025/04/01 10:27:00.000   39.135150802  141.132872107   117.0817   6  27   0.0213   0.0829   0.0622   0.0170  -0.0169   0.0074   0.00    0.0
2025/04/01 10:27:30.000   39.135150722  141.132871862   117.1049   6  26   0.0207   0.0813   0.0609   0.0156  -0.0172   0.0081   0.00    0.0
2025/04/01 10:28:00.000   39.135150641  141.132871571   117.0804   6  26   0.0201   0.0797   0.0597   0.0150  -0.0169   0.0080   0.00    0.0
2025/04/01 10:28:30.000   39.135150740  141.132872011   117.1005   6  26   0.0202   0.0781   0.0585   0.0141  -0.0169   0.0077   0.00    0.0
2025/04/01 10:29:00.000   39.135150670  141.132871815   117.0951   6  26   0.0197   0.0766   0.0572   0.0135  -0.0165   0.0081   0.00    0.0
2025/04/01 10:29:30.000   39.135150661  141.132871521   117.0797   6  26   0.0195   0.0751   0.0561   0.0132  -0.0165   0.0076   0.00    0.0
2025/04/01 10:30:00.000   39.135150757  141.132871547   117.0794   6  26   0.0190   0.0738   0.0550   0.0123  -0.0163   0.0079   0.00    0.0
2025/04/01 10:30:30.000   39.135150814  141.132872156   117.1037   6  26   0.0191   0.0723   0.0541   0.0121  -0.0162   0.0073   0.00    0.0
2025/04/01 10:31:00.000   39.135150584  141.132871763   117.0820   6  26   0.0184   0.0711   0.0531   0.0109  -0.0161   0.0072   0.00    0.0
2025/04/01 10:31:30.000   39.135150665  141.132871528   117.0738   6  26   0.0182   0.0697   0.0521   0.0105  -0.0158   0.0074   0.00    0.0
2025/04/01 10:32:00.000   39.135150785  141.132871573   117.0757   6  26   0.0182   0.0686   0.0512   0.0102  -0.0159   0.0072   0.00    0.0
2025/04/01 10:32:30.000   39.135150725  141.132871583   117.0637   6  26   0.0179   0.0672   0.0505   0.0104  -0.0154   0.0078   0.00    0.0
2025/04/01 10:33:00.000   39.135150700  141.132871585   117.1042   6  26   0.0175   0.0663   0.0498   0.0088  -0.0148   0.0073   0.00    0.0
2025/04/01 10:33:30.000   39.135150749  141.132871688   117.0912   6  26   0.0175   0.0652   0.0491   0.0083  -0.0146   0.0078   0.00    0.0
2025/04/01 10:34:00.000   39.135150666  141.132871521   117.0742   6  26   0.0172   0.0641   0.0487   0.0071  -0.0143   0.0085   0.00    0.0
2025/04/01 10:34:30.000   39.135150654  141.132871505   117.1050   6  26   0.0175   0.0630   0.0479   0.0068  -0.0138   0.0087   0.00    0.0
2025/04/01 10:35:00.000   39.135150670  141.132871506   117.1056   6  26   0.0174   0.0621   0.0474   0.0067  -0.0139   0.0083   0.00    0.0
2025/04/01 10:35:30.000   39.135150708  141.132871493   117.0863   6  26   0.0170   0.0609   0.0464   0.0071  -0.0136   0.0083   0.00    0.0
2025/04/01 10:36:00.000   39.135150736  141.132871401   117.0831   6  26   0.0170   0.0601   0.0461   0.0057  -0.0135   0.0073   0.00    0.0
2025/04/01 10:36:30.000   39.135150767  141.132871589   117.1087   6  26   0.0167   0.0591   0.0455   0.0048  -0.0134   0.0077   0.00    0.0
2025/04/01 10:37:00.000   39.135150759  141.132871401   117.0990   6  26   0.0165   0.0583   0.0451   0.0042  -0.0133   0.0075   0.00    0.0
2025/04/01 10:37:30.000   39.135150687  141.132871514   117.0837   6  25   0.0167   0.0573   0.0446   0.0038  -0.0127   0.0072   0.00    0.0
2025/04/01 10:38:00.000   39.135150724  141.132871332   117.1047   6  25   0.0163   0.0563   0.0437   0.0036  -0.0136   0.0076   0.00    0.0
2025/04/01 10:38:30.000   39.135150618  141.132871159   117.1253   6  25   0.0166   0.0555   0.0433   0.0016  -0.0125   0.0070   0.00    0.0
2025/04/01 10:39:00.000   39.135150667  141.132871164   117.1276   6  25   0.0162   0.0547   0.0428   0.0021  -0.0131   0.0077   0.00    0.0
2025/04/01 10:39:30.000   39.135150668  141.132871222   117.1120   6  25   0.0160   0.0538   0.0425  -0.0030  -0.0124   0.0069   0.00    0.0
2025/04/01 10:40:00.000   39.135150791  141.132871360   117.1104   6  25   0.0160   0.0532   0.0421  -0.0029  -0.0120   0.0070   0.00    0.0
2025/04/01 10:40:30.000   39.135150685  141.132871133   117.0895   6  25   0.0163   0.0523   0.0414  -0.0034  -0.0120   0.0062   0.00    0.0
2025/04/01 10:41:00.000   39.135150560  141.132871233   117.0888   6  25   0.0156   0.0515   0.0413  -0.0044  -0.0117   0.0075   0.00    0.0
2025/04/01 10:41:30.000   39.135150752  141.132871335   117.1115   6  25   0.0156   0.0509   0.0413  -0.0049  -0.0117   0.0077   0.00    0.0
2025/04/01 10:42:00.000   39.135150798  141.132871111   117.1291   6  25   0.0154   0.0501   0.0408  -0.0051  -0.0120   0.0078   0.00    0.0
2025/04/01 10:42:30.000   39.135150607  141.132871273   117.0983   6  25   0.0159   0.0493   0.0406  -0.0055  -0.0119   0.0067   0.00    0.0
2025/04/01 10:43:00.000   39.135150651  141.132871564   117.1312   6  25   0.0154   0.0488   0.0403  -0.0056  -0.0116   0.0074   0.00    0.0
2025/04/01 10:43:30.000   39.135150685  141.132871356   117.1100   6  25   0.0152   0.0481   0.0398  -0.0060  -0.0116   0.0078   0.00    0.0
2025/04/01 10:44:00.000   39.135150714  141.132871332   117.1164   6  26   0.0152   0.0474   0.0395  -0.0065  -0.0113   0.0074   0.00    0.0
2025/04/01 10:44:30.000   39.135150776  141.132871311   117.1301   6  26   0.0157   0.0469   0.0392  -0.0067  -0.0112   0.0072   0.00    0.0
2025/04/01 10:45:00.000   39.135150687  141.132871385   117.1243   6  26   0.0153   0.0463   0.0385  -0.0066  -0.0111   0.0073   0.00    0.0
2025/04/01 10:45:30.000   39.135150703  141.132871216   117.0999   6  26   0.0150   0.0455   0.0385  -0.0064  -0.0111   0.0076   0.00    0.0
2025/04/01 10:46:00.000   39.135150625  141.132871520   117.1130   6  25   0.0146   0.0449   0.0386  -0.0067  -0.0108   0.0082   0.00    0.0
2025/04/01 10:46:30.000   39.135150734  141.132871449   117.1434   6  25   0.0151   0.0444   0.0381  -0.0061  -0.0108   0.0082   0.00    0.0
2025/04/01 10:47:00.000   39.135150755  141.132871378   117.1362   6  24   0.0145   0.0438   0.0380  -0.0069  -0.0112   0.0073   0.00    0.0
2025/04/01 10:47:30.000   39.135150678  141.132871347   117.1128   6  24   0.0154   0.0432   0.0380  -0.0065  -0.0107   0.0073   0.00    0.0
2025/04/01 10:48:00.000   39.135150606  141.132871191   117.0954   6  24   0.0154   0.0428   0.0375  -0.0077  -0.0105   0.0074   0.00    0.0
2025/04/01 10:48:30.000   39.135150782  141.132871395   117.1451   6  24   0.0149   0.0420   0.0374  -0.0064  -0.0111   0.0077   0.00    0.0
2025/04/01 10:49:00.000   39.135150655  141.132871627   117.1364   6  24   0.0146   0.0417   0.0378  -0.0074  -0.0105   0.0077   0.00    0.0
2025/04/01 10:49:30.000   39.135150599  141.132871420   117.0932   6  24   0.0147   0.0410   0.0375  -0.0068  -0.0103   0.0080   0.00    0.0
2025/04/01 10:50:00.000   39.135150851  141.132871541   117.1459   6  23   0.0153   0.0409   0.0378  -0.0066  -0.0105   0.0054   0.00    0.0
2025/04/01 10:50:30.000   39.135150781  141.132871402   117.1271   6  23   0.0153   0.0403   0.0376  -0.0068  -0.0111   0.0055   0.00    0.0
2025/04/01 10:51:00.000   39.135150615  141.132871083   117.1237   6  23   0.0152   0.0398   0.0376  -0.0068  -0.0110   0.0054   0.00    0.0
2025/04/01 10:51:30.000   39.135150698  141.132871515   117.1454   6  23   0.0150   0.0393   0.0375  -0.0064  -0.0108   0.0068   0.00    0.0
2025/04/01 10:52:00.000   39.135150617  141.132871513   117.0765   6  23   0.0150   0.0389   0.0373  -0.0068  -0.0107   0.0062   0.00    0.0
2025/04/01 10:52:30.000   39.135150648  141.132871441   117.0874   6  23   0.0148   0.0384   0.0373  -0.0066  -0.0108   0.0059   0.00    0.0
2025/04/01 10:53:00.000   39.135150859  141.132871606   117.1671   6  23   0.0152   0.0380   0.0371  -0.0066  -0.0101   0.0054   0.00    0.0
2025/04/01 10:53:30.000   39.135150785  141.132871496   117.1309   6  24   0.0146   0.0375   0.0371  -0.0067  -0.0103   0.0070   0.00    0.0
2025/04/01 10:54:00.000   39.135150680  141.132871484   117.1376   6  24   0.0146   0.0370   0.0370  -0.0069  -0.0100   0.0071   0.00    0.0
2025/04/01 10:54:30.000   39.135150659  141.132871495   117.1084   6  24   0.0147   0.0368   0.0363  -0.0082  -0.0089   0.0068   0.00    0.0
2025/04/01 10:55:00.000   39.135150638  141.132871341   117.1291   6  24   0.0143   0.0364   0.0365  -0.0079  -0.0095   0.0069   0.00    0.0
2025/04/01 10:55:30.000   39.135150818  141.132871603   117.1803   6  24   0.0143   0.0357   0.0363  -0.0075  -0.0089   0.0080   0.00    0.0
2025/04/01 10:56:00.000   39.135150622  141.132871297   117.1366   6  24   0.0147   0.0356   0.0361  -0.0079  -0.0085   0.0075   0.00    0.0
2025/04/01 10:56:30.000   39.135150601  141.132871333   117.1040   6  23   0.0142   0.0355   0.0367  -0.0085  -0.0071   0.0074   0.00    0.0
2025/04/01 10:57:00.000   39.135150772  141.132871406   117.1178   6  24   0.0138   0.0347   0.0356  -0.0074  -0.0094   0.0069   0.00    0.0
2025/04/01 10:57:30.000   39.135150785  141.132871436   117.1303   6  24   0.0136   0.0344   0.0353  -0.0081  -0.0097   0.0069   0.00    0.0
2025/04/01 10:58:00.000   39.135150696  141.132871691   117.1130   6  24   0.0138   0.0339   0.0349  -0.0087  -0.0095   0.0063   0.00    0.0
2025/04/01 10:58:30.000   39.135150717  141.132871793   117.1289   6  24   0.0145   0.0338   0.0348  -0.0089  -0.0094   0.0051   0.00    0.0
2025/04/01 10:59:00.000   39.135150739  141.132871558   117.1424   6  24   0.0139   0.0332   0.0346  -0.0077  -0.0087   0.0065   0.00    0.0
2025/04/01 10:59:30.000   39.135150668  141.132871685   117.1293   6  24   0.0137   0.0330   0.0346  -0.0083  -0.0094   0.0063   0.00    0.0
