% program    : MADOCALIB ver.2.0
% inp file   : .\data\rinex\MIZU00JPN_R_20250910000_01D_30S_MO.rnx
% inp file   : .\data\rinex\BRDM00DLR_S_20250910000_01D_MN.rnx
% inp file   : .\data\l6_is-qzss-mdc-004\%Y\%n\%Y%n%HU.204.l6
% inp file   : .\data\l6_is-qzss-mdc-004\%Y\%n\%Y%n%HU.206.l6
% satantfile : 
% rcvantfile : .\data\igs20.atx
% obs start  : 2025/04/01 13:00:00.0 GPST (week2360 219600.0s)
% obs end    : 2025/04/01 13:59:30.0 GPST (week2360 223170.0s)
% pos mode   : PPP Kinematic
% freqs      : L1+2
% siggps     : L1/L2/L5
% sigqzs     : L1/L5/L2
% siggal     : E1/E5a/E5b/E6
% sigbds2    : B1I/B3I/B2I
% sigbds3    : B1I/B3I/B2a
% solution   : Forward
% elev mask  : 10.0 deg
% dynamics   : off
% tidecorr   : on
% ionos opt  : Iono-Free LC
% tropo opt  : Estimate ZTD
% ephemeris  : Broadcast+SSR APC
% navi sys   : GPS GLONASS Galileo QZSS
% amb mode   : OFF
% ar sys     : GPS Galileo QZSS BDS
% val ratio  : 1.5
% max std pos: 1.5 m
% ionocorr   : off
% antenna1   : SEPCHOKE_B3E6   NONE  ( 0.0000  0.0000  0.1206)
%
% (lat/lon/height=WGS84/ellipsoidal,Q=1:fix,2:float,3:sbas,4:dgps,5:single,6:ppp,ns=# of satellites)
%  GPST                  latitude(deg) longitude(deg)  height(m)   Q  ns   sdn(m)   sde(m)   sdu(m)  sdne(m)  sdeu(m)  sdun(m) age(s)  ratio
2025/04/01 13:00:00.000   39.135151984  141.132873568   118.0017   6  24   3.0546   2.6966   5.9408  -0.4210   0.1370  -2.1056   0.00    0.0
2025/04/01 13:00:30.000   39.135158672  141.132874783   116.2355   6  24   1.7296   1.8519   3.5321  -0.4538  -0.3323  -1.2445   0.00    0.0
2025/04/01 13:01:00.000   39.135155934  141.132866700   116.1107   6  24   1.1186   1.4429   2.3902  -0.4173  -0.3644  -0.8260   0.00    0.0
2025/04/01 13:01:30.000   39.135157422  141.132859822   115.6076   6  24   0.7878   1.1790   1.7647  -0.3673  -0.3607  -0.5907   0.00    0.0
2025/04/01 13:02:00.000   39.135159688  141.132863455   115.9257   6  23   0.5907   0.9963   1.3946  -0.3254  -0.3592  -0.4461   0.00    0.0
2025/04/01 13:02:30.000   39.135155932  141.132867075   117.2263   6  23   0.4630   0.8571   1.1599  -0.2867  -0.3623  -0.3490   0.00    0.0
2025/04/01 13:03:00.000   39.135152081  141.132871036   116.9898   6  23   0.3751   0.7481   1.0003  -0.2535  -0.3624  -0.2804   0.00    0.0
2025/04/01 13:03:30.000   39.135153032  141.132871073   116.4955   6  23   0.3119   0.6606   0.8823  -0.2254  -0.3568  -0.2297   0.00    0.0
2025/04/01 13:04:00.000   39.135151148  141.132871277   117.0078   6  23   0.2647   0.5887   0.7882  -0.2018  -0.3453  -0.1911   0.00    0.0
2025/04/01 13:04:30.000   39.135150552  141.132869812   117.1213   6  23   0.2283   0.5286   0.7091  -0.1818  -0.3295  -0.1611   0.00    0.0
2025/04/01 13:05:00.000   39.135153114  141.132867827   116.3367   6  23   0.1997   0.4776   0.6406  -0.1649  -0.3111  -0.1373   0.00    0.0
2025/04/01 13:05:30.000   39.135153888  141.132866998   116.3068   6  23   0.1766   0.4337   0.5807  -0.1503  -0.2916  -0.1183   0.00    0.0
2025/04/01 13:06:00.000   39.135151335  141.132870939   116.5180   6  23   0.1578   0.3958   0.5281  -0.1377  -0.2723  -0.1029   0.00    0.0
2025/04/01 13:06:30.000   39.135150451  141.132872709   116.6902   6  23   0.1422   0.3627   0.4819  -0.1268  -0.2537  -0.0904   0.00    0.0
2025/04/01 13:07:00.000   39.135151019  141.132872432   116.5411   6  23   0.1290   0.3337   0.4413  -0.1172  -0.2364  -0.0801   0.00    0.0
2025/04/01 13:07:30.000   39.135151223  141.132871082   116.6767   6  23   0.1178   0.3083   0.4055  -0.1088  -0.2204  -0.0713   0.00    0.0
2025/04/01 13:08:00.000   39.135151485  141.132871239   116.6602   6  23   0.1083   0.2858   0.3740  -0.1013  -0.2057  -0.0641   0.00    0.0
2025/04/01 13:08:30.000   39.135151249  141.132870991   116.8054   6  23   0.1000   0.2658   0.3461  -0.0947  -0.1923  -0.0579   0.00    0.0
2025/04/01 13:09:00.000   39.135150865  141.132871038   116.9752   6  24   0.0927   0.2480   0.3213  -0.0889  -0.1801  -0.0526   0.00    0.0
2025/04/01 13:09:30.000   39.135151074  141.132870719   116.8516   6  24   0.0864   0.2321   0.2992  -0.0835  -0.1690  -0.0480   0.00    0.0
2025/04/01 13:10:00.000   39.135150914  141.132870933   116.8221   6  24   0.0808   0.2178   0.2794  -0.0788  -0.1590  -0.0441   0.00    0.0
2025/04/01 13:10:30.000   39.135151452  141.132870093   116.8104   6  24   0.0757   0.2049   0.2617  -0.0745  -0.1498  -0.0405   0.00    0.0
2025/04/01 13:11:00.000   39.135151731  141.132870577   116.7598   6  24   0.0713   0.1933   0.2457  -0.0706  -0.1414  -0.0374   0.00    0.0
2025/04/01 13:11:30.000   39.135151062  141.132871042   116.9310   6  24   0.0674   0.1827   0.2313  -0.0671  -0.1338  -0.0349   0.00    0.0
2025/04/01 13:12:00.000   39.135150764  141.132871772   117.0203   6  24   0.0638   0.1732   0.2182  -0.0639  -0.1268  -0.0324   0.00    0.0
2025/04/01 13:12:30.000   39.135150784  141.132872307   117.0402   6  24   0.0606   0.1644   0.2063  -0.0610  -0.1203  -0.0303   0.00    0.0
2025/04/01 13:13:00.000   39.135150956  141.132871813   116.9265   6  24   0.0576   0.1564   0.1955  -0.0582  -0.1145  -0.0283   0.00    0.0
2025/04/01 13:13:30.000   39.135150938  141.132872156   116.8624   6  24   0.0550   0.1490   0.1856  -0.0558  -0.1091  -0.0264   0.00    0.0
2025/04/01 13:14:00.000   39.135150847  141.132872311   116.9797   6  24   0.0526   0.1422   0.1765  -0.0535  -0.1041  -0.0251   0.00    0.0
2025/04/01 13:14:30.000   39.135150862  141.132872379   117.0650   6  24   0.0503   0.1360   0.1681  -0.0514  -0.0995  -0.0235   0.00    0.0
2025/04/01 13:15:00.000   39.135150897  141.132872328   116.9770   6  24   0.0483   0.1302   0.1604  -0.0495  -0.0952  -0.0224   0.00    0.0
2025/04/01 13:15:30.000   39.135150929  141.132872532   117.0183   6  24   0.0464   0.1248   0.1534  -0.0476  -0.0912  -0.0213   0.00    0.0
2025/04/01 13:16:00.000   39.135150852  141.132872659   117.0648   6  24   0.0445   0.1199   0.1468  -0.0459  -0.0875  -0.0201   0.00    0.0
2025/04/01 13:16:30.000   39.135150933  141.132872371   117.1287   6  24   0.0430   0.1153   0.1408  -0.0443  -0.0840  -0.0193   0.00    0.0
2025/04/01 13:17:00.000   39.135150872  141.132872718   117.0399   6  24   0.0415   0.1110   0.1351  -0.0429  -0.0808  -0.0185   0.00    0.0
2025/04/01 13:17:30.000   39.135150917  141.132872323   116.9618   6  24   0.0402   0.1069   0.1298  -0.0415  -0.0777  -0.0176   0.00    0.0
2025/04/01 13:18:00.000   39.135150882  141.132872321   117.0460   6  24   0.0388   0.1031   0.1250  -0.0402  -0.0748  -0.0167   0.00    0.0
2025/04/01 13:18:30.000   39.135150682  141.132872656   117.1279   6  24   0.0377   0.0996   0.1204  -0.0391  -0.0722  -0.0163   0.00    0.0
2025/04/01 13:19:00.000   39.135150710  141.132872412   117.1202   6  24   0.0367   0.0963   0.1161  -0.0379  -0.0697  -0.0158   0.00    0.0
2025/04/01 13:19:30.000   39.135150818  141.132872259   117.1376   6  23   0.0355   0.0932   0.1122  -0.0369  -0.0673  -0.0149   0.00    0.0
2025/04/01 13:20:00.000   39.135150739  141.132872638   117.1281   6  23   0.0347   0.0902   0.1085  -0.0358  -0.0651  -0.0146   0.00    0.0
2025/04/01 13:20:30.000   39.135150611  141.132872653   117.1288   6  23   0.0339   0.0875   0.1050  -0.0349  -0.0629  -0.0140   0.00    0.0
2025/04/01 13:21:00.000   39.135150753  141.132872414   117.0904   6  23   0.0329   0.0849   0.1017  -0.0340  -0.0609  -0.0136   0.00    0.0
2025/04/01 13:21:30.000   39.135150860  141.132872665   117.0840   6  24   0.0323   0.0825   0.0984  -0.0331  -0.0590  -0.0138   0.00    0.0
2025/04/01 13:22:00.000   39.135150648  141.132872874   117.1907   6  24   0.0313   0.0803   0.0954  -0.0323  -0.0571  -0.0129   0.00    0.0
2025/04/01 13:22:30.000   39.135150534  141.132872872   117.1209   6  24   0.0307   0.0780   0.0926  -0.0316  -0.0553  -0.0126   0.00    0.0
2025/04/01 13:23:00.000   39.135150582  141.132872625   117.0786   6  24   0.0301   0.0759   0.0899  -0.0308  -0.0537  -0.0127   0.00    0.0
2025/04/01 13:23:30.000   39.135150711  141.132872472   117.1643   6  24   0.0294   0.0739   0.0874  -0.0302  -0.0520  -0.0124   0.00    0.0
2025/04/01 13:24:00.000   39.135150678  141.132872627   117.1095   6  23   0.0288   0.0720   0.0852  -0.0294  -0.0507  -0.0122   0.00    0.0
2025/04/01 13:24:30.000   39.135150710  141.132872640   117.0791   6  23   0.0284   0.0703   0.0831  -0.0286  -0.0491  -0.0127   0.00    0.0
2025/04/01 13:25:00.000   39.135150826  141.132872761   117.0419   6  23   0.0277   0.0686   0.0811  -0.0284  -0.0477  -0.0118   0.00    0.0
2025/04/01 13:25:30.000   39.135150785  141.132872628   117.0972   6  24   0.0273   0.0669   0.0792  -0.0276  -0.0462  -0.0122   0.00    0.0
2025/04/01 13:26:00.000   39.135150643  141.132872557   117.1455   6  24   0.0268   0.0654   0.0772  -0.0272  -0.0451  -0.0119   0.00    0.0
2025/04/01 13:26:30.000   39.135150764  141.132872624   117.0998   6  24   0.0266   0.0639   0.0752  -0.0266  -0.0439  -0.0125   0.00    0.0
2025/04/01 13:27:00.000   39.135150813  141.132872490   117.1026   6  23   0.0260   0.0624   0.0736  -0.0261  -0.0426  -0.0122   0.00    0.0
2025/04/01 13:27:30.000   39.135150726  141.132872568   117.1240   6  23   0.0257   0.0610   0.0721  -0.0256  -0.0414  -0.0121   0.00    0.0
2025/04/01 13:28:00.000   39.135150716  141.132872644   117.1213   6  23   0.0254   0.0598   0.0706  -0.0250  -0.0403  -0.0121   0.00    0.0
2025/04/01 13:28:30.000   39.135150522  141.132872469   117.1438   6  24   0.0249   0.0585   0.0692  -0.0249  -0.0394  -0.0120   0.00    0.0
2025/04/01 13:29:00.000   39.135150678  141.132872446   117.1059   6  25   0.0246   0.0571   0.0676  -0.0243  -0.0383  -0.0119   0.00    0.0
2025/04/01 13:29:30.000   39.135150931  141.132872325   117.0957   6  25   0.0244   0.0561   0.0661  -0.0238  -0.0374  -0.0117   0.00    0.0
2025/04/01 13:30:00.000   39.135150702  141.132872356   117.1453   6  25   0.0236   0.0549   0.0648  -0.0236  -0.0364  -0.0110   0.00    0.0
2025/04/01 13:30:30.000   39.135150741  141.132872319   117.1058   6  25   0.0238   0.0539   0.0634  -0.0232  -0.0356  -0.0112   0.00    0.0
2025/04/01 13:31:00.000   39.135150762  141.132872147   117.0813   6  25   0.0234   0.0527   0.0623  -0.0228  -0.0347  -0.0109   0.00    0.0
2025/04/01 13:31:30.000   39.135150721  141.132872023   117.1021   6  25   0.0231   0.0517   0.0610  -0.0223  -0.0337  -0.0109   0.00    0.0
2025/04/01 13:32:00.000   39.135150840  141.132872149   117.1399   6  25   0.0230   0.0508   0.0599  -0.0221  -0.0328  -0.0110   0.00    0.0
2025/04/01 13:32:30.000   39.135150765  141.132872449   117.1365   6  26   0.0224   0.0499   0.0591  -0.0218  -0.0320  -0.0106   0.00    0.0
2025/04/01 13:33:00.000   39.135150682  141.132872450   117.1387   6  26   0.0225   0.0488   0.0575  -0.0214  -0.0312  -0.0111   0.00    0.0
2025/04/01 13:33:30.000   39.135150739  141.132872348   117.1297   6  26   0.0221   0.0479   0.0566  -0.0209  -0.0303  -0.0109   0.00    0.0
2025/04/01 13:34:00.000   39.135150742  141.132872402   117.1186   6  26   0.0219   0.0471   0.0556  -0.0206  -0.0294  -0.0111   0.00    0.0
2025/04/01 13:34:30.000   39.135150701  141.132872544   117.1137   6  26   0.0217   0.0463   0.0548  -0.0203  -0.0289  -0.0108   0.00    0.0
2025/04/01 13:35:00.000   39.135150623  141.132872542   117.1180   6  26   0.0216   0.0454   0.0537  -0.0202  -0.0278  -0.0112   0.00    0.0
2025/04/01 13:35:30.000   39.135150678  141.132872446   117.1191   6  26   0.0213   0.0446   0.0527  -0.0196  -0.0274  -0.0107   0.00    0.0
2025/04/01 13:36:00.000   39.135150707  141.132872457   117.0945   6  25   0.0212   0.0440   0.0521  -0.0198  -0.0267  -0.0104   0.00    0.0
2025/04/01 13:36:30.000   39.135150724  141.132872469   117.1008   6  25   0.0212   0.0432   0.0513  -0.0190  -0.0258  -0.0109   0.00    0.0
2025/04/01 13:37:00.000   39.135150545  141.132872619   117.1183   6  24   0.0208   0.0424   0.0506  -0.0192  -0.0253  -0.0104   0.00    0.0
2025/04/01 13:37:30.000   39.135150591  141.132872366   117.0869   6  24   0.0206   0.0418   0.0499  -0.0189  -0.0246  -0.0104   0.00    0.0
2025/04/01 13:38:00.000   39.135150707  141.132872502   117.0867   6  24   0.0203   0.0410   0.0494  -0.0185  -0.0239  -0.0102   0.00    0.0
2025/04/01 13:38:30.000   39.135150745  141.132872647   117.0885   6  24   0.0204   0.0404   0.0488  -0.0184  -0.0232  -0.0107   0.00    0.0
2025/04/01 13:39:00.000   39.135150606  141.132872641   117.0660   6  24   0.0201   0.0398   0.0479  -0.0181  -0.0225  -0.0104   0.00    0.0
2025/04/01 13:39:30.000   39.135150452  141.132872791   117.1244   6  24   0.0202   0.0391   0.0474  -0.0182  -0.0221  -0.0110   0.00    0.0
2025/04/01 13:40:00.000   39.135150560  141.132872617   117.1090   6  24   0.0198   0.0384   0.0468  -0.0178  -0.0211  -0.0110   0.00    0.0
2025/04/01 13:40:30.000   39.135150652  141.132872587   117.0648   6  24   0.0198   0.0380   0.0462  -0.0172  -0.0206  -0.0114   0.00    0.0
2025/04/01 13:41:00.000   39.135150607  141.132872585   117.0515   6  24   0.0194   0.0374   0.0458  -0.0170  -0.0201  -0.0109   0.00    0.0
2025/04/01 13:41:30.000   39.135150600  141.132872636   117.1175   6  24   0.0194   0.0369   0.0451  -0.0172  -0.0197  -0.0113   0.00    0.0
2025/04/01 13:42:00.000   39.135150496  141.132872560   117.1619   6  24   0.0194   0.0364   0.0446  -0.0170  -0.0191  -0.0116   0.00    0.0
2025/04/01 13:42:30.000   39.135150650  141.132872532   117.1168   6  24   0.0195   0.0358   0.0443  -0.0169  -0.0183  -0.0112   0.00    0.0
2025/04/01 13:43:00.000   39.135150614  141.132872409   117.0821   6  24   0.0190   0.0354   0.0439  -0.0165  -0.0175  -0.0112   0.00    0.0
2025/04/01 13:43:30.000   39.135150635  141.132872331   117.0820   6  24   0.0191   0.0349   0.0433  -0.0164  -0.0173  -0.0112   0.00    0.0
2025/04/01 13:44:00.000   39.135150561  141.132872601   117.1653   6  24   0.0188   0.0343   0.0432  -0.0161  -0.0169  -0.0108   0.00    0.0
2025/04/01 13:44:30.000   39.135150581  141.132872386   117.0986   6  24   0.0187   0.0339   0.0428  -0.0160  -0.0164  -0.0108   0.00    0.0
2025/04/01 13:45:00.000   39.135150482  141.132872492   117.1404   6  25   0.0188   0.0336   0.0425  -0.0161  -0.0163  -0.0113   0.00    0.0
2025/04/01 13:45:30.000   39.135150592  141.132872363   117.1012   6  25   0.0186   0.0333   0.0420  -0.0157  -0.0152  -0.0118   0.00    0.0
2025/04/01 13:46:00.000   39.135150617  141.132872274   117.0733   6  25   0.0186   0.0328   0.0415  -0.0159  -0.0150  -0.0115   0.00    0.0
2025/04/01 13:46:30.000   39.135150696  141.132872344   117.0934   6  26   0.0182   0.0322   0.0410  -0.0155  -0.0138  -0.0114   0.00    0.0
2025/04/01 13:47:00.000   39.135150634  141.132872398   117.1257   6  26   0.0182   0.0320   0.0406  -0.0155  -0.0138  -0.0115   0.00    0.0
2025/04/01 13:47:30.000   39.135150566  141.132872425   117.1392   6  26   0.0183   0.0314   0.0400  -0.0150  -0.0133  -0.0111   0.00    0.0
2025/04/01 13:48:00.000   39.135150503  141.132872685   117.1730   6  26   0.0178   0.0312   0.0393  -0.0150  -0.0125  -0.0110   0.00    0.0
2025/04/01 13:48:30.000   39.135150533  141.132872556   117.1014   6  26   0.0176   0.0308   0.0394  -0.0149  -0.0122  -0.0104   0.00    0.0
2025/04/01 13:49:00.000   39.135150643  141.132872415   117.1056   6  26   0.0179   0.0304   0.0391  -0.0146  -0.0119  -0.0110   0.00    0.0
2025/04/01 13:49:30.000   39.135150382  141.132872516   117.1225   6  26   0.0175   0.0302   0.0389  -0.0145  -0.0121  -0.0106   0.00    0.0
2025/04/01 13:50:00.000   39.135150486  141.132872440   117.0928   6  26   0.0174   0.0298   0.0385  -0.0141  -0.0112  -0.0110   0.00    0.0
2025/04/01 13:50:30.000   39.135150478  141.132872395   117.1151   6  26   0.0172   0.0296   0.0384  -0.0149  -0.0110  -0.0103   0.00    0.0
2025/04/01 13:51:00.000   39.135150537  141.132872546   117.1240   6  26   0.0171   0.0291   0.0379  -0.0142  -0.0106  -0.0112   0.00    0.0
2025/04/01 13:51:30.000   39.135150583  141.132872490   117.1562   6  26   0.0174   0.0287   0.0380  -0.0144  -0.0094  -0.0113   0.00    0.0
2025/04/01 13:52:00.000   39.135150423  141.132872455   117.1294   6  26   0.0170   0.0285   0.0373  -0.0144  -0.0095  -0.0116   0.00    0.0
2025/04/01 13:52:30.000   39.135150618  141.132872410   117.1095   6  26   0.0173   0.0283   0.0375  -0.0140  -0.0094  -0.0106   0.00    0.0
2025/04/01 13:53:00.000   39.135150677  141.132872380   117.1137   6  26   0.0172   0.0280   0.0372  -0.0132  -0.0082  -0.0112   0.00    0.0
2025/04/01 13:53:30.000   39.135150528  141.132872338   117.1051   6  26   0.0170   0.0274   0.0370  -0.0137  -0.0068  -0.0111   0.00    0.0
2025/04/01 13:54:00.000   39.135150459  141.132872331   117.1084   6  26   0.0164   0.0273   0.0372  -0.0139  -0.0075  -0.0111   0.00    0.0
2025/04/01 13:54:30.000   39.135150561  141.132872418   117.1369   6  27   0.0169   0.0269   0.0365  -0.0131  -0.0069  -0.0112   0.00    0.0
2025/04/01 13:55:00.000   39.135150422  141.132872491   117.1341   6  27   0.0164   0.0269   0.0364  -0.0133  -0.0072  -0.0110   0.00    0.0
2025/04/01 13:55:30.000   39.135150580  141.132872365   117.1261   6  27   0.0171   0.0268   0.0362  -0.0125  -0.0052  -0.0110   0.00    0.0
2025/04/01 13:56:00.000   39.135150505  141.132872419   117.1599   6  27   0.0163   0.0263   0.0364  -0.0132  -0.0049  -0.0112   0.00    0.0
2025/04/01 13:56:30.000   39.135150624  141.132872199   117.1116   6  27   0.0164   0.0259   0.0357  -0.0128  -0.0041  -0.0115   0.00    0.0
2025/04/01 13:57:00.000   39.135150449  141.132872379   117.1415   6  27   0.0163   0.0257   0.0357  -0.0123   0.0009  -0.0113   0.00    0.0
2025/04/01 13:57:30.000   39.135150532  141.132872425   117.1348   6  27   0.0164   0.0254   0.0354  -0.0131  -0.0027  -0.0110   0.00    0.0
2025/04/01 13:58:00.000   39.135150573  141.132872376   117.1241   6  27   0.0162   0.0254   0.0351  -0.0125   0.0024  -0.0119   0.00    0.0
2025/04/01 13:58:30.000   39.135150622  141.132872313   117.1237   6  27   0.0160   0.0251   0.0357  -0.0125   0.0027  -0.0111   0.00    0.0
2025/04/01 13:59:00.000   39.135150539  141.132872354   117.1526   6  27   0.0158   0.0247   0.0358  -0.0132   0.0022  -0.0111   0.00    0.0
2025/04/01 13:59:30.000   39.135150597  141.132872214   117.1095   6  27   0.0164   0.0245   0.0352  -0.0123   0.0020  -0.0122   0.00    0.0
