% program    : MADOCALIB ver.2.0
% inp file   : .\data\rinex\MIZU00JPN_R_20250910000_01D_30S_MO.rnx
% inp file   : .\data\rinex\BRDM00DLR_S_20250910000_01D_MN.rnx
% inp file   : .\data\l6_is-qzss-mdc-004\%Y\%n\%Y%n%HU.204.l6
% inp file   : .\data\l6_is-qzss-mdc-004\%Y\%n\%Y%n%HU.206.l6
% satantfile : 
% rcvantfile : .\data\igs20.atx
% obs start  : 2025/04/01 08:00:00.0 GPST (week2360 201600.0s)
% obs end    : 2025/04/01 08:59:30.0 GPST (week2360 205170.0s)
% pos mode   : PPP Kinematic
% freqs      : L1+2
% siggps     : L1/L2/L5
% sigqzs     : L1/L5/L2
% siggal     : E1/E5a/E5b/E6
% sigbds2    : B1I/B3I/B2I
% sigbds3    : B1I/B3I/B2a
% solution   : Forward
% elev mask  : 10.0 deg
% dynamics   : off
% tidecorr   : on
% ionos opt  : Iono-Free LC
% tropo opt  : Estimate ZTD
% ephemeris  : Broadcast+SSR APC
% navi sys   : GPS GLONASS Galileo QZSS
% amb mode   : OFF
% ar sys     : GPS Galileo QZSS BDS
% val ratio  : 1.5
% max std pos: 1.5 m
% ionocorr   : off
% antenna1   : SEPCHOKE_B3E6   NONE  ( 0.0000  0.0000  0.1206)
%
% (lat/lon/height=WGS84/ellipsoidal,Q=1:fix,2:float,3:sbas,4:dgps,5:single,6:ppp,ns=# of satellites)
%  GPST                  latitude(deg) longitude(deg)  height(m)   Q  ns   sdn(m)   sde(m)   sdu(m)  sdne(m)  sdeu(m)  sdun(m) age(s)  ratio
2025/04/01 08:00:00.000   39.135151316  141.132873821   116.7361   6  28   2.6868   2.3232   5.7984   1.0436  -1.8434  -1.9542   0.00    0.0
2025/04/01 08:00:30.000   39.135159367  141.132874792   115.4927   6  28   1.6749   1.5838   3.0706   0.7289  -1.0283  -1.4707   0.00    0.0
2025/04/01 08:01:00.000   39.135150263  141.132867518   116.9390   6  28   1.1759   1.2299   2.0039   0.5551  -0.7080  -1.1037   0.00    0.0
2025/04/01 08:01:30.000   39.135151622  141.132873415   116.1771   6  28   0.8742   1.0032   1.4692   0.4423  -0.5476  -0.8496   0.00    0.0
2025/04/01 08:02:00.000   39.135155179  141.132878283   115.7120   6  28   0.6772   0.8402   1.1575   0.3644  -0.4557  -0.6755   0.00    0.0
2025/04/01 08:02:30.000   39.135153556  141.132876482   116.2749   6  28   0.5421   0.7164   0.9542   0.3079  -0.3965  -0.5530   0.00    0.0
2025/04/01 08:03:00.000   39.135150683  141.132878075   116.9427   6  28   0.4454   0.6193   0.8094   0.2652  -0.3535  -0.4637   0.00    0.0
2025/04/01 08:03:30.000   39.135148647  141.132877228   116.9430   6  27   0.3739   0.5416   0.6994   0.2319  -0.3191  -0.3960   0.00    0.0
2025/04/01 08:04:00.000   39.135149359  141.132876461   116.8813   6  27   0.3194   0.4782   0.6121   0.2049  -0.2898  -0.3432   0.00    0.0
2025/04/01 08:04:30.000   39.135150683  141.132876734   116.9965   6  27   0.2767   0.4257   0.5410   0.1827  -0.2642  -0.3009   0.00    0.0
2025/04/01 08:05:00.000   39.135150841  141.132876437   116.9231   6  27   0.2426   0.3817   0.4819   0.1640  -0.2415  -0.2664   0.00    0.0
2025/04/01 08:05:30.000   39.135150034  141.132875073   116.9160   6  27   0.2149   0.3445   0.4322   0.1482  -0.2215  -0.2377   0.00    0.0
2025/04/01 08:06:00.000   39.135149576  141.132875057   117.0268   6  27   0.1921   0.3128   0.3902   0.1346  -0.2037  -0.2137   0.00    0.0
2025/04/01 08:06:30.000   39.135150337  141.132875364   116.9861   6  27   0.1730   0.2855   0.3543   0.1230  -0.1879  -0.1934   0.00    0.0
2025/04/01 08:07:00.000   39.135150673  141.132873950   117.0567   6  26   0.1573   0.2635   0.3260   0.1144  -0.1773  -0.1774   0.00    0.0
2025/04/01 08:07:30.000   39.135151616  141.132875640   116.9482   6  26   0.1438   0.2441   0.3015   0.1067  -0.1675  -0.1636   0.00    0.0
2025/04/01 08:08:00.000   39.135150846  141.132874518   117.0541   6  26   0.1322   0.2269   0.2798   0.0997  -0.1583  -0.1514   0.00    0.0
2025/04/01 08:08:30.000   39.135150561  141.132873624   117.0762   6  26   0.1220   0.2116   0.2606   0.0933  -0.1497  -0.1406   0.00    0.0
2025/04/01 08:09:00.000   39.135150870  141.132873749   116.9917   6  26   0.1132   0.1980   0.2434   0.0876  -0.1418  -0.1310   0.00    0.0
2025/04/01 08:09:30.000   39.135150900  141.132874074   117.0170   6  26   0.1053   0.1857   0.2280   0.0824  -0.1343  -0.1224   0.00    0.0
2025/04/01 08:10:00.000   39.135150686  141.132874016   117.0603   6  25   0.0986   0.1755   0.2146   0.0768  -0.1284  -0.1142   0.00    0.0
2025/04/01 08:10:30.000   39.135150709  141.132874267   117.0973   6  25   0.0928   0.1661   0.2022   0.0718  -0.1225  -0.1069   0.00    0.0
2025/04/01 08:11:00.000   39.135150767  141.132873404   117.1534   6  25   0.0874   0.1574   0.1910   0.0673  -0.1169  -0.1004   0.00    0.0
2025/04/01 08:11:30.000   39.135150620  141.132873424   117.1240   6  25   0.0826   0.1495   0.1808   0.0633  -0.1118  -0.0945   0.00    0.0
2025/04/01 08:12:00.000   39.135150777  141.132873605   117.1491   6  25   0.0782   0.1422   0.1715   0.0597  -0.1069  -0.0892   0.00    0.0
2025/04/01 08:12:30.000   39.135150368  141.132873112   117.1997   6  25   0.0742   0.1356   0.1630   0.0564  -0.1024  -0.0843   0.00    0.0
2025/04/01 08:13:00.000   39.135150362  141.132873094   117.1840   6  25   0.0704   0.1295   0.1554   0.0534  -0.0981  -0.0799   0.00    0.0
2025/04/01 08:13:30.000   39.135150685  141.132873090   117.1546   6  26   0.0670   0.1238   0.1485   0.0508  -0.0940  -0.0758   0.00    0.0
2025/04/01 08:14:00.000   39.135150805  141.132873133   117.1369   6  26   0.0639   0.1184   0.1419   0.0482  -0.0902  -0.0720   0.00    0.0
2025/04/01 08:14:30.000   39.135150791  141.132873063   117.1408   6  26   0.0611   0.1135   0.1360   0.0460  -0.0866  -0.0684   0.00    0.0
2025/04/01 08:15:00.000   39.135150904  141.132872987   117.1231   6  26   0.0583   0.1090   0.1305   0.0440  -0.0833  -0.0652   0.00    0.0
2025/04/01 08:15:30.000   39.135150674  141.132872824   117.1649   6  26   0.0559   0.1046   0.1255   0.0421  -0.0802  -0.0622   0.00    0.0
2025/04/01 08:16:00.000   39.135150657  141.132872869   117.1428   6  26   0.0536   0.1007   0.1205   0.0402  -0.0774  -0.0596   0.00    0.0
2025/04/01 08:16:30.000   39.135151006  141.132872660   117.1039   6  26   0.0515   0.0970   0.1162   0.0388  -0.0746  -0.0571   0.00    0.0
2025/04/01 08:17:00.000   39.135150871  141.132872848   117.0927   6  26   0.0495   0.0936   0.1120   0.0371  -0.0721  -0.0546   0.00    0.0
2025/04/01 08:17:30.000   39.135150847  141.132872907   117.1095   6  26   0.0477   0.0903   0.1081   0.0357  -0.0698  -0.0524   0.00    0.0
2025/04/01 08:18:00.000   39.135150760  141.132872726   117.1332   6  26   0.0460   0.0872   0.1047   0.0344  -0.0675  -0.0504   0.00    0.0
2025/04/01 08:18:30.000   39.135150929  141.132872832   117.1083   6  26   0.0444   0.0843   0.1012   0.0331  -0.0653  -0.0485   0.00    0.0
2025/04/01 08:19:00.000   39.135150878  141.132872651   117.1172   6  27   0.0429   0.0816   0.0981   0.0320  -0.0634  -0.0467   0.00    0.0
2025/04/01 08:19:30.000   39.135150791  141.132872470   117.1699   6  27   0.0416   0.0790   0.0949   0.0310  -0.0615  -0.0451   0.00    0.0
2025/04/01 08:20:00.000   39.135150767  141.132872368   117.1595   6  27   0.0402   0.0767   0.0921   0.0298  -0.0597  -0.0435   0.00    0.0
2025/04/01 08:20:30.000   39.135150897  141.132872589   117.1019   6  27   0.0390   0.0743   0.0892   0.0292  -0.0580  -0.0419   0.00    0.0
2025/04/01 08:21:00.000   39.135150738  141.132872483   117.1191   6  27   0.0380   0.0722   0.0869   0.0281  -0.0564  -0.0408   0.00    0.0
2025/04/01 08:21:30.000   39.135150786  141.132872358   117.1145   6  27   0.0368   0.0704   0.0843   0.0271  -0.0550  -0.0392   0.00    0.0
2025/04/01 08:22:00.000   39.135150876  141.132872328   117.1057   6  26   0.0359   0.0681   0.0823   0.0263  -0.0535  -0.0380   0.00    0.0
2025/04/01 08:22:30.000   39.135150780  141.132872152   117.1301   6  26   0.0347   0.0665   0.0800   0.0258  -0.0522  -0.0367   0.00    0.0
2025/04/01 08:23:00.000   39.135150770  141.132872074   117.1379   6  27   0.0339   0.0644   0.0782   0.0253  -0.0507  -0.0357   0.00    0.0
2025/04/01 08:23:30.000   39.135150852  141.132872162   117.1419   6  27   0.0329   0.0629   0.0762   0.0247  -0.0495  -0.0347   0.00    0.0
2025/04/01 08:24:00.000   39.135150826  141.132872055   117.1189   6  27   0.0321   0.0613   0.0743   0.0238  -0.0483  -0.0337   0.00    0.0
2025/04/01 08:24:30.000   39.135150888  141.132872096   117.1216   6  27   0.0314   0.0599   0.0723   0.0233  -0.0471  -0.0328   0.00    0.0
2025/04/01 08:25:00.000   39.135150777  141.132871987   117.1372   6  27   0.0308   0.0584   0.0710   0.0224  -0.0461  -0.0317   0.00    0.0
2025/04/01 08:25:30.000   39.135150834  141.132871926   117.1357   6  27   0.0298   0.0571   0.0693   0.0222  -0.0451  -0.0309   0.00    0.0
2025/04/01 08:26:00.000   39.135150863  141.132872128   117.1147   6  27   0.0293   0.0559   0.0674   0.0215  -0.0441  -0.0301   0.00    0.0
2025/04/01 08:26:30.000   39.135150783  141.132871937   117.1470   6  27   0.0288   0.0544   0.0661   0.0212  -0.0432  -0.0293   0.00    0.0
2025/04/01 08:27:00.000   39.135150907  141.132872060   117.1250   6  27   0.0281   0.0532   0.0648   0.0204  -0.0422  -0.0285   0.00    0.0
2025/04/01 08:27:30.000   39.135150875  141.132871964   117.1440   6  27   0.0272   0.0522   0.0636   0.0203  -0.0412  -0.0278   0.00    0.0
2025/04/01 08:28:00.000   39.135150787  141.132871928   117.1386   6  27   0.0268   0.0510   0.0623   0.0199  -0.0404  -0.0272   0.00    0.0
2025/04/01 08:28:30.000   39.135150855  141.132871926   117.1290   6  26   0.0269   0.0500   0.0611   0.0194  -0.0398  -0.0266   0.00    0.0
2025/04/01 08:29:00.000   39.135150807  141.132871733   117.1284   6  26   0.0259   0.0491   0.0602   0.0190  -0.0390  -0.0261   0.00    0.0
2025/04/01 08:29:30.000   39.135150890  141.132871790   117.1339   6  26   0.0255   0.0479   0.0593   0.0187  -0.0382  -0.0256   0.00    0.0
2025/04/01 08:30:00.000   39.135150902  141.132871877   117.0975   6  26   0.0252   0.0471   0.0584   0.0183  -0.0375  -0.0249   0.00    0.0
2025/04/01 08:30:30.000   39.135150921  141.132871921   117.0987   6  26   0.0246   0.0463   0.0574   0.0178  -0.0367  -0.0244   0.00    0.0
2025/04/01 08:31:00.000   39.135150975  141.132871877   117.1405   6  26   0.0242   0.0455   0.0569   0.0175  -0.0360  -0.0239   0.00    0.0
2025/04/01 08:31:30.000   39.135150882  141.132871805   117.1309   6  26   0.0239   0.0446   0.0562   0.0175  -0.0354  -0.0234   0.00    0.0
2025/04/01 08:32:00.000   39.135150844  141.132871716   117.0994   6  26   0.0236   0.0436   0.0553   0.0171  -0.0351  -0.0231   0.00    0.0
2025/04/01 08:32:30.000   39.135150912  141.132871760   117.1156   6  26   0.0231   0.0430   0.0547   0.0166  -0.0344  -0.0227   0.00    0.0
2025/04/01 08:33:00.000   39.135150790  141.132871797   117.1322   6  26   0.0226   0.0422   0.0540   0.0165  -0.0337  -0.0221   0.00    0.0
2025/04/01 08:33:30.000   39.135150882  141.132871775   117.1201   6  26   0.0226   0.0415   0.0532   0.0160  -0.0331  -0.0220   0.00    0.0
2025/04/01 08:34:00.000   39.135150951  141.132871862   117.0950   6  26   0.0225   0.0407   0.0526   0.0158  -0.0327  -0.0217   0.00    0.0
2025/04/01 08:34:30.000   39.135150538  141.132871767   117.1198   6  26   0.0219   0.0402   0.0522   0.0152  -0.0322  -0.0209   0.00    0.0
2025/04/01 08:35:00.000   39.135150692  141.132871731   117.1344   6  26   0.0215   0.0396   0.0513   0.0154  -0.0315  -0.0203   0.00    0.0
2025/04/01 08:35:30.000   39.135150978  141.132871807   117.1400   6  26   0.0217   0.0392   0.0511   0.0151  -0.0310  -0.0199   0.00    0.0
2025/04/01 08:36:00.000   39.135150771  141.132871819   117.1240   6  26   0.0217   0.0385   0.0502   0.0148  -0.0305  -0.0198   0.00    0.0
2025/04/01 08:36:30.000   39.135150670  141.132871775   117.1192   6  27   0.0213   0.0377   0.0500   0.0149  -0.0299  -0.0197   0.00    0.0
2025/04/01 08:37:00.000   39.135150701  141.132871864   117.1187   6  27   0.0210   0.0376   0.0495   0.0145  -0.0294  -0.0191   0.00    0.0
2025/04/01 08:37:30.000   39.135150886  141.132871753   117.1246   6  27   0.0208   0.0368   0.0485   0.0141  -0.0290  -0.0187   0.00    0.0
2025/04/01 08:38:00.000   39.135150739  141.132871825   117.1460   6  26   0.0204   0.0364   0.0483   0.0144  -0.0287  -0.0184   0.00    0.0
2025/04/01 08:38:30.000   39.135150644  141.132871758   117.1584   6  26   0.0204   0.0357   0.0479   0.0139  -0.0283  -0.0185   0.00    0.0
2025/04/01 08:39:00.000   39.135150625  141.132871767   117.1514   6  26   0.0196   0.0353   0.0474   0.0139  -0.0279  -0.0176   0.00    0.0
2025/04/01 08:39:30.000   39.135150581  141.132871701   117.1414   6  26   0.0201   0.0349   0.0467   0.0134  -0.0275  -0.0177   0.00    0.0
2025/04/01 08:40:00.000   39.135150516  141.132871674   117.1741   6  26   0.0198   0.0345   0.0464   0.0136  -0.0269  -0.0175   0.00    0.0
2025/04/01 08:40:30.000   39.135150838  141.132871724   117.1563   6  26   0.0196   0.0340   0.0459   0.0134  -0.0268  -0.0175   0.00    0.0
2025/04/01 08:41:00.000   39.135150931  141.132871797   117.1059   6  25   0.0194   0.0338   0.0457   0.0127  -0.0265  -0.0170   0.00    0.0
2025/04/01 08:41:30.000   39.135150838  141.132871862   117.0780   6  25   0.0191   0.0333   0.0453   0.0131  -0.0256  -0.0167   0.00    0.0
2025/04/01 08:42:00.000   39.135150556  141.132871679   117.1673   6  25   0.0188   0.0328   0.0451   0.0127  -0.0257  -0.0163   0.00    0.0
2025/04/01 08:42:30.000   39.135150619  141.132871711   117.1481   6  25   0.0188   0.0324   0.0448   0.0127  -0.0251  -0.0158   0.00    0.0
2025/04/01 08:43:00.000   39.135150814  141.132871808   117.1491   6  25   0.0189   0.0319   0.0441   0.0127  -0.0250  -0.0164   0.00    0.0
2025/04/01 08:43:30.000   39.135150674  141.132871803   117.1624   6  25   0.0183   0.0316   0.0437   0.0127  -0.0246  -0.0157   0.00    0.0
2025/04/01 08:44:00.000   39.135150572  141.132871815   117.1343   6  25   0.0185   0.0314   0.0434   0.0124  -0.0241  -0.0154   0.00    0.0
2025/04/01 08:44:30.000   39.135150801  141.132871902   117.1011   6  25   0.0186   0.0308   0.0431   0.0122  -0.0237  -0.0154   0.00    0.0
2025/04/01 08:45:00.000   39.135150688  141.132871926   117.1307   6  25   0.0180   0.0306   0.0428   0.0121  -0.0234  -0.0150   0.00    0.0
2025/04/01 08:45:30.000   39.135150598  141.132871724   117.1485   6  25   0.0180   0.0304   0.0423   0.0123  -0.0230  -0.0146   0.00    0.0
2025/04/01 08:46:00.000   39.135150707  141.132871850   117.1412   6  25   0.0179   0.0301   0.0422   0.0118  -0.0228  -0.0147   0.00    0.0
2025/04/01 08:46:30.000   39.135150789  141.132871901   117.1388   6  25   0.0178   0.0297   0.0417   0.0118  -0.0226  -0.0144   0.00    0.0
2025/04/01 08:47:00.000   39.135150515  141.132871800   117.1460   6  25   0.0176   0.0293   0.0417   0.0118  -0.0224  -0.0142   0.00    0.0
2025/04/01 08:47:30.000   39.135150749  141.132871780   117.1494   6  25   0.0177   0.0292   0.0413   0.0116  -0.0221  -0.0141   0.00    0.0
2025/04/01 08:48:00.000   39.135150573  141.132871802   117.1333   6  25   0.0173   0.0293   0.0409   0.0111  -0.0220  -0.0138   0.00    0.0
2025/04/01 08:48:30.000   39.135150543  141.132871838   117.1475   6  25   0.0174   0.0287   0.0409   0.0114  -0.0215  -0.0135   0.00    0.0
2025/04/01 08:49:00.000   39.135150591  141.132871732   117.1740   6  26   0.0177   0.0283   0.0403   0.0110  -0.0214  -0.0138   0.00    0.0
2025/04/01 08:49:30.000   39.135150717  141.132871854   117.1325   6  26   0.0168   0.0280   0.0403   0.0112  -0.0211  -0.0129   0.00    0.0
2025/04/01 08:50:00.000   39.135150674  141.132871869   117.1520   6  26   0.0167   0.0280   0.0398   0.0107  -0.0206  -0.0128   0.00    0.0
2025/04/01 08:50:30.000   39.135150605  141.132871822   117.1504   6  26   0.0170   0.0275   0.0397   0.0114  -0.0204  -0.0130   0.00    0.0
2025/04/01 08:51:00.000   39.135150695  141.132871791   117.1442   6  26   0.0169   0.0273   0.0399   0.0114  -0.0201  -0.0130   0.00    0.0
2025/04/01 08:51:30.000   39.135150696  141.132871816   117.1335   6  26   0.0168   0.0274   0.0393   0.0108  -0.0197  -0.0127   0.00    0.0
2025/04/01 08:52:00.000   39.135150629  141.132871799   117.1501   6  26   0.0168   0.0269   0.0390   0.0109  -0.0196  -0.0127   0.00    0.0
2025/04/01 08:52:30.000   39.135150573  141.132871830   117.1561   6  26   0.0170   0.0268   0.0388   0.0102  -0.0194  -0.0129   0.00    0.0
2025/04/01 08:53:00.000   39.135150640  141.132871811   117.1341   6  26   0.0165   0.0266   0.0383   0.0103  -0.0192  -0.0125   0.00    0.0
2025/04/01 08:53:30.000   39.135150680  141.132871895   117.1237   6  26   0.0166   0.0264   0.0384   0.0104  -0.0188  -0.0126   0.00    0.0
2025/04/01 08:54:00.000   39.135150617  141.132871862   117.1262   6  26   0.0157   0.0263   0.0381   0.0104  -0.0189  -0.0125   0.00    0.0
2025/04/01 08:54:30.000   39.135150685  141.132871851   117.1385   6  26   0.0159   0.0262   0.0377   0.0104  -0.0187  -0.0128   0.00    0.0
2025/04/01 08:55:00.000   39.135150604  141.132871813   117.1629   6  26   0.0159   0.0257   0.0373   0.0103  -0.0180  -0.0128   0.00    0.0
2025/04/01 08:55:30.000   39.135150642  141.132871776   117.1578   6  26   0.0156   0.0256   0.0372   0.0103  -0.0183  -0.0124   0.00    0.0
2025/04/01 08:56:00.000   39.135150598  141.132871761   117.1535   6  26   0.0157   0.0254   0.0367   0.0101  -0.0182  -0.0125   0.00    0.0
2025/04/01 08:56:30.000   39.135150646  141.132871827   117.1280   6  26   0.0160   0.0252   0.0364   0.0100  -0.0178  -0.0126   0.00    0.0
2025/04/01 08:57:00.000   39.135150775  141.132871818   117.1502   6  26   0.0155   0.0250   0.0364   0.0100  -0.0176  -0.0125   0.00    0.0
2025/04/01 08:57:30.000   39.135150672  141.132871893   117.1381   6  26   0.0157   0.0248   0.0359   0.0096  -0.0175  -0.0127   0.00    0.0
2025/04/01 08:58:00.000   39.135150597  141.132871732   117.1466   6  26   0.0155   0.0250   0.0359   0.0092  -0.0173  -0.0125   0.00    0.0
2025/04/01 08:58:30.000   39.135150559  141.132871834   117.1452   6  26   0.0149   0.0248   0.0358   0.0097  -0.0172  -0.0119   0.00    0.0
2025/04/01 08:59:00.000   39.135150748  141.132871865   117.1228   6  26   0.0152   0.0247   0.0358   0.0094  -0.0166  -0.0117   0.00    0.0
2025/04/01 08:59:30.000   39.135150609  141.132871768   117.1646   6  27   0.0150   0.0241   0.0356   0.0096  -0.0165  -0.0119   0.00    0.0
