% program    : MADOCALIB ver.2.0
% inp file   : .\data\rinex\MIZU00JPN_R_20250910000_01D_30S_MO.rnx
% inp file   : .\data\rinex\BRDM00DLR_S_20250910000_01D_MN.rnx
% inp file   : .\data\l6_is-qzss-mdc-004\%Y\%n\%Y%n%HU.204.l6
% inp file   : .\data\l6_is-qzss-mdc-004\%Y\%n\%Y%n%HU.206.l6
% satantfile : 
% rcvantfile : .\data\igs20.atx
% obs start  : 2025/04/01 14:00:00.0 GPST (week2360 223200.0s)
% obs end    : 2025/04/01 14:59:30.0 GPST (week2360 226770.0s)
% pos mode   : PPP Kinematic
% freqs      : L1+2
% siggps     : L1/L2/L5
% sigqzs     : L1/L5/L2
% siggal     : E1/E5a/E5b/E6
% sigbds2    : B1I/B3I/B2I
% sigbds3    : B1I/B3I/B2a
% solution   : Forward
% elev mask  : 10.0 deg
% dynamics   : off
% tidecorr   : on
% ionos opt  : Iono-Free LC
% tropo opt  : Estimate ZTD
% ephemeris  : Broadcast+SSR APC
% navi sys   : GPS GLONASS Galileo QZSS
% amb mode   : OFF
% ar sys     : GPS Galileo QZSS BDS
% val ratio  : 1.5
% max std pos: 1.5 m
% ionocorr   : off
% antenna1   : SEPCHOKE_B3E6   NONE  ( 0.0000  0.0000  0.1206)
%
% (lat/lon/height=WGS84/ellipsoidal,Q=1:fix,2:float,3:sbas,4:dgps,5:single,6:ppp,ns=# of satellites)
%  GPST                  latitude(deg) longitude(deg)  height(m)   Q  ns   sdn(m)   sde(m)   sdu(m)  sdne(m)  sdeu(m)  sdun(m) age(s)  ratio
2025/04/01 14:00:00.000   39.135151505  141.132869687   116.7161   6  27   2.8717   2.2983   5.8276   0.0792   1.5120  -2.1431   0.00    0.0
2025/04/01 14:00:30.000   39.135151234  141.132865829   116.2100   6  27   1.7848   1.5665   3.2174  -0.4351   0.8375  -1.5584   0.00    0.0
2025/04/01 14:01:00.000   39.135143664  141.132866342   117.1647   6  27   1.2533   1.2191   2.1435  -0.4512   0.6135  -1.1738   0.00    0.0
2025/04/01 14:01:30.000   39.135153304  141.132870176   116.9273   6  27   0.9375   0.9990   1.5996  -0.4247   0.5232  -0.9189   0.00    0.0
2025/04/01 14:02:00.000   39.135152305  141.132871283   116.7630   6  27   0.7345   0.8422   1.2838  -0.3900   0.4764  -0.7490   0.00    0.0
2025/04/01 14:02:30.000   39.135150268  141.132872676   116.6331   6  27   0.5967   0.7237   1.0780  -0.3558   0.4436  -0.6312   0.00    0.0
2025/04/01 14:03:00.000   39.135146219  141.132871353   117.2207   6  27   0.4984   0.6308   0.9301  -0.3243   0.4146  -0.5447   0.00    0.0
2025/04/01 14:03:30.000   39.135149774  141.132871926   117.0550   6  27   0.4252   0.5557   0.8159  -0.2956   0.3862  -0.4778   0.00    0.0
2025/04/01 14:04:00.000   39.135150902  141.132873807   117.0352   6  27   0.3688   0.4937   0.7233  -0.2696   0.3582  -0.4238   0.00    0.0
2025/04/01 14:04:30.000   39.135149361  141.132874279   117.2805   6  27   0.3240   0.4416   0.6461  -0.2460   0.3310  -0.3789   0.00    0.0
2025/04/01 14:05:00.000   39.135149762  141.132874985   117.2278   6  27   0.2877   0.3974   0.5811  -0.2248   0.3051  -0.3412   0.00    0.0
2025/04/01 14:05:30.000   39.135150584  141.132873797   116.9532   6  27   0.2576   0.3594   0.5252  -0.2058   0.2808  -0.3088   0.00    0.0
2025/04/01 14:06:00.000   39.135151032  141.132872568   116.7522   6  27   0.2323   0.3264   0.4768  -0.1887   0.2585  -0.2808   0.00    0.0
2025/04/01 14:06:30.000   39.135151362  141.132872281   116.7719   6  27   0.2108   0.2977   0.4348  -0.1734   0.2380  -0.2564   0.00    0.0
2025/04/01 14:07:00.000   39.135150375  141.132873512   117.0051   6  27   0.1923   0.2727   0.3981  -0.1597   0.2195  -0.2351   0.00    0.0
2025/04/01 14:07:30.000   39.135150833  141.132873477   116.9717   6  27   0.1764   0.2506   0.3660  -0.1474   0.2026  -0.2163   0.00    0.0
2025/04/01 14:08:00.000   39.135151246  141.132873389   116.8760   6  27   0.1625   0.2311   0.3376  -0.1364   0.1873  -0.1998   0.00    0.0
2025/04/01 14:08:30.000   39.135150995  141.132872474   116.9020   6  27   0.1502   0.2138   0.3125  -0.1265   0.1735  -0.1850   0.00    0.0
2025/04/01 14:09:00.000   39.135150673  141.132872072   116.9789   6  27   0.1394   0.1983   0.2902  -0.1176   0.1612  -0.1720   0.00    0.0
2025/04/01 14:09:30.000   39.135150848  141.132871986   117.0128   6  27   0.1299   0.1845   0.2703  -0.1095   0.1499  -0.1603   0.00    0.0
2025/04/01 14:10:00.000   39.135150769  141.132871825   117.0668   6  27   0.1213   0.1721   0.2525  -0.1022   0.1397  -0.1497   0.00    0.0
2025/04/01 14:10:30.000   39.135150406  141.132871864   117.0539   6  27   0.1137   0.1610   0.2364  -0.0956   0.1303  -0.1403   0.00    0.0
2025/04/01 14:11:00.000   39.135150662  141.132871475   116.9784   6  27   0.1068   0.1509   0.2219  -0.0897   0.1218  -0.1317   0.00    0.0
2025/04/01 14:11:30.000   39.135150234  141.132871735   117.0986   6  27   0.1005   0.1418   0.2089  -0.0842   0.1141  -0.1239   0.00    0.0
2025/04/01 14:12:00.000   39.135150380  141.132872034   117.1112   6  28   0.0950   0.1335   0.1969  -0.0792   0.1070  -0.1169   0.00    0.0
2025/04/01 14:12:30.000   39.135150657  141.132872664   117.0962   6  28   0.0899   0.1259   0.1860  -0.0746   0.1006  -0.1104   0.00    0.0
2025/04/01 14:13:00.000   39.135150255  141.132872247   117.0858   6  28   0.0851   0.1189   0.1760  -0.0704   0.0946  -0.1045   0.00    0.0
2025/04/01 14:13:30.000   39.135150308  141.132871874   117.1100   6  28   0.0808   0.1126   0.1669  -0.0665   0.0890  -0.0990   0.00    0.0
2025/04/01 14:14:00.000   39.135150487  141.132872030   117.1026   6  27   0.0769   0.1070   0.1594  -0.0631   0.0846  -0.0943   0.00    0.0
2025/04/01 14:14:30.000   39.135150509  141.132872124   117.1081   6  27   0.0734   0.1018   0.1531  -0.0600   0.0807  -0.0901   0.00    0.0
2025/04/01 14:15:00.000   39.135150320  141.132872168   117.1315   6  27   0.0701   0.0971   0.1471  -0.0571   0.0771  -0.0861   0.00    0.0
2025/04/01 14:15:30.000   39.135150188  141.132872102   117.1379   6  27   0.0671   0.0926   0.1416  -0.0545   0.0736  -0.0824   0.00    0.0
2025/04/01 14:16:00.000   39.135150333  141.132872184   117.1288   6  27   0.0644   0.0884   0.1365  -0.0520   0.0704  -0.0792   0.00    0.0
2025/04/01 14:16:30.000   39.135150124  141.132872300   117.1497   6  27   0.0617   0.0846   0.1317  -0.0497   0.0674  -0.0760   0.00    0.0
2025/04/01 14:17:00.000   39.135150383  141.132872195   117.1217   6  27   0.0594   0.0810   0.1273  -0.0473   0.0645  -0.0731   0.00    0.0
2025/04/01 14:17:30.000   39.135150453  141.132872353   117.1516   6  27   0.0570   0.0777   0.1230  -0.0454   0.0618  -0.0704   0.00    0.0
2025/04/01 14:18:00.000   39.135150399  141.132872203   117.1365   6  27   0.0550   0.0744   0.1191  -0.0434   0.0592  -0.0679   0.00    0.0
2025/04/01 14:18:30.000   39.135150581  141.132872054   117.1057   6  27   0.0530   0.0716   0.1154  -0.0418   0.0568  -0.0654   0.00    0.0
2025/04/01 14:19:00.000   39.135150661  141.132872066   117.1146   6  27   0.0513   0.0687   0.1118  -0.0400   0.0545  -0.0632   0.00    0.0
2025/04/01 14:19:30.000   39.135150629  141.132871968   117.1018   6  27   0.0494   0.0662   0.1086  -0.0384   0.0523  -0.0610   0.00    0.0
2025/04/01 14:20:00.000   39.135150560  141.132872195   117.1671   6  27   0.0478   0.0637   0.1055  -0.0369   0.0502  -0.0589   0.00    0.0
2025/04/01 14:20:30.000   39.135150403  141.132872418   117.2102   6  27   0.0463   0.0616   0.1025  -0.0355   0.0483  -0.0570   0.00    0.0
2025/04/01 14:21:00.000   39.135150620  141.132872188   117.1122   6  27   0.0449   0.0593   0.0997  -0.0342   0.0463  -0.0551   0.00    0.0
2025/04/01 14:21:30.000   39.135150626  141.132872027   117.0904   6  27   0.0435   0.0571   0.0971  -0.0326   0.0446  -0.0535   0.00    0.0
2025/04/01 14:22:00.000   39.135150577  141.132872002   117.1210   6  27   0.0424   0.0553   0.0945  -0.0313   0.0430  -0.0519   0.00    0.0
2025/04/01 14:22:30.000   39.135150626  141.132871959   117.0836   6  27   0.0412   0.0535   0.0922  -0.0303   0.0411  -0.0502   0.00    0.0
2025/04/01 14:23:00.000   39.135150663  141.132871990   117.1192   6  27   0.0399   0.0518   0.0898  -0.0294   0.0397  -0.0488   0.00    0.0
2025/04/01 14:23:30.000   39.135150625  141.132872032   117.1192   6  27   0.0389   0.0500   0.0877  -0.0282   0.0381  -0.0475   0.00    0.0
2025/04/01 14:24:00.000   39.135150473  141.132871913   117.0977   6  27   0.0378   0.0486   0.0855  -0.0273   0.0368  -0.0461   0.00    0.0
2025/04/01 14:24:30.000   39.135150736  141.132871853   117.1164   6  27   0.0366   0.0471   0.0835  -0.0264   0.0355  -0.0448   0.00    0.0
2025/04/01 14:25:00.000   39.135150583  141.132872100   117.1428   6  27   0.0359   0.0457   0.0816  -0.0254   0.0343  -0.0435   0.00    0.0
2025/04/01 14:25:30.000   39.135150669  141.132871896   117.1035   6  27   0.0350   0.0443   0.0798  -0.0245   0.0329  -0.0424   0.00    0.0
2025/04/01 14:26:00.000   39.135150739  141.132871692   117.0730   6  27   0.0343   0.0432   0.0782  -0.0239   0.0315  -0.0413   0.00    0.0
2025/04/01 14:26:30.000   39.135150787  141.132871819   117.0933   6  27   0.0335   0.0421   0.0764  -0.0229   0.0306  -0.0403   0.00    0.0
2025/04/01 14:27:00.000   39.135150581  141.132871989   117.1107   6  27   0.0326   0.0409   0.0749  -0.0221   0.0295  -0.0392   0.00    0.0
2025/04/01 14:27:30.000   39.135150625  141.132871939   117.1115   6  27   0.0319   0.0397   0.0734  -0.0215   0.0283  -0.0382   0.00    0.0
2025/04/01 14:28:00.000   39.135150604  141.132871822   117.1191   6  27   0.0313   0.0389   0.0718  -0.0206   0.0275  -0.0374   0.00    0.0
2025/04/01 14:28:30.000   39.135150601  141.132871889   117.1073   6  27   0.0304   0.0377   0.0705  -0.0200   0.0265  -0.0364   0.00    0.0
2025/04/01 14:29:00.000   39.135150711  141.132871848   117.1035   6  27   0.0301   0.0369   0.0691  -0.0196   0.0252  -0.0354   0.00    0.0
2025/04/01 14:29:30.000   39.135150614  141.132871898   117.1219   6  27   0.0294   0.0359   0.0679  -0.0192   0.0248  -0.0346   0.00    0.0
2025/04/01 14:30:00.000   39.135150622  141.132871866   117.1276   6  27   0.0289   0.0350   0.0667  -0.0186   0.0237  -0.0342   0.00    0.0
2025/04/01 14:30:30.000   39.135150551  141.132872033   117.1425   6  27   0.0283   0.0343   0.0655  -0.0179   0.0230  -0.0332   0.00    0.0
2025/04/01 14:31:00.000   39.135150617  141.132872023   117.1423   6  27   0.0276   0.0335   0.0643  -0.0173   0.0217  -0.0321   0.00    0.0
2025/04/01 14:31:30.000   39.135150603  141.132871946   117.1217   6  27   0.0273   0.0327   0.0631  -0.0170   0.0214  -0.0318   0.00    0.0
2025/04/01 14:32:00.000   39.135150380  141.132872062   117.1504   6  27   0.0269   0.0321   0.0622  -0.0165   0.0206  -0.0310   0.00    0.0
2025/04/01 14:32:30.000   39.135150574  141.132871926   117.1142   6  27   0.0263   0.0312   0.0611  -0.0160   0.0197  -0.0304   0.00    0.0
2025/04/01 14:33:00.000   39.135150724  141.132871801   117.1081   6  27   0.0257   0.0308   0.0602  -0.0156   0.0189  -0.0297   0.00    0.0
2025/04/01 14:33:30.000   39.135150567  141.132871907   117.1463   6  27   0.0251   0.0302   0.0592  -0.0156   0.0182  -0.0289   0.00    0.0
2025/04/01 14:34:00.000   39.135150536  141.132872020   117.1303   6  27   0.0253   0.0295   0.0582  -0.0145   0.0180  -0.0285   0.00    0.0
2025/04/01 14:34:30.000   39.135150601  141.132871886   117.1188   6  27   0.0245   0.0291   0.0575  -0.0141   0.0172  -0.0276   0.00    0.0
2025/04/01 14:35:00.000   39.135150545  141.132872041   117.1361   6  26   0.0244   0.0285   0.0565  -0.0139   0.0165  -0.0274   0.00    0.0
2025/04/01 14:35:30.000   39.135150500  141.132871956   117.1344   6  26   0.0241   0.0279   0.0558  -0.0134   0.0160  -0.0269   0.00    0.0
2025/04/01 14:36:00.000   39.135150637  141.132871934   117.1266   6  25   0.0236   0.0273   0.0550  -0.0133   0.0154  -0.0261   0.00    0.0
2025/04/01 14:36:30.000   39.135150776  141.132871890   117.1083   6  25   0.0233   0.0272   0.0544  -0.0132   0.0146  -0.0256   0.00    0.0
2025/04/01 14:37:00.000   39.135150579  141.132872075   117.1244   6  25   0.0229   0.0265   0.0536  -0.0123   0.0148  -0.0253   0.00    0.0
2025/04/01 14:37:30.000   39.135150535  141.132872070   117.1968   6  25   0.0228   0.0262   0.0528  -0.0120   0.0141  -0.0248   0.00    0.0
2025/04/01 14:38:00.000   39.135150637  141.132871883   117.1131   6  25   0.0228   0.0258   0.0523  -0.0117   0.0138  -0.0244   0.00    0.0
2025/04/01 14:38:30.000   39.135150411  141.132872155   117.1009   6  25   0.0223   0.0253   0.0519  -0.0114   0.0131  -0.0237   0.00    0.0
2025/04/01 14:39:00.000   39.135150485  141.132872162   117.1186   6  25   0.0220   0.0248   0.0511  -0.0114   0.0128  -0.0237   0.00    0.0
2025/04/01 14:39:30.000   39.135150663  141.132871935   117.1048   6  25   0.0218   0.0246   0.0505  -0.0108   0.0130  -0.0233   0.00    0.0
2025/04/01 14:40:00.000   39.135150537  141.132872111   117.1163   6  25   0.0216   0.0244   0.0502  -0.0112   0.0122  -0.0230   0.00    0.0
2025/04/01 14:40:30.000   39.135150622  141.132872129   117.1121   6  25   0.0211   0.0240   0.0496  -0.0109   0.0112  -0.0222   0.00    0.0
2025/04/01 14:41:00.000   39.135150331  141.132872156   117.0911   6  25   0.0211   0.0235   0.0488  -0.0101   0.0107  -0.0219   0.00    0.0
2025/04/01 14:41:30.000   39.135150576  141.132872049   117.1271   6  25   0.0205   0.0232   0.0485  -0.0105   0.0111  -0.0214   0.00    0.0
2025/04/01 14:42:00.000   39.135150503  141.132872214   117.1339   6  25   0.0206   0.0230   0.0477  -0.0103   0.0106  -0.0216   0.00    0.0
2025/04/01 14:42:30.000   39.135150650  141.132872087   117.0915   6  24   0.0205   0.0227   0.0475  -0.0100   0.0101  -0.0207   0.00    0.0
2025/04/01 14:43:00.000   39.135150623  141.132872076   117.1321   6  24   0.0202   0.0225   0.0471  -0.0095   0.0104  -0.0204   0.00    0.0
2025/04/01 14:43:30.000   39.135150521  141.132872090   117.0898   6  24   0.0210   0.0223   0.0465  -0.0105   0.0096  -0.0203   0.00    0.0
2025/04/01 14:44:00.000   39.135150421  141.132872108   117.1089   6  25   0.0201   0.0216   0.0463  -0.0095   0.0100  -0.0201   0.00    0.0
2025/04/01 14:44:30.000   39.135150792  141.132871948   117.0961   6  25   0.0195   0.0216   0.0458  -0.0092   0.0084  -0.0196   0.00    0.0
2025/04/01 14:45:00.000   39.135150603  141.132872156   117.1116   6  25   0.0197   0.0212   0.0457  -0.0086   0.0095  -0.0197   0.00    0.0
2025/04/01 14:45:30.000   39.135150484  141.132872150   117.1421   6  25   0.0195   0.0209   0.0455  -0.0089   0.0084  -0.0191   0.00    0.0
2025/04/01 14:46:00.000   39.135150460  141.132872147   117.1341   6  25   0.0195   0.0206   0.0446  -0.0085   0.0092  -0.0190   0.00    0.0
2025/04/01 14:46:30.000   39.135150609  141.132872258   117.1400   6  25   0.0192   0.0205   0.0446  -0.0079   0.0087  -0.0184   0.00    0.0
2025/04/01 14:47:00.000   39.135150736  141.132872108   117.1209   6  26   0.0191   0.0202   0.0442  -0.0078   0.0086  -0.0183   0.00    0.0
2025/04/01 14:47:30.000   39.135150579  141.132872096   117.0963   6  25   0.0190   0.0199   0.0437  -0.0082   0.0080  -0.0179   0.00    0.0
2025/04/01 14:48:00.000   39.135150666  141.132872079   117.1124   6  25   0.0189   0.0197   0.0433  -0.0074   0.0080  -0.0182   0.00    0.0
2025/04/01 14:48:30.000   39.135150614  141.132872080   117.1078   6  25   0.0188   0.0193   0.0433  -0.0082   0.0076  -0.0179   0.00    0.0
2025/04/01 14:49:00.000   39.135150550  141.132872114   117.1073   6  24   0.0192   0.0199   0.0433  -0.0087   0.0074  -0.0172   0.00    0.0
2025/04/01 14:49:30.000   39.135150632  141.132872102   117.1330   6  25   0.0186   0.0192   0.0427  -0.0074   0.0085  -0.0177   0.00    0.0
2025/04/01 14:50:00.000   39.135150851  141.132871961   117.1184   6  25   0.0185   0.0189   0.0425  -0.0078   0.0080  -0.0175   0.00    0.0
2025/04/01 14:50:30.000   39.135150558  141.132872104   117.1166   6  25   0.0182   0.0186   0.0421  -0.0074   0.0078  -0.0171   0.00    0.0
2025/04/01 14:51:00.000   39.135150503  141.132872313   117.1506   6  25   0.0181   0.0186   0.0419  -0.0064   0.0077  -0.0172   0.00    0.0
2025/04/01 14:51:30.000   39.135150556  141.132872113   117.1107   6  25   0.0183   0.0186   0.0418  -0.0065   0.0073  -0.0172   0.00    0.0
2025/04/01 14:52:00.000   39.135150583  141.132872032   117.0966   6  25   0.0178   0.0185   0.0415  -0.0062   0.0069  -0.0167   0.00    0.0
2025/04/01 14:52:30.000   39.135150723  141.132871982   117.1296   6  25   0.0178   0.0177   0.0415  -0.0071   0.0075  -0.0167   0.00    0.0
2025/04/01 14:53:00.000   39.135150592  141.132872152   117.1300   6  25   0.0175   0.0179   0.0411  -0.0071   0.0070  -0.0165   0.00    0.0
2025/04/01 14:53:30.000   39.135150497  141.132872184   117.1140   6  25   0.0179   0.0178   0.0409  -0.0060   0.0072  -0.0168   0.00    0.0
2025/04/01 14:54:00.000   39.135150573  141.132872014   117.1338   6  25   0.0177   0.0177   0.0409  -0.0065   0.0070  -0.0161   0.00    0.0
2025/04/01 14:54:30.000   39.135150841  141.132871976   117.1208   6  25   0.0176   0.0178   0.0407  -0.0060   0.0080  -0.0162   0.00    0.0
2025/04/01 14:55:00.000   39.135150617  141.132872086   117.0961   6  25   0.0175   0.0174   0.0406  -0.0059   0.0075  -0.0162   0.00    0.0
2025/04/01 14:55:30.000   39.135150519  141.132872013   117.1050   6  25   0.0173   0.0176   0.0405  -0.0068   0.0068  -0.0161   0.00    0.0
2025/04/01 14:56:00.000   39.135150625  141.132872039   117.1076   6  25   0.0173   0.0170   0.0400  -0.0062   0.0067  -0.0157   0.00    0.0
2025/04/01 14:56:30.000   39.135150795  141.132872005   117.1105   6  25   0.0169   0.0169   0.0400  -0.0056   0.0070  -0.0156   0.00    0.0
2025/04/01 14:57:00.000   39.135150581  141.132872057   117.1311   6  25   0.0171   0.0166   0.0397  -0.0061   0.0070  -0.0154   0.00    0.0
2025/04/01 14:57:30.000   39.135150575  141.132871989   117.1376   6  25   0.0173   0.0171   0.0398  -0.0063   0.0059  -0.0154   0.00    0.0
2025/04/01 14:58:00.000   39.135150804  141.132871993   117.1137   6  25   0.0171   0.0170   0.0396  -0.0057   0.0075  -0.0154   0.00    0.0
2025/04/01 14:58:30.000   39.135150647  141.132872030   117.0841   6  25   0.0167   0.0164   0.0391  -0.0064   0.0065  -0.0153   0.00    0.0
2025/04/01 14:59:00.000   39.135150669  141.132872000   117.1081   6  25   0.0168   0.0166   0.0396  -0.0061   0.0066  -0.0148   0.00    0.0
2025/04/01 14:59:30.000   39.135150774  141.132872023   117.1344   6  25   0.0168   0.0160   0.0393  -0.0055   0.0062  -0.0149   0.00    0.0
