% program    : MADOCALIB ver.2.0
% inp file   : .\data\rinex\MIZU00JPN_R_20250910000_01D_30S_MO.rnx
% inp file   : .\data\rinex\BRDM00DLR_S_20250910000_01D_MN.rnx
% inp file   : .\data\l6_is-qzss-mdc-004\%Y\%n\%Y%n%HU.204.l6
% inp file   : .\data\l6_is-qzss-mdc-004\%Y\%n\%Y%n%HU.206.l6
% satantfile : 
% rcvantfile : .\data\igs20.atx
% obs start  : 2025/04/01 22:00:00.0 GPST (week2360 252000.0s)
% obs end    : 2025/04/01 22:59:30.0 GPST (week2360 255570.0s)
% pos mode   : PPP Kinematic
% freqs      : L1+2
% siggps     : L1/L2/L5
% sigqzs     : L1/L5/L2
% siggal     : E1/E5a/E5b/E6
% sigbds2    : B1I/B3I/B2I
% sigbds3    : B1I/B3I/B2a
% solution   : Forward
% elev mask  : 10.0 deg
% dynamics   : off
% tidecorr   : on
% ionos opt  : Iono-Free LC
% tropo opt  : Estimate ZTD
% ephemeris  : Broadcast+SSR APC
% navi sys   : GPS GLONASS Galileo QZSS
% amb mode   : OFF
% ar sys     : GPS Galileo QZSS BDS
% val ratio  : 1.5
% max std pos: 1.5 m
% ionocorr   : off
% antenna1   : SEPCHOKE_B3E6   NONE  ( 0.0000  0.0000  0.1206)
%
% (lat/lon/height=WGS84/ellipsoidal,Q=1:fix,2:float,3:sbas,4:dgps,5:single,6:ppp,ns=# of satellites)
%  GPST                  latitude(deg) longitude(deg)  height(m)   Q  ns   sdn(m)   sde(m)   sdu(m)  sdne(m)  sdeu(m)  sdun(m) age(s)  ratio
2025/04/01 22:00:00.000   39.135144473  141.132873209   117.0135   6  24   3.2741   2.5155   5.7941  -0.5843   0.7784  -2.3181   0.00    0.0
2025/04/01 22:00:30.000   39.135151261  141.132876743   116.7365   6  24   1.9114   1.7385   3.2417  -0.5587   0.2860  -1.3764   0.00    0.0
2025/04/01 22:01:00.000   39.135144687  141.132876330   118.2422   6  24   1.2657   1.3698   2.1302  -0.5108  -0.1462  -0.9273   0.00    0.0
2025/04/01 22:01:30.000   39.135148197  141.132872170   117.8197   6  24   0.9071   1.1345   1.5614  -0.4551  -0.2049  -0.6788   0.00    0.0
2025/04/01 22:02:00.000   39.135148436  141.132873925   117.4413   6  15   0.8147   1.0295   1.3827  -0.4351   0.1356  -0.6442   0.00    0.0
2025/04/01 22:02:30.000   39.135148380  141.132874004   117.1396   6  15   0.7232   0.9343   1.2162  -0.4116   0.2309  -0.5916   0.00    0.0
2025/04/01 22:03:00.000   39.135150152  141.132871822   116.8952   6  15   0.6392   0.8470   1.0718  -0.3855   0.2692  -0.5357   0.00    0.0
2025/04/01 22:03:30.000   39.135150776  141.132871168   116.7972   6  16   0.5648   0.7672   0.9501  -0.3574   0.2844  -0.4821   0.00    0.0
2025/04/01 22:04:00.000   39.135150416  141.132872812   116.8417   6  16   0.5006   0.6962   0.8480  -0.3303   0.2868  -0.4336   0.00    0.0
2025/04/01 22:04:30.000   39.135150520  141.132872329   116.9236   6  16   0.4459   0.6335   0.7620  -0.3047   0.2820  -0.3910   0.00    0.0
2025/04/01 22:05:00.000   39.135150461  141.132871243   116.9919   6  16   0.3992   0.5782   0.6890  -0.2812   0.2732  -0.3541   0.00    0.0
2025/04/01 22:05:30.000   39.135149834  141.132872874   117.1392   6  16   0.3596   0.5294   0.6263  -0.2599   0.2622  -0.3222   0.00    0.0
2025/04/01 22:06:00.000   39.135150734  141.132871610   117.1368   6  16   0.3257   0.4863   0.5721  -0.2406   0.2500  -0.2947   0.00    0.0
2025/04/01 22:06:30.000   39.135151385  141.132871033   117.0829   6  16   0.2966   0.4481   0.5249  -0.2233   0.2374  -0.2708   0.00    0.0
2025/04/01 22:07:00.000   39.135150987  141.132871063   117.1303   6  16   0.2715   0.4143   0.4836  -0.2077   0.2250  -0.2500   0.00    0.0
2025/04/01 22:07:30.000   39.135150736  141.132871892   117.1441   6  16   0.2497   0.3841   0.4473  -0.1938   0.2130  -0.2317   0.00    0.0
2025/04/01 22:08:00.000   39.135151170  141.132871982   117.0072   6  16   0.2306   0.3572   0.4152  -0.1812   0.2015  -0.2157   0.00    0.0
2025/04/01 22:08:30.000   39.135151363  141.132871792   117.0435   6  16   0.2139   0.3332   0.3867  -0.1699   0.1908  -0.2015   0.00    0.0
2025/04/01 22:09:00.000   39.135151266  141.132871979   117.1035   6  16   0.1992   0.3115   0.3614  -0.1597   0.1807  -0.1888   0.00    0.0
2025/04/01 22:09:30.000   39.135151103  141.132872582   117.1034   6  16   0.1861   0.2921   0.3387  -0.1504   0.1713  -0.1775   0.00    0.0
2025/04/01 22:10:00.000   39.135151135  141.132872167   117.0791   6  16   0.1745   0.2745   0.3185  -0.1420   0.1627  -0.1674   0.00    0.0
2025/04/01 22:10:30.000   39.135151111  141.132872524   117.1144   6  16   0.1641   0.2585   0.3002  -0.1344   0.1546  -0.1583   0.00    0.0
2025/04/01 22:11:00.000   39.135150916  141.132872487   117.1152   6  16   0.1547   0.2440   0.2838  -0.1274   0.1471  -0.1501   0.00    0.0
2025/04/01 22:11:30.000   39.135150747  141.132872660   117.1305   6  16   0.1462   0.2308   0.2689  -0.1211   0.1402  -0.1426   0.00    0.0
2025/04/01 22:12:00.000   39.135150884  141.132872449   117.1515   6  16   0.1386   0.2187   0.2554  -0.1153   0.1339  -0.1358   0.00    0.0
2025/04/01 22:12:30.000   39.135150900  141.132872472   117.1365   6  16   0.1317   0.2077   0.2431  -0.1099   0.1279  -0.1296   0.00    0.0
2025/04/01 22:13:00.000   39.135150777  141.132872652   117.1465   6  16   0.1253   0.1975   0.2318  -0.1050   0.1224  -0.1240   0.00    0.0
2025/04/01 22:13:30.000   39.135150912  141.132872394   117.1774   6  16   0.1196   0.1882   0.2215  -0.1004   0.1174  -0.1188   0.00    0.0
2025/04/01 22:14:00.000   39.135150866  141.132872414   117.1736   6  16   0.1143   0.1796   0.2121  -0.0962   0.1126  -0.1140   0.00    0.0
2025/04/01 22:14:30.000   39.135151069  141.132872114   117.1517   6  16   0.1094   0.1716   0.2034  -0.0923   0.1082  -0.1096   0.00    0.0
2025/04/01 22:15:00.000   39.135150887  141.132872518   117.1914   6  16   0.1049   0.1642   0.1954  -0.0887   0.1041  -0.1056   0.00    0.0
2025/04/01 22:15:30.000   39.135151019  141.132872416   117.1620   6  16   0.1008   0.1573   0.1880  -0.0853   0.1002  -0.1018   0.00    0.0
2025/04/01 22:16:00.000   39.135151138  141.132871976   117.1486   6  16   0.0969   0.1509   0.1812  -0.0821   0.0966  -0.0983   0.00    0.0
2025/04/01 22:16:30.000   39.135151079  141.132872118   117.1747   6  16   0.0934   0.1450   0.1749  -0.0792   0.0932  -0.0950   0.00    0.0
2025/04/01 22:17:00.000   39.135150908  141.132872370   117.1526   6  16   0.0901   0.1394   0.1689  -0.0764   0.0901  -0.0920   0.00    0.0
2025/04/01 22:17:30.000   39.135150969  141.132872188   117.1530   6  16   0.0870   0.1342   0.1634  -0.0739   0.0871  -0.0892   0.00    0.0
2025/04/01 22:18:00.000   39.135150922  141.132872088   117.1756   6  16   0.0841   0.1294   0.1583  -0.0714   0.0843  -0.0866   0.00    0.0
2025/04/01 22:18:30.000   39.135150888  141.132872147   117.1847   6  16   0.0815   0.1248   0.1535  -0.0691   0.0816  -0.0841   0.00    0.0
2025/04/01 22:19:00.000   39.135151054  141.132872035   117.1429   6  16   0.0790   0.1205   0.1490  -0.0670   0.0791  -0.0818   0.00    0.0
2025/04/01 22:19:30.000   39.135151050  141.132872078   117.1489   6  16   0.0767   0.1165   0.1448  -0.0650   0.0767  -0.0796   0.00    0.0
2025/04/01 22:20:00.000   39.135150859  141.132872165   117.1532   6  16   0.0745   0.1126   0.1408  -0.0630   0.0745  -0.0776   0.00    0.0
2025/04/01 22:20:30.000   39.135150925  141.132872281   117.1452   6  16   0.0724   0.1091   0.1371  -0.0612   0.0724  -0.0756   0.00    0.0
2025/04/01 22:21:00.000   39.135150828  141.132872348   117.1615   6  16   0.0705   0.1057   0.1336  -0.0596   0.0704  -0.0738   0.00    0.0
2025/04/01 22:21:30.000   39.135150892  141.132872580   117.1524   6  17   0.0686   0.1025   0.1302  -0.0579   0.0685  -0.0721   0.00    0.0
2025/04/01 22:22:00.000   39.135150771  141.132872643   117.1770   6  17   0.0669   0.0995   0.1270  -0.0563   0.0666  -0.0704   0.00    0.0
2025/04/01 22:22:30.000   39.135150775  141.132872501   117.1535   6  17   0.0652   0.0966   0.1240  -0.0548   0.0648  -0.0687   0.00    0.0
2025/04/01 22:23:00.000   39.135150784  141.132872652   117.1530   6  17   0.0636   0.0938   0.1211  -0.0534   0.0631  -0.0672   0.00    0.0
2025/04/01 22:23:30.000   39.135150907  141.132872544   117.1085   6  17   0.0621   0.0912   0.1184  -0.0521   0.0614  -0.0658   0.00    0.0
2025/04/01 22:24:00.000   39.135150701  141.132872761   117.1511   6  17   0.0608   0.0887   0.1157  -0.0508   0.0599  -0.0644   0.00    0.0
2025/04/01 22:24:30.000   39.135150662  141.132872813   117.1662   6  17   0.0594   0.0864   0.1133  -0.0495   0.0583  -0.0631   0.00    0.0
2025/04/01 22:25:00.000   39.135150785  141.132872597   117.1498   6  17   0.0581   0.0841   0.1108  -0.0483   0.0569  -0.0618   0.00    0.0
2025/04/01 22:25:30.000   39.135150657  141.132872571   117.1624   6  17   0.0569   0.0820   0.1086  -0.0471   0.0555  -0.0606   0.00    0.0
2025/04/01 22:26:00.000   39.135150741  141.132872631   117.1598   6  17   0.0558   0.0799   0.1064  -0.0461   0.0541  -0.0595   0.00    0.0
2025/04/01 22:26:30.000   39.135150703  141.132872654   117.1675   6  16   0.0551   0.0779   0.1044  -0.0452   0.0528  -0.0584   0.00    0.0
2025/04/01 22:27:00.000   39.135150767  141.132872573   117.1523   6  16   0.0542   0.0761   0.1024  -0.0442   0.0514  -0.0572   0.00    0.0
2025/04/01 22:27:30.000   39.135150769  141.132872600   117.1495   6  16   0.0532   0.0743   0.1004  -0.0432   0.0501  -0.0561   0.00    0.0
2025/04/01 22:28:00.000   39.135150752  141.132872495   117.1468   6  16   0.0522   0.0726   0.0987  -0.0423   0.0487  -0.0550   0.00    0.0
2025/04/01 22:28:30.000   39.135150847  141.132872468   117.1489   6  16   0.0513   0.0710   0.0969  -0.0414   0.0475  -0.0539   0.00    0.0
2025/04/01 22:29:00.000   39.135150715  141.132872458   117.1803   6  16   0.0505   0.0694   0.0953  -0.0406   0.0463  -0.0529   0.00    0.0
2025/04/01 22:29:30.000   39.135150746  141.132872470   117.1759   6  16   0.0497   0.0679   0.0937  -0.0398   0.0450  -0.0519   0.00    0.0
2025/04/01 22:30:00.000   39.135150794  141.132872349   117.1735   6  16   0.0488   0.0665   0.0922  -0.0390   0.0439  -0.0509   0.00    0.0
2025/04/01 22:30:30.000   39.135150805  141.132872444   117.1759   6  16   0.0481   0.0651   0.0907  -0.0382   0.0428  -0.0500   0.00    0.0
2025/04/01 22:31:00.000   39.135150773  141.132872543   117.1931   6  16   0.0473   0.0637   0.0893  -0.0375   0.0416  -0.0491   0.00    0.0
2025/04/01 22:31:30.000   39.135150725  141.132872426   117.1908   6  16   0.0466   0.0625   0.0879  -0.0367   0.0406  -0.0483   0.00    0.0
2025/04/01 22:32:00.000   39.135150788  141.132872324   117.1804   6  16   0.0459   0.0612   0.0865  -0.0360   0.0395  -0.0474   0.00    0.0
2025/04/01 22:32:30.000   39.135150777  141.132872383   117.1694   6  16   0.0453   0.0600   0.0852  -0.0353   0.0386  -0.0466   0.00    0.0
2025/04/01 22:33:00.000   39.135150819  141.132872297   117.1694   6  16   0.0445   0.0589   0.0840  -0.0348   0.0374  -0.0458   0.00    0.0
2025/04/01 22:33:30.000   39.135150902  141.132872192   117.1365   6  16   0.0439   0.0577   0.0829  -0.0340   0.0366  -0.0451   0.00    0.0
2025/04/01 22:34:00.000   39.135150772  141.132872343   117.1659   6  16   0.0433   0.0567   0.0818  -0.0333   0.0357  -0.0444   0.00    0.0
2025/04/01 22:34:30.000   39.135150815  141.132872310   117.1523   6  16   0.0427   0.0556   0.0806  -0.0327   0.0348  -0.0437   0.00    0.0
2025/04/01 22:35:00.000   39.135150810  141.132872288   117.1480   6  16   0.0421   0.0546   0.0796  -0.0322   0.0338  -0.0430   0.00    0.0
2025/04/01 22:35:30.000   39.135150642  141.132872465   117.1906   6  16   0.0416   0.0537   0.0786  -0.0315   0.0330  -0.0423   0.00    0.0
2025/04/01 22:36:00.000   39.135150763  141.132872426   117.1628   6  16   0.0410   0.0528   0.0776  -0.0310   0.0321  -0.0417   0.00    0.0
2025/04/01 22:36:30.000   39.135150754  141.132872360   117.1557   6  16   0.0405   0.0519   0.0767  -0.0305   0.0312  -0.0411   0.00    0.0
2025/04/01 22:37:00.000   39.135150676  141.132872458   117.1713   6  16   0.0400   0.0510   0.0757  -0.0299   0.0305  -0.0404   0.00    0.0
2025/04/01 22:37:30.000   39.135150663  141.132872443   117.1759   6  16   0.0395   0.0502   0.0748  -0.0293   0.0297  -0.0399   0.00    0.0
2025/04/01 22:38:00.000   39.135150704  141.132872399   117.1669   6  16   0.0391   0.0494   0.0739  -0.0289   0.0288  -0.0393   0.00    0.0
2025/04/01 22:38:30.000   39.135150733  141.132872366   117.1635   6  16   0.0386   0.0487   0.0730  -0.0284   0.0280  -0.0387   0.00    0.0
2025/04/01 22:39:00.000   39.135150707  141.132872391   117.1651   6  16   0.0382   0.0479   0.0722  -0.0279   0.0274  -0.0383   0.00    0.0
2025/04/01 22:39:30.000   39.135150720  141.132872403   117.1562   6  16   0.0378   0.0471   0.0715  -0.0275   0.0265  -0.0377   0.00    0.0
2025/04/01 22:40:00.000   39.135150698  141.132872378   117.1706   6  16   0.0373   0.0465   0.0706  -0.0270   0.0258  -0.0372   0.00    0.0
2025/04/01 22:40:30.000   39.135150696  141.132872345   117.1750   6  16   0.0369   0.0458   0.0699  -0.0265   0.0251  -0.0367   0.00    0.0
2025/04/01 22:41:00.000   39.135150740  141.132872367   117.1727   6  16   0.0365   0.0452   0.0691  -0.0261   0.0245  -0.0362   0.00    0.0
2025/04/01 22:41:30.000   39.135150762  141.132872318   117.1614   6  16   0.0361   0.0446   0.0685  -0.0257   0.0236  -0.0358   0.00    0.0
2025/04/01 22:42:00.000   39.135150699  141.132872322   117.1682   6  16   0.0357   0.0439   0.0677  -0.0254   0.0229  -0.0353   0.00    0.0
2025/04/01 22:42:30.000   39.135150666  141.132872389   117.1855   6  16   0.0354   0.0433   0.0671  -0.0247   0.0227  -0.0349   0.00    0.0
2025/04/01 22:43:00.000   39.135150679  141.132872335   117.1763   6  15   0.0350   0.0430   0.0664  -0.0246   0.0216  -0.0344   0.00    0.0
2025/04/01 22:43:30.000   39.135150763  141.132872283   117.1617   6  15   0.0346   0.0424   0.0661  -0.0243   0.0213  -0.0341   0.00    0.0
2025/04/01 22:44:00.000   39.135150703  141.132872283   117.1637   6  15   0.0345   0.0419   0.0656  -0.0239   0.0210  -0.0338   0.00    0.0
2025/04/01 22:44:30.000   39.135150680  141.132872310   117.1718   6  15   0.0342   0.0414   0.0651  -0.0236   0.0206  -0.0336   0.00    0.0
2025/04/01 22:45:00.000   39.135150769  141.132872280   117.1646   6  15   0.0339   0.0409   0.0646  -0.0233   0.0202  -0.0333   0.00    0.0
2025/04/01 22:45:30.000   39.135150735  141.132872228   117.1800   6  15   0.0337   0.0404   0.0642  -0.0229   0.0198  -0.0331   0.00    0.0
2025/04/01 22:46:00.000   39.135150727  141.132872252   117.1788   6  15   0.0335   0.0400   0.0638  -0.0228   0.0191  -0.0327   0.00    0.0
2025/04/01 22:46:30.000   39.135150794  141.132872283   117.1591   6  15   0.0332   0.0395   0.0634  -0.0222   0.0191  -0.0325   0.00    0.0
2025/04/01 22:47:00.000   39.135150765  141.132872269   117.1557   6  14   0.0330   0.0391   0.0629  -0.0221   0.0185  -0.0322   0.00    0.0
2025/04/01 22:47:30.000   39.135150771  141.132872189   117.1610   6  14   0.0327   0.0387   0.0626  -0.0220   0.0183  -0.0320   0.00    0.0
2025/04/01 22:48:00.000   39.135150686  141.132872267   117.1751   6  14   0.0324   0.0383   0.0622  -0.0216   0.0179  -0.0317   0.00    0.0
2025/04/01 22:48:30.000   39.135150690  141.132872275   117.1837   6  14   0.0323   0.0380   0.0619  -0.0214   0.0177  -0.0315   0.00    0.0
2025/04/01 22:49:00.000   39.135150770  141.132872216   117.1658   6  14   0.0321   0.0376   0.0615  -0.0211   0.0174  -0.0313   0.00    0.0
2025/04/01 22:49:30.000   39.135150824  141.132872252   117.1540   6  14   0.0319   0.0371   0.0613  -0.0208   0.0171  -0.0310   0.00    0.0
2025/04/01 22:50:00.000   39.135150746  141.132872268   117.1819   6  14   0.0316   0.0368   0.0610  -0.0207   0.0169  -0.0309   0.00    0.0
2025/04/01 22:50:30.000   39.135150754  141.132872265   117.1652   6  14   0.0315   0.0365   0.0607  -0.0204   0.0166  -0.0306   0.00    0.0
2025/04/01 22:51:00.000   39.135150693  141.132872283   117.1838   6  14   0.0312   0.0361   0.0604  -0.0201   0.0164  -0.0305   0.00    0.0
2025/04/01 22:51:30.000   39.135150803  141.132872264   117.1587   6  14   0.0310   0.0358   0.0602  -0.0199   0.0161  -0.0302   0.00    0.0
2025/04/01 22:52:00.000   39.135150782  141.132872262   117.1722   6  14   0.0308   0.0354   0.0599  -0.0196   0.0160  -0.0300   0.00    0.0
2025/04/01 22:52:30.000   39.135150763  141.132872224   117.1697   6  14   0.0307   0.0351   0.0597  -0.0195   0.0156  -0.0298   0.00    0.0
2025/04/01 22:53:00.000   39.135150790  141.132872279   117.1688   6  14   0.0305   0.0348   0.0594  -0.0192   0.0153  -0.0296   0.00    0.0
2025/04/01 22:53:30.000   39.135150686  141.132872293   117.1794   6  14   0.0303   0.0345   0.0592  -0.0190   0.0152  -0.0294   0.00    0.0
2025/04/01 22:54:00.000   39.135150740  141.132872233   117.1846   6  14   0.0301   0.0342   0.0590  -0.0187   0.0151  -0.0292   0.00    0.0
2025/04/01 22:54:30.000   39.135150675  141.132872317   117.1864   6  14   0.0299   0.0338   0.0588  -0.0185   0.0147  -0.0291   0.00    0.0
2025/04/01 22:55:00.000   39.135150713  141.132872300   117.1713   6  14   0.0297   0.0336   0.0586  -0.0184   0.0144  -0.0289   0.00    0.0
2025/04/01 22:55:30.000   39.135150742  141.132872266   117.1789   6  14   0.0295   0.0332   0.0584  -0.0181   0.0142  -0.0288   0.00    0.0
2025/04/01 22:56:00.000   39.135150708  141.132872271   117.1971   6  14   0.0295   0.0330   0.0581  -0.0178   0.0141  -0.0286   0.00    0.0
2025/04/01 22:56:30.000   39.135150628  141.132872283   117.2041   6  14   0.0292   0.0327   0.0580  -0.0177   0.0140  -0.0284   0.00    0.0
2025/04/01 22:57:00.000   39.135150747  141.132872241   117.1780   6  14   0.0291   0.0324   0.0578  -0.0175   0.0137  -0.0283   0.00    0.0
2025/04/01 22:57:30.000   39.135150741  141.132872251   117.1938   6  14   0.0289   0.0322   0.0576  -0.0173   0.0134  -0.0281   0.00    0.0
2025/04/01 22:58:00.000   39.135150691  141.132872282   117.1988   6  14   0.0289   0.0319   0.0575  -0.0171   0.0133  -0.0280   0.00    0.0
2025/04/01 22:58:30.000   39.135150629  141.132872269   117.1991   6  14   0.0287   0.0316   0.0573  -0.0170   0.0132  -0.0278   0.00    0.0
2025/04/01 22:59:00.000   39.135150663  141.132872229   117.1992   6  14   0.0285   0.0315   0.0571  -0.0168   0.0129  -0.0276   0.00    0.0
2025/04/01 22:59:30.000   39.135150651  141.132872281   117.2113   6  15   0.0284   0.0311   0.0569  -0.0166   0.0126  -0.0276   0.00    0.0
