% program    : MADOCALIB ver.2.0
% inp file   : .\data\rinex\MIZU00JPN_R_20250910000_01D_30S_MO.rnx
% inp file   : .\data\rinex\BRDM00DLR_S_20250910000_01D_MN.rnx
% inp file   : .\data\l6_is-qzss-mdc-004\%Y\%n\%Y%n%HU.204.l6
% inp file   : .\data\l6_is-qzss-mdc-004\%Y\%n\%Y%n%HU.206.l6
% satantfile : 
% rcvantfile : .\data\igs20.atx
% obs start  : 2025/04/01 12:00:00.0 GPST (week2360 216000.0s)
% obs end    : 2025/04/01 12:59:30.0 GPST (week2360 219570.0s)
% pos mode   : PPP Kinematic
% freqs      : L1+2
% siggps     : L1/L2/L5
% sigqzs     : L1/L5/L2
% siggal     : E1/E5a/E5b/E6
% sigbds2    : B1I/B3I/B2I
% sigbds3    : B1I/B3I/B2a
% solution   : Forward
% elev mask  : 10.0 deg
% dynamics   : off
% tidecorr   : on
% ionos opt  : Iono-Free LC
% tropo opt  : Estimate ZTD
% ephemeris  : Broadcast+SSR APC
% navi sys   : GPS GLONASS Galileo QZSS
% amb mode   : OFF
% ar sys     : GPS Galileo QZSS BDS
% val ratio  : 1.5
% max std pos: 1.5 m
% ionocorr   : off
% antenna1   : SEPCHOKE_B3E6   NONE  ( 0.0000  0.0000  0.1206)
%
% (lat/lon/height=WGS84/ellipsoidal,Q=1:fix,2:float,3:sbas,4:dgps,5:single,6:ppp,ns=# of satellites)
%  GPST                  latitude(deg) longitude(deg)  height(m)   Q  ns   sdn(m)   sde(m)   sdu(m)  sdne(m)  sdeu(m)  sdun(m) age(s)  ratio
2025/04/01 12:00:00.000   39.135149065  141.132873154   117.2765   6  25   2.8081   2.5652   5.5673  -0.6976   1.0086  -0.3650   0.00    0.0
2025/04/01 12:00:30.000   39.135152591  141.132886199   117.6120   6  25   1.5581   1.7503   3.4107  -0.4878   0.7398  -1.1038   0.00    0.0
2025/04/01 12:01:00.000   39.135149380  141.132890227   117.2917   6  25   1.0267   1.3491   2.4106  -0.3920   0.6015  -0.9636   0.00    0.0
2025/04/01 12:01:30.000   39.135149832  141.132877377   117.7230   6  25   0.7413   1.0882   1.8222  -0.3275   0.4972  -0.7861   0.00    0.0
2025/04/01 12:02:00.000   39.135154765  141.132878193   116.7590   6  25   0.5661   0.9003   1.4377  -0.2778   0.4116  -0.6402   0.00    0.0
2025/04/01 12:02:30.000   39.135155124  141.132871621   116.6572   6  25   0.4495   0.7583   1.1698  -0.2380   0.3414  -0.5279   0.00    0.0
2025/04/01 12:03:00.000   39.135150935  141.132878152   117.3415   6  25   0.3675   0.6479   0.9742  -0.2057   0.2848  -0.4420   0.00    0.0
2025/04/01 12:03:30.000   39.135148887  141.132879983   117.8158   6  25   0.3073   0.5604   0.8261  -0.1794   0.2397  -0.3756   0.00    0.0
2025/04/01 12:04:00.000   39.135150668  141.132870113   117.5763   6  25   0.2618   0.4900   0.7109  -0.1578   0.2044  -0.3233   0.00    0.0
2025/04/01 12:04:30.000   39.135150501  141.132871559   117.4058   6  25   0.2264   0.4325   0.6192  -0.1399   0.1762  -0.2817   0.00    0.0
2025/04/01 12:05:00.000   39.135151360  141.132871971   116.9845   6  25   0.1982   0.3848   0.5449  -0.1251   0.1535  -0.2480   0.00    0.0
2025/04/01 12:05:30.000   39.135150891  141.132870347   117.1125   6  24   0.1755   0.3450   0.4872  -0.1127   0.1357  -0.2209   0.00    0.0
2025/04/01 12:06:00.000   39.135151269  141.132868580   117.1005   6  24   0.1569   0.3114   0.4394  -0.1020   0.1206  -0.1984   0.00    0.0
2025/04/01 12:06:30.000   39.135150821  141.132868520   117.0847   6  24   0.1413   0.2827   0.3988  -0.0930   0.1078  -0.1795   0.00    0.0
2025/04/01 12:07:00.000   39.135150394  141.132870309   117.1506   6  24   0.1282   0.2580   0.3640  -0.0852   0.0968  -0.1633   0.00    0.0
2025/04/01 12:07:30.000   39.135150607  141.132873207   117.1572   6  24   0.1170   0.2367   0.3338  -0.0785   0.0874  -0.1494   0.00    0.0
2025/04/01 12:08:00.000   39.135150752  141.132872523   117.0747   6  24   0.1074   0.2181   0.3075  -0.0725   0.0793  -0.1373   0.00    0.0
2025/04/01 12:08:30.000   39.135151164  141.132870777   116.9656   6  24   0.0991   0.2018   0.2843  -0.0673   0.0724  -0.1267   0.00    0.0
2025/04/01 12:09:00.000   39.135151253  141.132869975   116.9777   6  24   0.0919   0.1875   0.2638  -0.0628   0.0663  -0.1175   0.00    0.0
2025/04/01 12:09:30.000   39.135151157  141.132871237   117.0159   6  24   0.0854   0.1747   0.2456  -0.0587   0.0609  -0.1093   0.00    0.0
2025/04/01 12:10:00.000   39.135150807  141.132871288   117.0682   6  24   0.0798   0.1634   0.2294  -0.0551   0.0562  -0.1020   0.00    0.0
2025/04/01 12:10:30.000   39.135150448  141.132870952   117.1370   6  24   0.0748   0.1532   0.2149  -0.0520   0.0521  -0.0954   0.00    0.0
2025/04/01 12:11:00.000   39.135150419  141.132870554   117.1915   6  24   0.0703   0.1441   0.2017  -0.0490   0.0483  -0.0896   0.00    0.0
2025/04/01 12:11:30.000   39.135150555  141.132871565   117.1558   6  24   0.0663   0.1358   0.1899  -0.0463   0.0451  -0.0843   0.00    0.0
2025/04/01 12:12:00.000   39.135150344  141.132871773   117.2634   6  24   0.0626   0.1284   0.1793  -0.0440   0.0421  -0.0795   0.00    0.0
2025/04/01 12:12:30.000   39.135150278  141.132871958   117.2458   6  24   0.0594   0.1215   0.1696  -0.0417   0.0394  -0.0752   0.00    0.0
2025/04/01 12:13:00.000   39.135150239  141.132871361   117.1370   6  24   0.0565   0.1154   0.1607  -0.0399   0.0370  -0.0713   0.00    0.0
2025/04/01 12:13:30.000   39.135150531  141.132871313   117.1260   6  24   0.0537   0.1098   0.1526  -0.0380   0.0349  -0.0677   0.00    0.0
2025/04/01 12:14:00.000   39.135150519  141.132872126   117.1505   6  24   0.0513   0.1046   0.1452  -0.0364   0.0327  -0.0645   0.00    0.0
2025/04/01 12:14:30.000   39.135150662  141.132871201   116.9911   6  24   0.0490   0.0998   0.1384  -0.0348   0.0310  -0.0613   0.00    0.0
2025/04/01 12:15:00.000   39.135150757  141.132871806   117.1370   6  24   0.0470   0.0954   0.1321  -0.0334   0.0294  -0.0585   0.00    0.0
2025/04/01 12:15:30.000   39.135150621  141.132872409   117.1506   6  24   0.0450   0.0913   0.1263  -0.0321   0.0279  -0.0561   0.00    0.0
2025/04/01 12:16:00.000   39.135150719  141.132872017   117.0487   6  24   0.0434   0.0875   0.1209  -0.0308   0.0265  -0.0537   0.00    0.0
2025/04/01 12:16:30.000   39.135150658  141.132872086   117.0770   6  24   0.0417   0.0841   0.1160  -0.0297   0.0252  -0.0514   0.00    0.0
2025/04/01 12:17:00.000   39.135150599  141.132872047   117.0982   6  24   0.0402   0.0808   0.1114  -0.0288   0.0242  -0.0493   0.00    0.0
2025/04/01 12:17:30.000   39.135150876  141.132872078   117.0393   6  24   0.0387   0.0777   0.1073  -0.0276   0.0229  -0.0473   0.00    0.0
2025/04/01 12:18:00.000   39.135150969  141.132871722   117.0495   6  24   0.0376   0.0750   0.1031  -0.0267   0.0219  -0.0457   0.00    0.0
2025/04/01 12:18:30.000   39.135150876  141.132871704   117.0586   6  24   0.0363   0.0723   0.0994  -0.0257   0.0208  -0.0440   0.00    0.0
2025/04/01 12:19:00.000   39.135150766  141.132872510   117.1080   6  24   0.0349   0.0698   0.0961  -0.0252   0.0203  -0.0424   0.00    0.0
2025/04/01 12:19:30.000   39.135150830  141.132872292   117.0824   6  24   0.0341   0.0675   0.0927  -0.0245   0.0196  -0.0410   0.00    0.0
2025/04/01 12:20:00.000   39.135150799  141.132871883   117.0488   6  24   0.0331   0.0653   0.0897  -0.0236   0.0190  -0.0395   0.00    0.0
2025/04/01 12:20:30.000   39.135150824  141.132871954   117.0874   6  25   0.0323   0.0632   0.0870  -0.0231   0.0182  -0.0382   0.00    0.0
2025/04/01 12:21:00.000   39.135150878  141.132872031   117.0824   6  25   0.0315   0.0613   0.0843  -0.0222   0.0175  -0.0369   0.00    0.0
2025/04/01 12:21:30.000   39.135150845  141.132872220   117.1106   6  24   0.0308   0.0595   0.0816  -0.0221   0.0168  -0.0358   0.00    0.0
2025/04/01 12:22:00.000   39.135150697  141.132872366   117.1219   6  23   0.0299   0.0577   0.0796  -0.0214   0.0163  -0.0348   0.00    0.0
2025/04/01 12:22:30.000   39.135150731  141.132872096   117.0888   6  23   0.0291   0.0562   0.0778  -0.0205   0.0159  -0.0336   0.00    0.0
2025/04/01 12:23:00.000   39.135150858  141.132871933   117.1140   6  23   0.0286   0.0546   0.0759  -0.0204   0.0153  -0.0328   0.00    0.0
2025/04/01 12:23:30.000   39.135150755  141.132872104   117.1421   6  23   0.0281   0.0531   0.0743  -0.0197   0.0147  -0.0319   0.00    0.0
2025/04/01 12:24:00.000   39.135150779  141.132872029   117.0891   6  23   0.0272   0.0517   0.0725  -0.0194   0.0146  -0.0309   0.00    0.0
2025/04/01 12:24:30.000   39.135150720  141.132872161   117.1051   6  22   0.0268   0.0506   0.0709  -0.0191   0.0142  -0.0303   0.00    0.0
2025/04/01 12:25:00.000   39.135150805  141.132872209   117.1284   6  22   0.0262   0.0493   0.0698  -0.0187   0.0144  -0.0295   0.00    0.0
2025/04/01 12:25:30.000   39.135150796  141.132872167   117.0753   6  22   0.0258   0.0482   0.0685  -0.0185   0.0142  -0.0289   0.00    0.0
2025/04/01 12:26:00.000   39.135150792  141.132872166   117.1163   6  22   0.0255   0.0470   0.0672  -0.0182   0.0144  -0.0284   0.00    0.0
2025/04/01 12:26:30.000   39.135150740  141.132872270   117.1010   6  22   0.0246   0.0459   0.0663  -0.0177   0.0146  -0.0278   0.00    0.0
2025/04/01 12:27:00.000   39.135150878  141.132872135   117.1024   6  22   0.0244   0.0450   0.0651  -0.0176   0.0144  -0.0274   0.00    0.0
2025/04/01 12:27:30.000   39.135150790  141.132872197   117.0659   6  22   0.0241   0.0440   0.0641  -0.0170   0.0146  -0.0268   0.00    0.0
2025/04/01 12:28:00.000   39.135150880  141.132872171   117.0834   6  22   0.0238   0.0432   0.0632  -0.0167   0.0144  -0.0263   0.00    0.0
2025/04/01 12:28:30.000   39.135150919  141.132872338   117.1116   6  22   0.0235   0.0422   0.0622  -0.0164   0.0143  -0.0259   0.00    0.0
2025/04/01 12:29:00.000   39.135150802  141.132872432   117.1248   6  22   0.0231   0.0414   0.0614  -0.0161   0.0143  -0.0254   0.00    0.0
2025/04/01 12:29:30.000   39.135150801  141.132872348   117.0672   6  22   0.0227   0.0407   0.0605  -0.0162   0.0145  -0.0250   0.00    0.0
2025/04/01 12:30:00.000   39.135150887  141.132872347   117.1189   6  22   0.0224   0.0399   0.0598  -0.0157   0.0139  -0.0246   0.00    0.0
2025/04/01 12:30:30.000   39.135150848  141.132872410   117.1103   6  22   0.0220   0.0391   0.0592  -0.0156   0.0140  -0.0242   0.00    0.0
2025/04/01 12:31:00.000   39.135150778  141.132872447   117.0821   6  22   0.0217   0.0382   0.0584  -0.0152   0.0145  -0.0237   0.00    0.0
2025/04/01 12:31:30.000   39.135150749  141.132872346   117.1087   6  22   0.0215   0.0377   0.0576  -0.0152   0.0143  -0.0234   0.00    0.0
2025/04/01 12:32:00.000   39.135150882  141.132872119   117.1007   6  22   0.0214   0.0371   0.0570  -0.0148   0.0142  -0.0230   0.00    0.0
2025/04/01 12:32:30.000   39.135150850  141.132872174   117.0867   6  22   0.0210   0.0365   0.0561  -0.0146   0.0142  -0.0228   0.00    0.0
2025/04/01 12:33:00.000   39.135150921  141.132872274   117.1191   6  22   0.0208   0.0359   0.0557  -0.0146   0.0143  -0.0224   0.00    0.0
2025/04/01 12:33:30.000   39.135150864  141.132872187   117.1464   6  22   0.0206   0.0354   0.0549  -0.0143   0.0140  -0.0222   0.00    0.0
2025/04/01 12:34:00.000   39.135150743  141.132872443   117.0610   6  22   0.0206   0.0345   0.0543  -0.0142   0.0145  -0.0219   0.00    0.0
2025/04/01 12:34:30.000   39.135150898  141.132872456   117.1237   6  22   0.0202   0.0341   0.0540  -0.0138   0.0142  -0.0216   0.00    0.0
2025/04/01 12:35:00.000   39.135150799  141.132872221   117.1097   6  22   0.0198   0.0336   0.0534  -0.0137   0.0141  -0.0213   0.00    0.0
2025/04/01 12:35:30.000   39.135150724  141.132872235   117.0852   6  23   0.0198   0.0332   0.0528  -0.0136   0.0137  -0.0211   0.00    0.0
2025/04/01 12:36:00.000   39.135150814  141.132872269   117.1107   6  23   0.0195   0.0327   0.0523  -0.0135   0.0138  -0.0207   0.00    0.0
2025/04/01 12:36:30.000   39.135150848  141.132872189   117.1082   6  23   0.0195   0.0323   0.0517  -0.0132   0.0138  -0.0207   0.00    0.0
2025/04/01 12:37:00.000   39.135150911  141.132872085   117.0543   6  23   0.0190   0.0317   0.0514  -0.0131   0.0138  -0.0202   0.00    0.0
2025/04/01 12:37:30.000   39.135150761  141.132872219   117.0440   6  23   0.0190   0.0313   0.0506  -0.0132   0.0137  -0.0201   0.00    0.0
2025/04/01 12:38:00.000   39.135150972  141.132872218   117.0968   6  23   0.0191   0.0308   0.0502  -0.0132   0.0136  -0.0200   0.00    0.0
2025/04/01 12:38:30.000   39.135150923  141.132872196   117.1080   6  23   0.0187   0.0307   0.0499  -0.0127   0.0132  -0.0197   0.00    0.0
2025/04/01 12:39:00.000   39.135150826  141.132872289   117.0891   6  24   0.0184   0.0301   0.0490  -0.0126   0.0139  -0.0194   0.00    0.0
2025/04/01 12:39:30.000   39.135150909  141.132872212   117.1118   6  24   0.0181   0.0298   0.0490  -0.0122   0.0131  -0.0193   0.00    0.0
2025/04/01 12:40:00.000   39.135150878  141.132872102   117.0789   6  23   0.0186   0.0294   0.0486  -0.0128   0.0140  -0.0196   0.00    0.0
2025/04/01 12:40:30.000   39.135150795  141.132872180   117.0634   6  23   0.0187   0.0291   0.0481  -0.0129   0.0138  -0.0198   0.00    0.0
2025/04/01 12:41:00.000   39.135150899  141.132872094   117.0983   6  23   0.0183   0.0289   0.0478  -0.0127   0.0137  -0.0193   0.00    0.0
2025/04/01 12:41:30.000   39.135150960  141.132872149   117.0940   6  23   0.0187   0.0288   0.0472  -0.0126   0.0134  -0.0192   0.00    0.0
2025/04/01 12:42:00.000   39.135150825  141.132872220   117.0605   6  23   0.0184   0.0282   0.0470  -0.0124   0.0139  -0.0193   0.00    0.0
2025/04/01 12:42:30.000   39.135150831  141.132872093   117.0881   6  23   0.0183   0.0279   0.0469  -0.0121   0.0134  -0.0190   0.00    0.0
2025/04/01 12:43:00.000   39.135150966  141.132872028   117.0934   6  23   0.0183   0.0275   0.0461  -0.0120   0.0132  -0.0191   0.00    0.0
2025/04/01 12:43:30.000   39.135150833  141.132872053   117.0557   6  24   0.0178   0.0274   0.0462  -0.0121   0.0131  -0.0187   0.00    0.0
2025/04/01 12:44:00.000   39.135150871  141.132872119   117.0852   6  24   0.0177   0.0268   0.0457  -0.0117   0.0130  -0.0180   0.00    0.0
2025/04/01 12:44:30.000   39.135150972  141.132872213   117.1018   6  24   0.0175   0.0264   0.0453  -0.0113   0.0127  -0.0179   0.00    0.0
2025/04/01 12:45:00.000   39.135150872  141.132872229   117.0626   6  24   0.0170   0.0261   0.0449  -0.0109   0.0127  -0.0178   0.00    0.0
2025/04/01 12:45:30.000   39.135150949  141.132872175   117.0818   6  24   0.0173   0.0261   0.0446  -0.0109   0.0120  -0.0181   0.00    0.0
2025/04/01 12:46:00.000   39.135150933  141.132872333   117.0956   6  24   0.0173   0.0257   0.0445  -0.0110   0.0122  -0.0177   0.00    0.0
2025/04/01 12:46:30.000   39.135150843  141.132872207   117.0867   6  24   0.0173   0.0255   0.0440  -0.0106   0.0123  -0.0176   0.00    0.0
2025/04/01 12:47:00.000   39.135150959  141.132872236   117.0632   6  24   0.0168   0.0253   0.0439  -0.0106   0.0119  -0.0173   0.00    0.0
2025/04/01 12:47:30.000   39.135150923  141.132872052   117.0994   6  24   0.0167   0.0249   0.0431  -0.0102   0.0119  -0.0173   0.00    0.0
2025/04/01 12:48:00.000   39.135150885  141.132872283   117.0974   6  24   0.0166   0.0247   0.0433  -0.0105   0.0114  -0.0173   0.00    0.0
2025/04/01 12:48:30.000   39.135150861  141.132872152   117.0769   6  24   0.0167   0.0245   0.0427  -0.0101   0.0116  -0.0171   0.00    0.0
2025/04/01 12:49:00.000   39.135150838  141.132872177   117.0868   6  24   0.0167   0.0241   0.0427  -0.0102   0.0117  -0.0169   0.00    0.0
2025/04/01 12:49:30.000   39.135150900  141.132872243   117.0623   6  24   0.0166   0.0242   0.0424  -0.0097   0.0113  -0.0168   0.00    0.0
2025/04/01 12:50:00.000   39.135150883  141.132872036   117.0878   6  24   0.0162   0.0239   0.0423  -0.0100   0.0114  -0.0165   0.00    0.0
2025/04/01 12:50:30.000   39.135150758  141.132872103   117.0882   6  24   0.0168   0.0238   0.0420  -0.0101   0.0114  -0.0166   0.00    0.0
2025/04/01 12:51:00.000   39.135150899  141.132872344   117.0656   6  24   0.0162   0.0234   0.0417  -0.0098   0.0112  -0.0163   0.00    0.0
2025/04/01 12:51:30.000   39.135150875  141.132872079   117.0849   6  24   0.0163   0.0234   0.0415  -0.0101   0.0111  -0.0164   0.00    0.0
2025/04/01 12:52:00.000   39.135150772  141.132872274   117.0784   6  24   0.0160   0.0231   0.0412  -0.0097   0.0113  -0.0163   0.00    0.0
2025/04/01 12:52:30.000   39.135150845  141.132872294   117.0931   6  24   0.0165   0.0230   0.0407  -0.0096   0.0105  -0.0166   0.00    0.0
2025/04/01 12:53:00.000   39.135150898  141.132872121   117.0486   6  24   0.0162   0.0227   0.0407  -0.0097   0.0105  -0.0162   0.00    0.0
2025/04/01 12:53:30.000   39.135150909  141.132872258   117.0908   6  23   0.0162   0.0225   0.0408  -0.0092   0.0106  -0.0163   0.00    0.0
2025/04/01 12:54:00.000   39.135150848  141.132872100   117.0787   6  23   0.0164   0.0222   0.0405  -0.0092   0.0107  -0.0165   0.00    0.0
2025/04/01 12:54:30.000   39.135150821  141.132872018   117.0432   6  23   0.0163   0.0222   0.0405  -0.0090   0.0102  -0.0164   0.00    0.0
2025/04/01 12:55:00.000   39.135150861  141.132872206   117.0750   6  23   0.0165   0.0221   0.0405  -0.0090   0.0102  -0.0160   0.00    0.0
2025/04/01 12:55:30.000   39.135150884  141.132872276   117.0969   6  23   0.0161   0.0219   0.0400  -0.0089   0.0101  -0.0163   0.00    0.0
2025/04/01 12:56:00.000   39.135151027  141.132872378   117.1121   6  23   0.0160   0.0216   0.0401  -0.0086   0.0100  -0.0159   0.00    0.0
2025/04/01 12:56:30.000   39.135150933  141.132872258   117.0470   6  23   0.0160   0.0219   0.0401  -0.0084   0.0095  -0.0159   0.00    0.0
2025/04/01 12:57:00.000   39.135150870  141.132872199   117.0502   6  24   0.0162   0.0217   0.0400  -0.0090   0.0098  -0.0158   0.00    0.0
2025/04/01 12:57:30.000   39.135150874  141.132872254   117.0832   6  24   0.0161   0.0212   0.0400  -0.0086   0.0097  -0.0158   0.00    0.0
2025/04/01 12:58:00.000   39.135150934  141.132872378   117.0964   6  24   0.0161   0.0214   0.0396  -0.0087   0.0094  -0.0157   0.00    0.0
2025/04/01 12:58:30.000   39.135150913  141.132872192   117.0577   6  24   0.0157   0.0211   0.0393  -0.0080   0.0092  -0.0157   0.00    0.0
2025/04/01 12:59:00.000   39.135150891  141.132872124   117.0330   6  24   0.0161   0.0210   0.0395  -0.0082   0.0089  -0.0156   0.00    0.0
2025/04/01 12:59:30.000   39.135150906  141.132872229   117.0765   6  24   0.0159   0.0207   0.0395  -0.0084   0.0096  -0.0155   0.00    0.0
