% program    : MADOCALIB ver.2.0
% inp file   : .\data\rinex\MIZU00JPN_R_20250910000_01D_30S_MO.rnx
% inp file   : .\data\rinex\BRDM00DLR_S_20250910000_01D_MN.rnx
% inp file   : .\data\l6_is-qzss-mdc-004\%Y\%n\%Y%n%HU.204.l6
% inp file   : .\data\l6_is-qzss-mdc-004\%Y\%n\%Y%n%HU.206.l6
% satantfile : 
% rcvantfile : .\data\igs20.atx
% obs start  : 2025/04/01 03:00:00.0 GPST (week2360 183600.0s)
% obs end    : 2025/04/01 03:59:30.0 GPST (week2360 187170.0s)
% pos mode   : PPP Kinematic
% freqs      : L1+2
% siggps     : L1/L2/L5
% sigqzs     : L1/L5/L2
% siggal     : E1/E5a/E5b/E6
% sigbds2    : B1I/B3I/B2I
% sigbds3    : B1I/B3I/B2a
% solution   : Forward
% elev mask  : 10.0 deg
% dynamics   : off
% tidecorr   : on
% ionos opt  : Iono-Free LC
% tropo opt  : Estimate ZTD
% ephemeris  : Broadcast+SSR APC
% navi sys   : GPS GLONASS Galileo QZSS
% amb mode   : OFF
% ar sys     : GPS Galileo QZSS BDS
% val ratio  : 1.5
% max std pos: 1.5 m
% ionocorr   : off
% antenna1   : SEPCHOKE_B3E6   NONE  ( 0.0000  0.0000  0.1206)
%
% (lat/lon/height=WGS84/ellipsoidal,Q=1:fix,2:float,3:sbas,4:dgps,5:single,6:ppp,ns=# of satellites)
%  GPST                  latitude(deg) longitude(deg)  height(m)   Q  ns   sdn(m)   sde(m)   sdu(m)  sdne(m)  sdeu(m)  sdun(m) age(s)  ratio
2025/04/01 03:00:00.000   39.135152650  141.132877248   116.5706   6  21   3.1537   2.6764   6.2915  -1.3383  -1.3909   1.5351   0.00    0.0
2025/04/01 03:00:30.000   39.135146888  141.132878900   116.5467   6  21   1.7137   1.8193   3.5874  -0.6855  -0.5839  -0.8136   0.00    0.0
2025/04/01 03:01:00.000   39.135156433  141.132875038   117.5966   6  21   1.1074   1.4147   2.4008  -0.4233  -0.2544  -0.8089   0.00    0.0
2025/04/01 03:01:30.000   39.135156104  141.132872638   116.9900   6  21   0.7853   1.1578   1.7474  -0.2911   0.0677  -0.6607   0.00    0.0
2025/04/01 03:02:00.000   39.135152708  141.132872967   116.8086   6  21   0.5909   0.9737   1.3446  -0.2143   0.1670  -0.5307   0.00    0.0
2025/04/01 03:02:30.000   39.135151161  141.132872349   117.3134   6  21   0.4638   0.8339   1.0772  -0.1655   0.1913  -0.4312   0.00    0.0
2025/04/01 03:03:00.000   39.135150839  141.132872680   116.8964   6  21   0.3758   0.7240   0.8892  -0.1326   0.1971  -0.3563   0.00    0.0
2025/04/01 03:03:30.000   39.135151553  141.132873122   116.5994   6  21   0.3122   0.6356   0.7508  -0.1094   0.1943  -0.2995   0.00    0.0
2025/04/01 03:04:00.000   39.135151090  141.132872543   117.0358   6  21   0.2644   0.5632   0.6451  -0.0925   0.1871  -0.2557   0.00    0.0
2025/04/01 03:04:30.000   39.135150334  141.132871569   117.1522   6  21   0.2277   0.5030   0.5622  -0.0799   0.1775  -0.2213   0.00    0.0
2025/04/01 03:05:00.000   39.135149925  141.132871016   117.2601   6  21   0.1987   0.4523   0.4956  -0.0704   0.1671  -0.1938   0.00    0.0
2025/04/01 03:05:30.000   39.135149421  141.132871535   117.3317   6  21   0.1754   0.4092   0.4412  -0.0629   0.1565  -0.1714   0.00    0.0
2025/04/01 03:06:00.000   39.135149660  141.132871429   117.3904   6  21   0.1563   0.3723   0.3961  -0.0570   0.1462  -0.1531   0.00    0.0
2025/04/01 03:06:30.000   39.135150029  141.132871035   117.4576   6  21   0.1406   0.3403   0.3582  -0.0521   0.1365  -0.1378   0.00    0.0
2025/04/01 03:07:00.000   39.135149874  141.132871594   117.3874   6  21   0.1272   0.3126   0.3260  -0.0483   0.1276  -0.1248   0.00    0.0
2025/04/01 03:07:30.000   39.135150074  141.132871216   117.3716   6  21   0.1160   0.2883   0.2984  -0.0449   0.1193  -0.1138   0.00    0.0
2025/04/01 03:08:00.000   39.135150457  141.132870970   117.2990   6  21   0.1064   0.2669   0.2746  -0.0421   0.1118  -0.1042   0.00    0.0
2025/04/01 03:08:30.000   39.135150468  141.132870942   117.2719   6  21   0.0980   0.2480   0.2538  -0.0397   0.1049  -0.0960   0.00    0.0
2025/04/01 03:09:00.000   39.135150309  141.132870752   117.3086   6  21   0.0907   0.2312   0.2357  -0.0376   0.0985  -0.0888   0.00    0.0
2025/04/01 03:09:30.000   39.135150280  141.132871066   117.2966   6  21   0.0844   0.2162   0.2196  -0.0357   0.0928  -0.0825   0.00    0.0
2025/04/01 03:10:00.000   39.135150360  141.132870979   117.2748   6  21   0.0787   0.2027   0.2054  -0.0342   0.0876  -0.0769   0.00    0.0
2025/04/01 03:10:30.000   39.135150478  141.132871201   117.2647   6  21   0.0738   0.1906   0.1927  -0.0326   0.0828  -0.0719   0.00    0.0
2025/04/01 03:11:00.000   39.135150500  141.132871099   117.3563   6  21   0.0695   0.1797   0.1814  -0.0313   0.0785  -0.0675   0.00    0.0
2025/04/01 03:11:30.000   39.135150417  141.132871179   117.2922   6  21   0.0653   0.1697   0.1712  -0.0302   0.0744  -0.0634   0.00    0.0
2025/04/01 03:12:00.000   39.135150494  141.132871547   117.2085   6  21   0.0618   0.1607   0.1620  -0.0291   0.0707  -0.0598   0.00    0.0
2025/04/01 03:12:30.000   39.135150751  141.132871716   117.2678   6  21   0.0585   0.1525   0.1537  -0.0281   0.0673  -0.0565   0.00    0.0
2025/04/01 03:13:00.000   39.135150493  141.132871482   117.2450   6  21   0.0556   0.1450   0.1462  -0.0269   0.0643  -0.0534   0.00    0.0
2025/04/01 03:13:30.000   39.135150377  141.132871311   117.2264   6  21   0.0530   0.1381   0.1392  -0.0263   0.0614  -0.0506   0.00    0.0
2025/04/01 03:14:00.000   39.135150520  141.132871351   117.2901   6  21   0.0506   0.1317   0.1328  -0.0255   0.0588  -0.0482   0.00    0.0
2025/04/01 03:14:30.000   39.135150548  141.132871365   117.1917   6  21   0.0484   0.1258   0.1270  -0.0249   0.0563  -0.0459   0.00    0.0
2025/04/01 03:15:00.000   39.135150514  141.132871417   117.1644   6  21   0.0463   0.1204   0.1218  -0.0243   0.0541  -0.0438   0.00    0.0
2025/04/01 03:15:30.000   39.135150582  141.132871361   117.2136   6  22   0.0446   0.1154   0.1168  -0.0236   0.0518  -0.0418   0.00    0.0
2025/04/01 03:16:00.000   39.135150492  141.132871210   117.2371   6  22   0.0428   0.1107   0.1122  -0.0229   0.0499  -0.0400   0.00    0.0
2025/04/01 03:16:30.000   39.135150565  141.132871144   117.2300   6  22   0.0412   0.1064   0.1081  -0.0226   0.0481  -0.0382   0.00    0.0
2025/04/01 03:17:00.000   39.135150581  141.132871116   117.2305   6  22   0.0397   0.1024   0.1043  -0.0219   0.0463  -0.0368   0.00    0.0
2025/04/01 03:17:30.000   39.135150560  141.132871154   117.2173   6  22   0.0384   0.0986   0.1007  -0.0216   0.0448  -0.0352   0.00    0.0
2025/04/01 03:18:00.000   39.135150619  141.132871094   117.2454   6  21   0.0372   0.0951   0.0973  -0.0209   0.0432  -0.0337   0.00    0.0
2025/04/01 03:18:30.000   39.135150630  141.132870969   117.2376   6  21   0.0362   0.0918   0.0940  -0.0204   0.0419  -0.0327   0.00    0.0
2025/04/01 03:19:00.000   39.135150660  141.132870926   117.2082   6  21   0.0351   0.0886   0.0913  -0.0201   0.0405  -0.0313   0.00    0.0
2025/04/01 03:19:30.000   39.135150653  141.132870935   117.2092   6  21   0.0340   0.0858   0.0884  -0.0197   0.0392  -0.0302   0.00    0.0
2025/04/01 03:20:00.000   39.135150711  141.132871039   117.1983   6  21   0.0329   0.0830   0.0859  -0.0193   0.0381  -0.0290   0.00    0.0
2025/04/01 03:20:30.000   39.135150679  141.132871094   117.1916   6  21   0.0320   0.0806   0.0835  -0.0191   0.0368  -0.0280   0.00    0.0
2025/04/01 03:21:00.000   39.135150805  141.132871086   117.2378   6  21   0.0311   0.0780   0.0813  -0.0189   0.0358  -0.0272   0.00    0.0
2025/04/01 03:21:30.000   39.135150728  141.132871067   117.2242   6  21   0.0306   0.0758   0.0791  -0.0184   0.0348  -0.0264   0.00    0.0
2025/04/01 03:22:00.000   39.135150733  141.132871134   117.2033   6  21   0.0298   0.0736   0.0769  -0.0182   0.0340  -0.0255   0.00    0.0
2025/04/01 03:22:30.000   39.135150788  141.132871138   117.2135   6  21   0.0290   0.0715   0.0752  -0.0174   0.0330  -0.0247   0.00    0.0
2025/04/01 03:23:00.000   39.135150676  141.132871162   117.1963   6  21   0.0284   0.0696   0.0733  -0.0176   0.0323  -0.0237   0.00    0.0
2025/04/01 03:23:30.000   39.135150690  141.132871228   117.1969   6  21   0.0277   0.0678   0.0718  -0.0173   0.0314  -0.0230   0.00    0.0
2025/04/01 03:24:00.000   39.135150768  141.132871179   117.2501   6  21   0.0274   0.0660   0.0701  -0.0171   0.0307  -0.0225   0.00    0.0
2025/04/01 03:24:30.000   39.135150710  141.132871286   117.2275   6  21   0.0266   0.0643   0.0686  -0.0167   0.0299  -0.0217   0.00    0.0
2025/04/01 03:25:00.000   39.135150544  141.132871364   117.1905   6  21   0.0264   0.0628   0.0672  -0.0163   0.0293  -0.0207   0.00    0.0
2025/04/01 03:25:30.000   39.135150692  141.132871419   117.2425   6  21   0.0257   0.0611   0.0658  -0.0164   0.0285  -0.0208   0.00    0.0
2025/04/01 03:26:00.000   39.135150698  141.132871317   117.2332   6  21   0.0257   0.0597   0.0645  -0.0158   0.0279  -0.0201   0.00    0.0
2025/04/01 03:26:30.000   39.135150748  141.132871330   117.2111   6  21   0.0248   0.0585   0.0633  -0.0159   0.0274  -0.0193   0.00    0.0
2025/04/01 03:27:00.000   39.135150651  141.132871427   117.1761   6  21   0.0243   0.0572   0.0622  -0.0157   0.0267  -0.0188   0.00    0.0
2025/04/01 03:27:30.000   39.135150691  141.132871432   117.1889   6  21   0.0241   0.0559   0.0611  -0.0155   0.0258  -0.0187   0.00    0.0
2025/04/01 03:28:00.000   39.135150776  141.132871401   117.2151   6  21   0.0237   0.0548   0.0601  -0.0154   0.0256  -0.0180   0.00    0.0
2025/04/01 03:28:30.000   39.135150717  141.132871390   117.2066   6  21   0.0237   0.0535   0.0590  -0.0152   0.0251  -0.0177   0.00    0.0
2025/04/01 03:29:00.000   39.135150814  141.132871445   117.2067   6  21   0.0229   0.0524   0.0581  -0.0151   0.0248  -0.0171   0.00    0.0
2025/04/01 03:29:30.000   39.135150745  141.132871460   117.1759   6  21   0.0227   0.0514   0.0571  -0.0151   0.0241  -0.0166   0.00    0.0
2025/04/01 03:30:00.000   39.135150684  141.132871500   117.1614   6  21   0.0222   0.0504   0.0562  -0.0144   0.0237  -0.0163   0.00    0.0
2025/04/01 03:30:30.000   39.135150805  141.132871552   117.1893   6  21   0.0220   0.0495   0.0552  -0.0146   0.0233  -0.0158   0.00    0.0
2025/04/01 03:31:00.000   39.135150718  141.132871590   117.1714   6  21   0.0220   0.0485   0.0545  -0.0146   0.0228  -0.0156   0.00    0.0
2025/04/01 03:31:30.000   39.135150705  141.132871670   117.1638   6  21   0.0215   0.0476   0.0536  -0.0143   0.0226  -0.0149   0.00    0.0
2025/04/01 03:32:00.000   39.135150720  141.132871707   117.1749   6  22   0.0216   0.0468   0.0531  -0.0141   0.0221  -0.0150   0.00    0.0
2025/04/01 03:32:30.000   39.135150844  141.132871663   117.2133   6  22   0.0210   0.0459   0.0525  -0.0138   0.0215  -0.0149   0.00    0.0
2025/04/01 03:33:00.000   39.135150688  141.132871699   117.1533   6  22   0.0210   0.0453   0.0514  -0.0139   0.0214  -0.0140   0.00    0.0
2025/04/01 03:33:30.000   39.135150711  141.132871710   117.1569   6  22   0.0208   0.0443   0.0507  -0.0136   0.0210  -0.0139   0.00    0.0
2025/04/01 03:34:00.000   39.135150758  141.132871815   117.1528   6  22   0.0207   0.0437   0.0500  -0.0139   0.0204  -0.0139   0.00    0.0
2025/04/01 03:34:30.000   39.135150769  141.132871815   117.1655   6  22   0.0202   0.0428   0.0496  -0.0138   0.0204  -0.0133   0.00    0.0
2025/04/01 03:35:00.000   39.135150743  141.132871849   117.1464   6  22   0.0200   0.0422   0.0486  -0.0136   0.0198  -0.0131   0.00    0.0
2025/04/01 03:35:30.000   39.135150791  141.132871877   117.1647   6  22   0.0199   0.0417   0.0484  -0.0134   0.0196  -0.0128   0.00    0.0
2025/04/01 03:36:00.000   39.135150789  141.132871865   117.1634   6  22   0.0198   0.0410   0.0478  -0.0128   0.0193  -0.0128   0.00    0.0
2025/04/01 03:36:30.000   39.135150824  141.132871870   117.1663   6  22   0.0198   0.0404   0.0474  -0.0130   0.0191  -0.0121   0.00    0.0
2025/04/01 03:37:00.000   39.135150642  141.132871761   117.1392   6  23   0.0197   0.0398   0.0466  -0.0133   0.0187  -0.0117   0.00    0.0
2025/04/01 03:37:30.000   39.135150776  141.132871770   117.1494   6  23   0.0192   0.0391   0.0461  -0.0129   0.0182  -0.0121   0.00    0.0
2025/04/01 03:38:00.000   39.135150734  141.132871767   117.1407   6  23   0.0194   0.0387   0.0455  -0.0125   0.0180  -0.0116   0.00    0.0
2025/04/01 03:38:30.000   39.135150773  141.132871765   117.1591   6  24   0.0192   0.0382   0.0450  -0.0126   0.0173  -0.0116   0.00    0.0
2025/04/01 03:39:00.000   39.135150732  141.132871787   117.1514   6  24   0.0189   0.0375   0.0439  -0.0126   0.0177  -0.0115   0.00    0.0
2025/04/01 03:39:30.000   39.135150818  141.132871754   117.1499   6  24   0.0189   0.0370   0.0436  -0.0124   0.0173  -0.0118   0.00    0.0
2025/04/01 03:40:00.000   39.135150775  141.132871718   117.1320   6  24   0.0184   0.0366   0.0431  -0.0121   0.0170  -0.0116   0.00    0.0
2025/04/01 03:40:30.000   39.135150810  141.132871769   117.1571   6  24   0.0181   0.0362   0.0427  -0.0122   0.0163  -0.0113   0.00    0.0
2025/04/01 03:41:00.000   39.135150911  141.132871781   117.1535   6  24   0.0184   0.0356   0.0423  -0.0119   0.0164  -0.0112   0.00    0.0
2025/04/01 03:41:30.000   39.135150815  141.132871682   117.1272   6  24   0.0181   0.0351   0.0415  -0.0119   0.0163  -0.0110   0.00    0.0
2025/04/01 03:42:00.000   39.135150701  141.132871655   117.1294   6  24   0.0180   0.0346   0.0415  -0.0117   0.0155  -0.0110   0.00    0.0
2025/04/01 03:42:30.000   39.135150716  141.132871731   117.1217   6  24   0.0173   0.0343   0.0406  -0.0117   0.0158  -0.0118   0.00    0.0
2025/04/01 03:43:00.000   39.135150821  141.132871802   117.1487   6  24   0.0172   0.0338   0.0402  -0.0109   0.0157  -0.0117   0.00    0.0
2025/04/01 03:43:30.000   39.135150896  141.132871748   117.1462   6  24   0.0174   0.0335   0.0403  -0.0121   0.0148  -0.0102   0.00    0.0
2025/04/01 03:44:00.000   39.135150824  141.132871659   117.1284   6  24   0.0174   0.0332   0.0400  -0.0115   0.0149  -0.0106   0.00    0.0
2025/04/01 03:44:30.000   39.135150740  141.132871654   117.1168   6  24   0.0172   0.0330   0.0398  -0.0111   0.0150  -0.0101   0.00    0.0
2025/04/01 03:45:00.000   39.135150761  141.132871712   117.1143   6  24   0.0178   0.0323   0.0390  -0.0111   0.0144  -0.0102   0.00    0.0
2025/04/01 03:45:30.000   39.135150810  141.132871749   117.1312   6  24   0.0172   0.0321   0.0390  -0.0112   0.0144  -0.0101   0.00    0.0
2025/04/01 03:46:00.000   39.135150796  141.132871818   117.1377   6  24   0.0173   0.0318   0.0388  -0.0109   0.0141  -0.0096   0.00    0.0
2025/04/01 03:46:30.000   39.135150778  141.132871786   117.1416   6  24   0.0173   0.0313   0.0383  -0.0109   0.0141  -0.0099   0.00    0.0
2025/04/01 03:47:00.000   39.135150919  141.132871851   117.1727   6  24   0.0170   0.0311   0.0383  -0.0107   0.0135  -0.0097   0.00    0.0
2025/04/01 03:47:30.000   39.135150759  141.132871884   117.1459   6  24   0.0173   0.0307   0.0384  -0.0109   0.0133  -0.0082   0.00    0.0
2025/04/01 03:48:00.000   39.135150774  141.132871785   117.1148   6  24   0.0172   0.0304   0.0381  -0.0110   0.0130  -0.0084   0.00    0.0
2025/04/01 03:48:30.000   39.135150772  141.132871802   117.1253   6  24   0.0171   0.0301   0.0380  -0.0109   0.0127  -0.0084   0.00    0.0
2025/04/01 03:49:00.000   39.135150724  141.132871837   117.1328   6  24   0.0168   0.0300   0.0374  -0.0108   0.0123  -0.0084   0.00    0.0
2025/04/01 03:49:30.000   39.135150744  141.132871856   117.1432   6  24   0.0165   0.0295   0.0373  -0.0106   0.0128  -0.0092   0.00    0.0
2025/04/01 03:50:00.000   39.135150772  141.132871818   117.1385   6  23   0.0175   0.0293   0.0373  -0.0098   0.0131  -0.0068   0.00    0.0
2025/04/01 03:50:30.000   39.135150752  141.132871837   117.1342   6  23   0.0176   0.0292   0.0375  -0.0102   0.0126  -0.0046   0.00    0.0
2025/04/01 03:51:00.000   39.135150748  141.132871828   117.1422   6  23   0.0169   0.0289   0.0364  -0.0098   0.0124  -0.0086   0.00    0.0
2025/04/01 03:51:30.000   39.135150749  141.132871775   117.1294   6  23   0.0163   0.0285   0.0364  -0.0098   0.0125  -0.0078   0.00    0.0
2025/04/01 03:52:00.000   39.135150733  141.132871698   117.1222   6  23   0.0163   0.0286   0.0363  -0.0090   0.0124  -0.0079   0.00    0.0
2025/04/01 03:52:30.000   39.135150744  141.132871822   117.1364   6  23   0.0175   0.0282   0.0366  -0.0096   0.0119  -0.0052   0.00    0.0
2025/04/01 03:53:00.000   39.135150810  141.132871898   117.1646   6  23   0.0164   0.0281   0.0358  -0.0090   0.0120  -0.0078   0.00    0.0
2025/04/01 03:53:30.000   39.135150722  141.132871727   117.1240   6  24   0.0167   0.0276   0.0354  -0.0092   0.0116  -0.0084   0.00    0.0
2025/04/01 03:54:00.000   39.135150783  141.132871836   117.1482   6  24   0.0157   0.0274   0.0351  -0.0091   0.0114  -0.0089   0.00    0.0
2025/04/01 03:54:30.000   39.135150830  141.132871755   117.1460   6  24   0.0168   0.0271   0.0350  -0.0097   0.0109  -0.0078   0.00    0.0
2025/04/01 03:55:00.000   39.135150822  141.132871813   117.1459   6  24   0.0165   0.0271   0.0348  -0.0096   0.0109  -0.0079   0.00    0.0
2025/04/01 03:55:30.000   39.135150780  141.132871774   117.1497   6  24   0.0164   0.0268   0.0344  -0.0096   0.0107  -0.0083   0.00    0.0
2025/04/01 03:56:00.000   39.135150772  141.132871752   117.1395   6  24   0.0159   0.0266   0.0340  -0.0094   0.0109  -0.0087   0.00    0.0
2025/04/01 03:56:30.000   39.135150732  141.132871776   117.1402   6  24   0.0154   0.0264   0.0338  -0.0091   0.0106  -0.0095   0.00    0.0
2025/04/01 03:57:00.000   39.135150778  141.132871821   117.1427   6  25   0.0155   0.0263   0.0337  -0.0091   0.0106  -0.0092   0.00    0.0
2025/04/01 03:57:30.000   39.135150835  141.132871869   117.1520   6  25   0.0154   0.0258   0.0333  -0.0091   0.0101  -0.0096   0.00    0.0
2025/04/01 03:58:00.000   39.135150781  141.132871824   117.1406   6  25   0.0148   0.0257   0.0332  -0.0087   0.0104  -0.0093   0.00    0.0
2025/04/01 03:58:30.000   39.135150765  141.132871830   117.1589   6  25   0.0149   0.0259   0.0332  -0.0088   0.0109  -0.0090   0.00    0.0
2025/04/01 03:59:00.000   39.135150761  141.132871798   117.1545   6  25   0.0149   0.0256   0.0330  -0.0094   0.0104  -0.0093   0.00    0.0
2025/04/01 03:59:30.000   39.135150750  141.132871779   117.1418   6  25   0.0150   0.0253   0.0327  -0.0087   0.0104  -0.0097   0.00    0.0
