% program    : MADOCALIB ver.2.0
% inp file   : .\data\rinex\MIZU00JPN_R_20250910000_01D_30S_MO.rnx
% inp file   : .\data\rinex\BRDM00DLR_S_20250910000_01D_MN.rnx
% inp file   : .\data\l6_is-qzss-mdc-004\%Y\%n\%Y%n%HU.204.l6
% inp file   : .\data\l6_is-qzss-mdc-004\%Y\%n\%Y%n%HU.206.l6
% satantfile : 
% rcvantfile : .\data\igs20.atx
% obs start  : 2025/04/01 04:00:00.0 GPST (week2360 187200.0s)
% obs end    : 2025/04/01 04:59:30.0 GPST (week2360 190770.0s)
% pos mode   : PPP Kinematic
% freqs      : L1+2
% siggps     : L1/L2/L5
% sigqzs     : L1/L5/L2
% siggal     : E1/E5a/E5b/E6
% sigbds2    : B1I/B3I/B2I
% sigbds3    : B1I/B3I/B2a
% solution   : Forward
% elev mask  : 10.0 deg
% dynamics   : off
% tidecorr   : on
% ionos opt  : Iono-Free LC
% tropo opt  : Estimate ZTD
% ephemeris  : Broadcast+SSR APC
% navi sys   : GPS GLONASS Galileo QZSS
% amb mode   : OFF
% ar sys     : GPS Galileo QZSS BDS
% val ratio  : 1.5
% max std pos: 1.5 m
% ionocorr   : off
% antenna1   : SEPCHOKE_B3E6   NONE  ( 0.0000  0.0000  0.1206)
%
% (lat/lon/height=WGS84/ellipsoidal,Q=1:fix,2:float,3:sbas,4:dgps,5:single,6:ppp,ns=# of satellites)
%  GPST                  latitude(deg) longitude(deg)  height(m)   Q  ns   sdn(m)   sde(m)   sdu(m)  sdne(m)  sdeu(m)  sdun(m) age(s)  ratio
2025/04/01 04:00:00.000   39.135146182  141.132876025   116.6386   6  25   2.8870   2.6509   5.1648   0.6843  -0.9100  -0.7108   0.00    0.0
2025/04/01 04:00:30.000   39.135147848  141.132873127   117.0274   6  25   1.6464   1.8445   2.9215   0.1818  -0.5159  -0.8930   0.00    0.0
2025/04/01 04:01:00.000   39.135151111  141.132875765   117.4591   6  25   1.0801   1.4675   1.9388  -0.2728  -0.2528  -0.7140   0.00    0.0
2025/04/01 04:01:30.000   39.135149890  141.132875257   117.2364   6  25   0.7710   1.2318   1.4320  -0.3135   0.1228  -0.5506   0.00    0.0
2025/04/01 04:02:00.000   39.135149439  141.132874816   116.9038   6  25   0.5834   1.0742   1.1512  -0.3128   0.1178  -0.4362   0.00    0.0
2025/04/01 04:02:30.000   39.135150221  141.132876377   116.7652   6  25   0.4614   0.9551   0.9432  -0.2997   0.1523  -0.3572   0.00    0.0
2025/04/01 04:03:00.000   39.135149907  141.132874907   116.7550   6  25   0.3773   0.8608   0.7867  -0.2836   0.1771  -0.3001   0.00    0.0
2025/04/01 04:03:30.000   39.135149595  141.132873260   116.8356   6  24   0.3187   0.7901   0.6681  -0.2735   0.1776  -0.2546   0.00    0.0
2025/04/01 04:04:00.000   39.135150100  141.132873947   116.7950   6  24   0.2744   0.7290   0.5760  -0.2607   0.1737  -0.2194   0.00    0.0
2025/04/01 04:04:30.000   39.135150473  141.132875508   116.8986   6  24   0.2403   0.6752   0.5271  -0.2470   0.1641  -0.1963   0.00    0.0
2025/04/01 04:05:00.000   39.135150267  141.132874475   116.9848   6  24   0.2131   0.6274   0.4834  -0.2336   0.1547  -0.1753   0.00    0.0
2025/04/01 04:05:30.000   39.135150194  141.132874570   117.0151   6  24   0.1913   0.5901   0.4433  -0.2226   0.1479  -0.1581   0.00    0.0
2025/04/01 04:06:00.000   39.135149932  141.132873842   117.0912   6  24   0.1732   0.5561   0.4067  -0.2120   0.1436  -0.1438   0.00    0.0
2025/04/01 04:06:30.000   39.135149919  141.132873712   117.1886   6  24   0.1582   0.5250   0.3734  -0.2020   0.1393  -0.1317   0.00    0.0
2025/04/01 04:07:00.000   39.135150107  141.132874754   117.1666   6  24   0.1455   0.4963   0.3430  -0.1926   0.1351  -0.1212   0.00    0.0
2025/04/01 04:07:30.000   39.135150236  141.132874719   117.1336   6  24   0.1345   0.4700   0.3157  -0.1838   0.1307  -0.1121   0.00    0.0
2025/04/01 04:08:00.000   39.135150111  141.132873562   117.1697   6  24   0.1252   0.4457   0.2911  -0.1756   0.1263  -0.1041   0.00    0.0
2025/04/01 04:08:30.000   39.135150268  141.132874104   117.1917   6  24   0.1169   0.4232   0.2689  -0.1678   0.1219  -0.0971   0.00    0.0
2025/04/01 04:09:00.000   39.135150306  141.132874091   117.1753   6  24   0.1097   0.4025   0.2491  -0.1605   0.1177  -0.0908   0.00    0.0
2025/04/01 04:09:30.000   39.135150195  141.132873892   117.1897   6  24   0.1033   0.3833   0.2312  -0.1537   0.1135  -0.0853   0.00    0.0
2025/04/01 04:10:00.000   39.135150318  141.132873999   117.1750   6  24   0.0976   0.3654   0.2153  -0.1473   0.1095  -0.0803   0.00    0.0
2025/04/01 04:10:30.000   39.135150485  141.132874097   117.1433   6  24   0.0924   0.3486   0.2009  -0.1414   0.1055  -0.0758   0.00    0.0
2025/04/01 04:11:00.000   39.135150366  141.132873669   117.1535   6  24   0.0877   0.3330   0.1880  -0.1357   0.1018  -0.0718   0.00    0.0
2025/04/01 04:11:30.000   39.135150374  141.132873754   117.1678   6  24   0.0835   0.3183   0.1764  -0.1304   0.0982  -0.0681   0.00    0.0
2025/04/01 04:12:00.000   39.135150251  141.132873701   117.2076   6  24   0.0797   0.3046   0.1658  -0.1254   0.0948  -0.0648   0.00    0.0
2025/04/01 04:12:30.000   39.135150393  141.132873708   117.1932   6  24   0.0762   0.2918   0.1562  -0.1207   0.0916  -0.0618   0.00    0.0
2025/04/01 04:13:00.000   39.135150328  141.132873402   117.2019   6  23   0.0729   0.2798   0.1478  -0.1163   0.0885  -0.0591   0.00    0.0
2025/04/01 04:13:30.000   39.135150343  141.132873333   117.2024   6  22   0.0700   0.2688   0.1410  -0.1122   0.0861  -0.0567   0.00    0.0
2025/04/01 04:14:00.000   39.135150316  141.132873166   117.2043   6  22   0.0673   0.2583   0.1352  -0.1082   0.0838  -0.0545   0.00    0.0
2025/04/01 04:14:30.000   39.135150296  141.132873510   117.1912   6  22   0.0647   0.2484   0.1300  -0.1045   0.0816  -0.0525   0.00    0.0
2025/04/01 04:15:00.000   39.135150286  141.132873577   117.2022   6  22   0.0625   0.2392   0.1252  -0.1010   0.0795  -0.0506   0.00    0.0
2025/04/01 04:15:30.000   39.135150324  141.132873312   117.2149   6  22   0.0602   0.2304   0.1207  -0.0978   0.0775  -0.0489   0.00    0.0
2025/04/01 04:16:00.000   39.135150304  141.132873550   117.2329   6  22   0.0582   0.2221   0.1167  -0.0947   0.0755  -0.0473   0.00    0.0
2025/04/01 04:16:30.000   39.135150381  141.132873301   117.2231   6  22   0.0563   0.2143   0.1129  -0.0916   0.0735  -0.0458   0.00    0.0
2025/04/01 04:17:00.000   39.135150321  141.132873059   117.2148   6  22   0.0546   0.2068   0.1095  -0.0889   0.0717  -0.0444   0.00    0.0
2025/04/01 04:17:30.000   39.135150231  141.132873693   117.2370   6  22   0.0530   0.1999   0.1064  -0.0863   0.0699  -0.0432   0.00    0.0
2025/04/01 04:18:00.000   39.135150337  141.132873710   117.2348   6  22   0.0514   0.1932   0.1034  -0.0837   0.0683  -0.0419   0.00    0.0
2025/04/01 04:18:30.000   39.135150296  141.132873295   117.2335   6  22   0.0501   0.1869   0.1006  -0.0813   0.0666  -0.0408   0.00    0.0
2025/04/01 04:19:00.000   39.135150304  141.132873330   117.2175   6  22   0.0487   0.1809   0.0981  -0.0790   0.0649  -0.0398   0.00    0.0
2025/04/01 04:19:30.000   39.135150339  141.132873190   117.2097   6  22   0.0473   0.1754   0.0959  -0.0769   0.0633  -0.0387   0.00    0.0
2025/04/01 04:20:00.000   39.135150322  141.132873299   117.2286   6  21   0.0465   0.1700   0.0952  -0.0749   0.0613  -0.0361   0.00    0.0
2025/04/01 04:20:30.000   39.135150284  141.132873407   117.2209   6  21   0.0453   0.1649   0.0933  -0.0729   0.0600  -0.0352   0.00    0.0
2025/04/01 04:21:00.000   39.135150413  141.132873173   117.2311   6  21   0.0444   0.1601   0.0915  -0.0711   0.0586  -0.0345   0.00    0.0
2025/04/01 04:21:30.000   39.135150329  141.132873278   117.2100   6  21   0.0434   0.1554   0.0899  -0.0693   0.0573  -0.0334   0.00    0.0
2025/04/01 04:22:00.000   39.135150432  141.132873110   117.2448   6  21   0.0423   0.1510   0.0884  -0.0676   0.0560  -0.0325   0.00    0.0
2025/04/01 04:22:30.000   39.135150521  141.132873133   117.2148   6  21   0.0416   0.1468   0.0867  -0.0660   0.0549  -0.0320   0.00    0.0
2025/04/01 04:23:00.000   39.135150476  141.132873033   117.1844   6  21   0.0405   0.1428   0.0854  -0.0644   0.0536  -0.0308   0.00    0.0
2025/04/01 04:23:30.000   39.135150380  141.132873160   117.2205   6  22   0.0398   0.1389   0.0841  -0.0629   0.0524  -0.0304   0.00    0.0
2025/04/01 04:24:00.000   39.135150451  141.132872951   117.2230   6  22   0.0387   0.1352   0.0823  -0.0614   0.0515  -0.0301   0.00    0.0
2025/04/01 04:24:30.000   39.135150499  141.132872790   117.2094   6  22   0.0379   0.1317   0.0811  -0.0599   0.0503  -0.0297   0.00    0.0
2025/04/01 04:25:00.000   39.135150405  141.132873140   117.2375   6  22   0.0373   0.1284   0.0797  -0.0586   0.0496  -0.0291   0.00    0.0
2025/04/01 04:25:30.000   39.135150450  141.132873023   117.2481   6  21   0.0366   0.1251   0.0784  -0.0572   0.0487  -0.0287   0.00    0.0
2025/04/01 04:26:00.000   39.135150374  141.132873082   117.2349   6  21   0.0361   0.1220   0.0771  -0.0560   0.0477  -0.0282   0.00    0.0
2025/04/01 04:26:30.000   39.135150357  141.132873020   117.2365   6  21   0.0353   0.1190   0.0759  -0.0548   0.0469  -0.0278   0.00    0.0
2025/04/01 04:27:00.000   39.135150428  141.132872896   117.2354   6  21   0.0347   0.1163   0.0751  -0.0538   0.0460  -0.0273   0.00    0.0
2025/04/01 04:27:30.000   39.135150490  141.132873224   117.2357   6  21   0.0342   0.1135   0.0738  -0.0526   0.0452  -0.0270   0.00    0.0
2025/04/01 04:28:00.000   39.135150411  141.132872841   117.2362   6  21   0.0339   0.1109   0.0729  -0.0516   0.0444  -0.0267   0.00    0.0
2025/04/01 04:28:30.000   39.135150412  141.132872802   117.2509   6  21   0.0331   0.1085   0.0720  -0.0506   0.0436  -0.0259   0.00    0.0
2025/04/01 04:29:00.000   39.135150337  141.132873063   117.2398   6  21   0.0325   0.1061   0.0708  -0.0497   0.0431  -0.0256   0.00    0.0
2025/04/01 04:29:30.000   39.135150399  141.132872942   117.2419   6  21   0.0322   0.1037   0.0701  -0.0487   0.0425  -0.0253   0.00    0.0
2025/04/01 04:30:00.000   39.135150453  141.132872936   117.2294   6  21   0.0317   0.1015   0.0693  -0.0479   0.0416  -0.0250   0.00    0.0
2025/04/01 04:30:30.000   39.135150511  141.132872894   117.2265   6  21   0.0314   0.0994   0.0684  -0.0470   0.0411  -0.0248   0.00    0.0
2025/04/01 04:31:00.000   39.135150467  141.132872865   117.2458   6  21   0.0306   0.0973   0.0676  -0.0461   0.0403  -0.0243   0.00    0.0
2025/04/01 04:31:30.000   39.135150349  141.132872927   117.2345   6  21   0.0304   0.0953   0.0668  -0.0453   0.0398  -0.0238   0.00    0.0
2025/04/01 04:32:00.000   39.135150424  141.132873013   117.2599   6  21   0.0300   0.0934   0.0660  -0.0445   0.0393  -0.0237   0.00    0.0
2025/04/01 04:32:30.000   39.135150427  141.132872906   117.2412   6  21   0.0296   0.0916   0.0652  -0.0438   0.0385  -0.0235   0.00    0.0
2025/04/01 04:33:00.000   39.135150518  141.132873067   117.2340   6  21   0.0293   0.0898   0.0645  -0.0431   0.0382  -0.0231   0.00    0.0
2025/04/01 04:33:30.000   39.135150416  141.132873034   117.2630   6  21   0.0289   0.0881   0.0635  -0.0424   0.0378  -0.0230   0.00    0.0
2025/04/01 04:34:00.000   39.135150351  141.132872903   117.2551   6  21   0.0286   0.0864   0.0626  -0.0416   0.0373  -0.0229   0.00    0.0
2025/04/01 04:34:30.000   39.135150415  141.132872901   117.2382   6  22   0.0284   0.0848   0.0618  -0.0409   0.0369  -0.0228   0.00    0.0
2025/04/01 04:35:00.000   39.135150453  141.132873050   117.2507   6  22   0.0280   0.0832   0.0611  -0.0403   0.0365  -0.0223   0.00    0.0
2025/04/01 04:35:30.000   39.135150428  141.132873066   117.2543   6  22   0.0280   0.0817   0.0606  -0.0397   0.0359  -0.0225   0.00    0.0
2025/04/01 04:36:00.000   39.135150426  141.132873103   117.2560   6  22   0.0271   0.0802   0.0599  -0.0389   0.0356  -0.0219   0.00    0.0
2025/04/01 04:36:30.000   39.135150400  141.132873028   117.2538   6  22   0.0272   0.0788   0.0602  -0.0385   0.0348  -0.0211   0.00    0.0
2025/04/01 04:37:00.000   39.135150321  141.132873200   117.3148   6  22   0.0271   0.0774   0.0591  -0.0379   0.0347  -0.0211   0.00    0.0
2025/04/01 04:37:30.000   39.135150439  141.132873098   117.2921   6  22   0.0267   0.0762   0.0585  -0.0374   0.0341  -0.0212   0.00    0.0
2025/04/01 04:38:00.000   39.135150441  141.132872968   117.2470   6  22   0.0262   0.0748   0.0581  -0.0368   0.0337  -0.0211   0.00    0.0
2025/04/01 04:38:30.000   39.135150422  141.132872999   117.2474   6  22   0.0262   0.0735   0.0577  -0.0362   0.0334  -0.0205   0.00    0.0
2025/04/01 04:39:00.000   39.135150452  141.132873184   117.2508   6  22   0.0262   0.0723   0.0566  -0.0357   0.0331  -0.0210   0.00    0.0
2025/04/01 04:39:30.000   39.135150415  141.132873329   117.2733   6  22   0.0256   0.0711   0.0562  -0.0351   0.0328  -0.0206   0.00    0.0
2025/04/01 04:40:00.000   39.135150383  141.132873124   117.2671   6  22   0.0254   0.0700   0.0555  -0.0347   0.0324  -0.0203   0.00    0.0
2025/04/01 04:40:30.000   39.135150373  141.132873128   117.2807   6  22   0.0253   0.0690   0.0553  -0.0343   0.0318  -0.0202   0.00    0.0
2025/04/01 04:41:00.000   39.135150401  141.132873143   117.2653   6  22   0.0252   0.0679   0.0546  -0.0338   0.0318  -0.0201   0.00    0.0
2025/04/01 04:41:30.000   39.135150424  141.132873087   117.2629   6  22   0.0250   0.0668   0.0539  -0.0334   0.0314  -0.0200   0.00    0.0
2025/04/01 04:42:00.000   39.135150354  141.132873273   117.2863   6  22   0.0247   0.0658   0.0537  -0.0329   0.0310  -0.0200   0.00    0.0
2025/04/01 04:42:30.000   39.135150344  141.132873024   117.2653   6  22   0.0246   0.0649   0.0541  -0.0324   0.0307  -0.0192   0.00    0.0
2025/04/01 04:43:00.000   39.135150458  141.132873155   117.2601   6  22   0.0247   0.0639   0.0532  -0.0320   0.0302  -0.0194   0.00    0.0
2025/04/01 04:43:30.000   39.135150458  141.132873117   117.2867   6  22   0.0245   0.0628   0.0533  -0.0316   0.0299  -0.0190   0.00    0.0
2025/04/01 04:44:00.000   39.135150355  141.132873079   117.2830   6  22   0.0242   0.0619   0.0523  -0.0313   0.0298  -0.0190   0.00    0.0
2025/04/01 04:44:30.000   39.135150337  141.132873112   117.2716   6  23   0.0238   0.0611   0.0519  -0.0308   0.0294  -0.0192   0.00    0.0
2025/04/01 04:45:00.000   39.135150332  141.132873218   117.2632   6  23   0.0239   0.0602   0.0515  -0.0305   0.0292  -0.0191   0.00    0.0
2025/04/01 04:45:30.000   39.135150387  141.132873387   117.2872   6  23   0.0236   0.0593   0.0513  -0.0299   0.0288  -0.0192   0.00    0.0
2025/04/01 04:46:00.000   39.135150386  141.132873241   117.2922   6  23   0.0235   0.0585   0.0508  -0.0297   0.0287  -0.0190   0.00    0.0
2025/04/01 04:46:30.000   39.135150389  141.132873190   117.2745   6  23   0.0233   0.0576   0.0504  -0.0292   0.0284  -0.0186   0.00    0.0
2025/04/01 04:47:00.000   39.135150338  141.132873121   117.2824   6  23   0.0231   0.0570   0.0497  -0.0290   0.0283  -0.0189   0.00    0.0
2025/04/01 04:47:30.000   39.135150412  141.132873097   117.2905   6  23   0.0231   0.0562   0.0495  -0.0286   0.0280  -0.0185   0.00    0.0
2025/04/01 04:48:00.000   39.135150405  141.132873089   117.2784   6  23   0.0230   0.0553   0.0492  -0.0283   0.0277  -0.0186   0.00    0.0
2025/04/01 04:48:30.000   39.135150312  141.132873018   117.2875   6  23   0.0234   0.0547   0.0510  -0.0283   0.0267  -0.0167   0.00    0.0
2025/04/01 04:49:00.000   39.135150426  141.132873074   117.2878   6  24   0.0232   0.0540   0.0500  -0.0279   0.0268  -0.0174   0.00    0.0
2025/04/01 04:49:30.000   39.135150467  141.132873187   117.2843   6  24   0.0226   0.0532   0.0494  -0.0273   0.0266  -0.0177   0.00    0.0
2025/04/01 04:50:00.000   39.135150440  141.132872877   117.2686   6  24   0.0231   0.0525   0.0505  -0.0273   0.0260  -0.0164   0.00    0.0
2025/04/01 04:50:30.000   39.135150357  141.132872928   117.3047   6  24   0.0228   0.0518   0.0502  -0.0268   0.0258  -0.0163   0.00    0.0
2025/04/01 04:51:00.000   39.135150371  141.132872926   117.2921   6  24   0.0224   0.0512   0.0497  -0.0266   0.0256  -0.0161   0.00    0.0
2025/04/01 04:51:30.000   39.135150468  141.132873079   117.2836   6  24   0.0232   0.0505   0.0508  -0.0260   0.0259  -0.0152   0.00    0.0
2025/04/01 04:52:00.000   39.135150423  141.132872991   117.2839   6  24   0.0227   0.0500   0.0508  -0.0258   0.0255  -0.0146   0.00    0.0
2025/04/01 04:52:30.000   39.135150317  141.132872939   117.2969   6  24   0.0226   0.0493   0.0499  -0.0256   0.0251  -0.0153   0.00    0.0
2025/04/01 04:53:00.000   39.135150503  141.132872989   117.2775   6  24   0.0225   0.0486   0.0503  -0.0254   0.0253  -0.0145   0.00    0.0
2025/04/01 04:53:30.000   39.135150460  141.132873166   117.3005   6  24   0.0225   0.0483   0.0500  -0.0251   0.0250  -0.0151   0.00    0.0
2025/04/01 04:54:00.000   39.135150446  141.132872987   117.2924   6  24   0.0224   0.0476   0.0497  -0.0247   0.0249  -0.0149   0.00    0.0
2025/04/01 04:54:30.000   39.135150458  141.132872710   117.2841   6  24   0.0224   0.0469   0.0494  -0.0246   0.0248  -0.0150   0.00    0.0
2025/04/01 04:55:00.000   39.135150463  141.132872706   117.2775   6  23   0.0221   0.0465   0.0495  -0.0242   0.0246  -0.0148   0.00    0.0
2025/04/01 04:55:30.000   39.135150492  141.132872844   117.2746   6  23   0.0221   0.0459   0.0494  -0.0239   0.0244  -0.0150   0.00    0.0
2025/04/01 04:56:00.000   39.135150391  141.132872912   117.3171   6  23   0.0221   0.0454   0.0491  -0.0236   0.0245  -0.0147   0.00    0.0
2025/04/01 04:56:30.000   39.135150444  141.132872701   117.2828   6  23   0.0221   0.0448   0.0492  -0.0235   0.0243  -0.0146   0.00    0.0
2025/04/01 04:57:00.000   39.135150519  141.132872912   117.2986   6  23   0.0216   0.0445   0.0493  -0.0232   0.0241  -0.0143   0.00    0.0
2025/04/01 04:57:30.000   39.135150471  141.132872870   117.2913   6  23   0.0219   0.0438   0.0488  -0.0231   0.0240  -0.0147   0.00    0.0
2025/04/01 04:58:00.000   39.135150482  141.132872768   117.2794   6  23   0.0219   0.0434   0.0488  -0.0227   0.0238  -0.0148   0.00    0.0
2025/04/01 04:58:30.000   39.135150452  141.132872697   117.3036   6  24   0.0216   0.0429   0.0486  -0.0225   0.0238  -0.0148   0.00    0.0
2025/04/01 04:59:00.000   39.135150493  141.132872713   117.3003   6  24   0.0215   0.0423   0.0481  -0.0224   0.0234  -0.0147   0.00    0.0
2025/04/01 04:59:30.000   39.135150500  141.132872702   117.2946   6  24   0.0219   0.0418   0.0474  -0.0220   0.0233  -0.0152   0.00    0.0
