% program    : MADOCALIB ver.2.0
% inp file   : .\data\rinex\MIZU00JPN_R_20250910000_01D_30S_MO.rnx
% inp file   : .\data\rinex\BRDM00DLR_S_20250910000_01D_MN.rnx
% inp file   : .\data\l6_is-qzss-mdc-004\%Y\%n\%Y%n%HU.204.l6
% inp file   : .\data\l6_is-qzss-mdc-004\%Y\%n\%Y%n%HU.206.l6
% satantfile : 
% rcvantfile : .\data\igs20.atx
% obs start  : 2025/04/01 20:00:00.0 GPST (week2360 244800.0s)
% obs end    : 2025/04/01 20:59:30.0 GPST (week2360 248370.0s)
% pos mode   : PPP Kinematic
% freqs      : L1+2
% siggps     : L1/L2/L5
% sigqzs     : L1/L5/L2
% siggal     : E1/E5a/E5b/E6
% sigbds2    : B1I/B3I/B2I
% sigbds3    : B1I/B3I/B2a
% solution   : Forward
% elev mask  : 10.0 deg
% dynamics   : off
% tidecorr   : on
% ionos opt  : Iono-Free LC
% tropo opt  : Estimate ZTD
% ephemeris  : Broadcast+SSR APC
% navi sys   : GPS GLONASS Galileo QZSS
% amb mode   : OFF
% ar sys     : GPS Galileo QZSS BDS
% val ratio  : 1.5
% max std pos: 1.5 m
% ionocorr   : off
% antenna1   : SEPCHOKE_B3E6   NONE  ( 0.0000  0.0000  0.1206)
%
% (lat/lon/height=WGS84/ellipsoidal,Q=1:fix,2:float,3:sbas,4:dgps,5:single,6:ppp,ns=# of satellites)
%  GPST                  latitude(deg) longitude(deg)  height(m)   Q  ns   sdn(m)   sde(m)   sdu(m)  sdne(m)  sdeu(m)  sdun(m) age(s)  ratio
2025/04/01 20:00:00.000   39.135146494  141.132868625   117.8861   6  22   3.1809   2.7683   6.2251  -0.5679  -0.6154   1.5954   0.00    0.0
2025/04/01 20:00:30.000   39.135143204  141.132869072   115.6155   6  22   1.7991   1.9079   3.4480  -0.5436   0.2405  -0.8957   0.00    0.0
2025/04/01 20:01:00.000   39.135149745  141.132871086   117.1831   6  22   1.2094   1.4955   2.2859  -0.5188   0.4237  -0.8975   0.00    0.0
2025/04/01 20:01:30.000   39.135150042  141.132872647   117.9877   6  22   0.8862   1.2320   1.6648  -0.4788   0.4385  -0.7483   0.00    0.0
2025/04/01 20:02:00.000   39.135150987  141.132875223   117.9377   6  22   0.6856   1.0420   1.2861  -0.4338   0.4115  -0.6142   0.00    0.0
2025/04/01 20:02:30.000   39.135150657  141.132874415   117.6545   6  22   0.5509   0.8961   1.0338  -0.3900   0.3729  -0.5090   0.00    0.0
2025/04/01 20:03:00.000   39.135151022  141.132873022   117.3343   6  22   0.4554   0.7800   0.8546  -0.3499   0.3336  -0.4279   0.00    0.0
2025/04/01 20:03:30.000   39.135150013  141.132870341   117.0560   6  22   0.3848   0.6855   0.7214  -0.3142   0.2976  -0.3649   0.00    0.0
2025/04/01 20:04:00.000   39.135150313  141.132870700   116.8022   6  22   0.3308   0.6074   0.6189  -0.2830   0.2659  -0.3154   0.00    0.0
2025/04/01 20:04:30.000   39.135150999  141.132872302   116.8591   6  22   0.2884   0.5419   0.5381  -0.2557   0.2386  -0.2758   0.00    0.0
2025/04/01 20:05:00.000   39.135151385  141.132872532   116.9036   6  22   0.2544   0.4867   0.4730  -0.2319   0.2151  -0.2436   0.00    0.0
2025/04/01 20:05:30.000   39.135151370  141.132871883   117.1883   6  22   0.2267   0.4396   0.4198  -0.2112   0.1948  -0.2172   0.00    0.0
2025/04/01 20:06:00.000   39.135151289  141.132871218   117.1468   6  22   0.2036   0.3991   0.3757  -0.1932   0.1773  -0.1952   0.00    0.0
2025/04/01 20:06:30.000   39.135150962  141.132869897   117.0589   6  22   0.1843   0.3642   0.3387  -0.1774   0.1621  -0.1766   0.00    0.0
2025/04/01 20:07:00.000   39.135150646  141.132870455   117.0048   6  22   0.1679   0.3338   0.3074  -0.1635   0.1489  -0.1607   0.00    0.0
2025/04/01 20:07:30.000   39.135150522  141.132870737   116.9661   6  22   0.1539   0.3072   0.2806  -0.1512   0.1373  -0.1472   0.00    0.0
2025/04/01 20:08:00.000   39.135150657  141.132870670   117.0499   6  22   0.1417   0.2838   0.2575  -0.1403   0.1270  -0.1354   0.00    0.0
2025/04/01 20:08:30.000   39.135150830  141.132872016   117.0556   6  22   0.1311   0.2631   0.2375  -0.1306   0.1180  -0.1251   0.00    0.0
2025/04/01 20:09:00.000   39.135150652  141.132871390   117.0658   6  22   0.1218   0.2448   0.2199  -0.1220   0.1099  -0.1161   0.00    0.0
2025/04/01 20:09:30.000   39.135150640  141.132871037   117.1289   6  22   0.1135   0.2284   0.2044  -0.1142   0.1026  -0.1082   0.00    0.0
2025/04/01 20:10:00.000   39.135150943  141.132871510   117.0928   6  22   0.1063   0.2137   0.1908  -0.1072   0.0962  -0.1011   0.00    0.0
2025/04/01 20:10:30.000   39.135150776  141.132871359   117.0920   6  22   0.0998   0.2005   0.1786  -0.1009   0.0903  -0.0947   0.00    0.0
2025/04/01 20:11:00.000   39.135150680  141.132870611   117.0915   6  22   0.0939   0.1886   0.1678  -0.0952   0.0851  -0.0890   0.00    0.0
2025/04/01 20:11:30.000   39.135150906  141.132871343   117.1059   6  22   0.0887   0.1778   0.1580  -0.0900   0.0803  -0.0839   0.00    0.0
2025/04/01 20:12:00.000   39.135150829  141.132872145   117.1063   6  22   0.0840   0.1680   0.1492  -0.0853   0.0759  -0.0794   0.00    0.0
2025/04/01 20:12:30.000   39.135150651  141.132871247   117.0925   6  22   0.0796   0.1591   0.1412  -0.0810   0.0720  -0.0751   0.00    0.0
2025/04/01 20:13:00.000   39.135150950  141.132871455   117.0900   6  22   0.0758   0.1509   0.1340  -0.0770   0.0684  -0.0713   0.00    0.0
2025/04/01 20:13:30.000   39.135150839  141.132871235   117.1096   6  22   0.0723   0.1433   0.1274  -0.0734   0.0650  -0.0679   0.00    0.0
2025/04/01 20:14:00.000   39.135150957  141.132871535   117.1060   6  22   0.0689   0.1364   0.1214  -0.0700   0.0620  -0.0646   0.00    0.0
2025/04/01 20:14:30.000   39.135150769  141.132871335   117.1003   6  22   0.0659   0.1301   0.1158  -0.0668   0.0591  -0.0616   0.00    0.0
2025/04/01 20:15:00.000   39.135150841  141.132871174   117.0723   6  22   0.0632   0.1242   0.1108  -0.0641   0.0565  -0.0589   0.00    0.0
2025/04/01 20:15:30.000   39.135150866  141.132871723   117.0907   6  21   0.0605   0.1188   0.1063  -0.0614   0.0541  -0.0563   0.00    0.0
2025/04/01 20:16:00.000   39.135150837  141.132871811   117.1006   6  21   0.0583   0.1138   0.1021  -0.0589   0.0517  -0.0540   0.00    0.0
2025/04/01 20:16:30.000   39.135150875  141.132871523   117.1024   6  20   0.0561   0.1094   0.0983  -0.0568   0.0496  -0.0519   0.00    0.0
2025/04/01 20:17:00.000   39.135150857  141.132871775   117.0986   6  20   0.0540   0.1052   0.0951  -0.0547   0.0479  -0.0499   0.00    0.0
2025/04/01 20:17:30.000   39.135150847  141.132872059   117.1003   6  20   0.0523   0.1012   0.0919  -0.0528   0.0463  -0.0483   0.00    0.0
2025/04/01 20:18:00.000   39.135150886  141.132872075   117.1062   6  20   0.0505   0.0975   0.0891  -0.0510   0.0448  -0.0466   0.00    0.0
2025/04/01 20:18:30.000   39.135150906  141.132872313   117.0949   6  20   0.0490   0.0940   0.0865  -0.0493   0.0434  -0.0451   0.00    0.0
2025/04/01 20:19:00.000   39.135150822  141.132872165   117.0947   6  20   0.0474   0.0907   0.0841  -0.0477   0.0421  -0.0435   0.00    0.0
2025/04/01 20:19:30.000   39.135150774  141.132872118   117.0994   6  20   0.0459   0.0876   0.0818  -0.0462   0.0409  -0.0422   0.00    0.0
2025/04/01 20:20:00.000   39.135150851  141.132872001   117.0846   6  20   0.0447   0.0848   0.0797  -0.0448   0.0397  -0.0409   0.00    0.0
2025/04/01 20:20:30.000   39.135150826  141.132871901   117.0837   6  20   0.0433   0.0821   0.0777  -0.0434   0.0387  -0.0398   0.00    0.0
2025/04/01 20:21:00.000   39.135150801  141.132871831   117.0794   6  20   0.0423   0.0795   0.0759  -0.0422   0.0376  -0.0385   0.00    0.0
2025/04/01 20:21:30.000   39.135150919  141.132871767   117.0809   6  20   0.0411   0.0769   0.0740  -0.0409   0.0367  -0.0375   0.00    0.0
2025/04/01 20:22:00.000   39.135150988  141.132871834   117.0862   6  20   0.0402   0.0747   0.0724  -0.0398   0.0358  -0.0365   0.00    0.0
2025/04/01 20:22:30.000   39.135150945  141.132871963   117.0805   6  20   0.0390   0.0725   0.0711  -0.0387   0.0348  -0.0354   0.00    0.0
2025/04/01 20:23:00.000   39.135150802  141.132872036   117.0729   6  20   0.0382   0.0705   0.0696  -0.0377   0.0340  -0.0345   0.00    0.0
2025/04/01 20:23:30.000   39.135150806  141.132871874   117.0583   6  20   0.0372   0.0685   0.0682  -0.0366   0.0333  -0.0338   0.00    0.0
2025/04/01 20:24:00.000   39.135150895  141.132871814   117.0616   6  20   0.0363   0.0666   0.0669  -0.0358   0.0325  -0.0329   0.00    0.0
2025/04/01 20:24:30.000   39.135150993  141.132871826   117.0700   6  20   0.0357   0.0648   0.0657  -0.0349   0.0316  -0.0322   0.00    0.0
2025/04/01 20:25:00.000   39.135150937  141.132871817   117.0623   6  20   0.0350   0.0631   0.0646  -0.0340   0.0312  -0.0314   0.00    0.0
2025/04/01 20:25:30.000   39.135150902  141.132871959   117.0502   6  20   0.0341   0.0615   0.0636  -0.0332   0.0304  -0.0308   0.00    0.0
2025/04/01 20:26:00.000   39.135151003  141.132871725   117.0588   6  21   0.0336   0.0600   0.0626  -0.0325   0.0298  -0.0300   0.00    0.0
2025/04/01 20:26:30.000   39.135150906  141.132871632   117.0597   6  21   0.0329   0.0584   0.0612  -0.0318   0.0291  -0.0297   0.00    0.0
2025/04/01 20:27:00.000   39.135151027  141.132871609   117.0725   6  21   0.0323   0.0571   0.0601  -0.0311   0.0287  -0.0290   0.00    0.0
2025/04/01 20:27:30.000   39.135150976  141.132871606   117.0689   6  21   0.0317   0.0557   0.0592  -0.0304   0.0281  -0.0286   0.00    0.0
2025/04/01 20:28:00.000   39.135150892  141.132871641   117.0619   6  21   0.0311   0.0545   0.0584  -0.0297   0.0277  -0.0279   0.00    0.0
2025/04/01 20:28:30.000   39.135150937  141.132871557   117.0590   6  21   0.0307   0.0534   0.0575  -0.0291   0.0272  -0.0275   0.00    0.0
2025/04/01 20:29:00.000   39.135150989  141.132871394   117.0607   6  21   0.0301   0.0520   0.0568  -0.0284   0.0265  -0.0270   0.00    0.0
2025/04/01 20:29:30.000   39.135151012  141.132871535   117.0646   6  21   0.0297   0.0511   0.0560  -0.0280   0.0262  -0.0266   0.00    0.0
2025/04/01 20:30:00.000   39.135150918  141.132871523   117.0598   6  21   0.0292   0.0500   0.0552  -0.0273   0.0259  -0.0262   0.00    0.0
2025/04/01 20:30:30.000   39.135151034  141.132871462   117.0766   6  21   0.0286   0.0487   0.0547  -0.0270   0.0252  -0.0257   0.00    0.0
2025/04/01 20:31:00.000   39.135150960  141.132871685   117.0534   6  21   0.0282   0.0478   0.0539  -0.0266   0.0250  -0.0254   0.00    0.0
2025/04/01 20:31:30.000   39.135150864  141.132871640   117.0510   6  21   0.0277   0.0469   0.0532  -0.0259   0.0247  -0.0248   0.00    0.0
2025/04/01 20:32:00.000   39.135151064  141.132871448   117.0729   6  21   0.0273   0.0459   0.0525  -0.0255   0.0242  -0.0246   0.00    0.0
2025/04/01 20:32:30.000   39.135151014  141.132871458   117.0688   6  21   0.0270   0.0452   0.0520  -0.0249   0.0240  -0.0241   0.00    0.0
2025/04/01 20:33:00.000   39.135150947  141.132871577   117.0697   6  21   0.0268   0.0441   0.0515  -0.0246   0.0238  -0.0238   0.00    0.0
2025/04/01 20:33:30.000   39.135150992  141.132871376   117.0549   6  21   0.0263   0.0434   0.0510  -0.0242   0.0230  -0.0235   0.00    0.0
2025/04/01 20:34:00.000   39.135151112  141.132871285   117.0606   6  21   0.0261   0.0426   0.0506  -0.0239   0.0231  -0.0231   0.00    0.0
2025/04/01 20:34:30.000   39.135151049  141.132871353   117.0652   6  21   0.0256   0.0417   0.0499  -0.0233   0.0225  -0.0228   0.00    0.0
2025/04/01 20:35:00.000   39.135151026  141.132871443   117.0808   6  21   0.0254   0.0411   0.0497  -0.0230   0.0222  -0.0225   0.00    0.0
2025/04/01 20:35:30.000   39.135151045  141.132871415   117.0605   6  21   0.0251   0.0404   0.0491  -0.0226   0.0220  -0.0223   0.00    0.0
2025/04/01 20:36:00.000   39.135151015  141.132871389   117.0388   6  21   0.0247   0.0400   0.0487  -0.0225   0.0217  -0.0218   0.00    0.0
2025/04/01 20:36:30.000   39.135151026  141.132871472   117.0682   6  21   0.0244   0.0391   0.0484  -0.0220   0.0216  -0.0218   0.00    0.0
2025/04/01 20:37:00.000   39.135151007  141.132871450   117.0547   6  21   0.0242   0.0385   0.0477  -0.0216   0.0213  -0.0215   0.00    0.0
2025/04/01 20:37:30.000   39.135151158  141.132871477   117.0979   6  21   0.0239   0.0380   0.0473  -0.0214   0.0209  -0.0212   0.00    0.0
2025/04/01 20:38:00.000   39.135150995  141.132871519   117.0695   6  21   0.0238   0.0373   0.0469  -0.0210   0.0206  -0.0212   0.00    0.0
2025/04/01 20:38:30.000   39.135151026  141.132871538   117.0663   6  21   0.0235   0.0366   0.0467  -0.0209   0.0204  -0.0209   0.00    0.0
2025/04/01 20:39:00.000   39.135150979  141.132871634   117.0722   6  21   0.0231   0.0360   0.0462  -0.0207   0.0200  -0.0207   0.00    0.0
2025/04/01 20:39:30.000   39.135151031  141.132871624   117.0653   6  21   0.0231   0.0356   0.0458  -0.0205   0.0199  -0.0203   0.00    0.0
2025/04/01 20:40:00.000   39.135151041  141.132871519   117.0583   6  21   0.0229   0.0352   0.0453  -0.0198   0.0198  -0.0202   0.00    0.0
2025/04/01 20:40:30.000   39.135151052  141.132871527   117.0613   6  21   0.0223   0.0346   0.0453  -0.0196   0.0197  -0.0198   0.00    0.0
2025/04/01 20:41:00.000   39.135151043  141.132871545   117.0798   6  21   0.0222   0.0342   0.0448  -0.0194   0.0197  -0.0195   0.00    0.0
2025/04/01 20:41:30.000   39.135151095  141.132871420   117.0752   6  21   0.0222   0.0336   0.0445  -0.0191   0.0191  -0.0197   0.00    0.0
2025/04/01 20:42:00.000   39.135151052  141.132871482   117.0724   6  22   0.0221   0.0332   0.0442  -0.0187   0.0192  -0.0195   0.00    0.0
2025/04/01 20:42:30.000   39.135151099  141.132871405   117.0930   6  22   0.0217   0.0326   0.0439  -0.0189   0.0187  -0.0190   0.00    0.0
2025/04/01 20:43:00.000   39.135151091  141.132871410   117.0746   6  22   0.0218   0.0324   0.0434  -0.0185   0.0188  -0.0192   0.00    0.0
2025/04/01 20:43:30.000   39.135150988  141.132871485   117.0648   6  22   0.0212   0.0317   0.0433  -0.0181   0.0186  -0.0185   0.00    0.0
2025/04/01 20:44:00.000   39.135151119  141.132871615   117.0769   6  22   0.0215   0.0316   0.0431  -0.0179   0.0181  -0.0184   0.00    0.0
2025/04/01 20:44:30.000   39.135151121  141.132871399   117.0646   6  22   0.0213   0.0313   0.0427  -0.0177   0.0181  -0.0186   0.00    0.0
2025/04/01 20:45:00.000   39.135151064  141.132871502   117.0810   6  22   0.0209   0.0310   0.0422  -0.0176   0.0181  -0.0181   0.00    0.0
2025/04/01 20:45:30.000   39.135151014  141.132871591   117.0583   6  22   0.0211   0.0304   0.0421  -0.0175   0.0178  -0.0181   0.00    0.0
2025/04/01 20:46:00.000   39.135151083  141.132871654   117.0743   6  22   0.0204   0.0300   0.0418  -0.0175   0.0177  -0.0175   0.00    0.0
2025/04/01 20:46:30.000   39.135151030  141.132871464   117.0750   6  22   0.0206   0.0297   0.0416  -0.0171   0.0174  -0.0176   0.00    0.0
2025/04/01 20:47:00.000   39.135151014  141.132871459   117.0740   6  22   0.0202   0.0292   0.0412  -0.0172   0.0174  -0.0175   0.00    0.0
2025/04/01 20:47:30.000   39.135150999  141.132871533   117.0628   6  22   0.0201   0.0290   0.0411  -0.0169   0.0168  -0.0176   0.00    0.0
2025/04/01 20:48:00.000   39.135150927  141.132871591   117.0650   6  22   0.0201   0.0285   0.0408  -0.0166   0.0171  -0.0175   0.00    0.0
2025/04/01 20:48:30.000   39.135151008  141.132871583   117.0717   6  22   0.0201   0.0286   0.0407  -0.0158   0.0170  -0.0171   0.00    0.0
2025/04/01 20:49:00.000   39.135151042  141.132871641   117.0815   6  22   0.0198   0.0283   0.0405  -0.0161   0.0167  -0.0170   0.00    0.0
2025/04/01 20:49:30.000   39.135151036  141.132871673   117.0635   6  22   0.0196   0.0279   0.0402  -0.0159   0.0165  -0.0172   0.00    0.0
2025/04/01 20:50:00.000   39.135151035  141.132871698   117.0702   6  22   0.0196   0.0275   0.0398  -0.0158   0.0165  -0.0170   0.00    0.0
2025/04/01 20:50:30.000   39.135150914  141.132871775   117.0510   6  22   0.0195   0.0270   0.0398  -0.0157   0.0162  -0.0167   0.00    0.0
2025/04/01 20:51:00.000   39.135150984  141.132871684   117.0684   6  22   0.0193   0.0270   0.0398  -0.0152   0.0161  -0.0165   0.00    0.0
2025/04/01 20:51:30.000   39.135151097  141.132871770   117.0867   6  22   0.0193   0.0263   0.0396  -0.0153   0.0158  -0.0166   0.00    0.0
2025/04/01 20:52:00.000   39.135151030  141.132871706   117.0628   6  22   0.0190   0.0264   0.0396  -0.0152   0.0158  -0.0162   0.00    0.0
2025/04/01 20:52:30.000   39.135150987  141.132871749   117.0733   6  22   0.0189   0.0262   0.0393  -0.0152   0.0155  -0.0164   0.00    0.0
2025/04/01 20:53:00.000   39.135150958  141.132871723   117.0621   6  22   0.0195   0.0259   0.0385  -0.0146   0.0157  -0.0165   0.00    0.0
2025/04/01 20:53:30.000   39.135150932  141.132871727   117.0804   6  22   0.0191   0.0254   0.0386  -0.0145   0.0154  -0.0165   0.00    0.0
2025/04/01 20:54:00.000   39.135150981  141.132871835   117.0734   6  22   0.0192   0.0255   0.0387  -0.0144   0.0155  -0.0159   0.00    0.0
2025/04/01 20:54:30.000   39.135151009  141.132871846   117.0740   6  22   0.0189   0.0252   0.0383  -0.0142   0.0153  -0.0160   0.00    0.0
2025/04/01 20:55:00.000   39.135151033  141.132871741   117.0799   6  22   0.0189   0.0248   0.0385  -0.0144   0.0147  -0.0162   0.00    0.0
2025/04/01 20:55:30.000   39.135150997  141.132871686   117.0687   6  22   0.0190   0.0246   0.0381  -0.0140   0.0151  -0.0161   0.00    0.0
2025/04/01 20:56:00.000   39.135150885  141.132871768   117.0452   6  22   0.0188   0.0244   0.0379  -0.0141   0.0148  -0.0163   0.00    0.0
2025/04/01 20:56:30.000   39.135150921  141.132871743   117.0504   6  22   0.0182   0.0244   0.0381  -0.0137   0.0150  -0.0156   0.00    0.0
2025/04/01 20:57:00.000   39.135151068  141.132871725   117.0896   6  22   0.0184   0.0237   0.0376  -0.0139   0.0145  -0.0160   0.00    0.0
2025/04/01 20:57:30.000   39.135150962  141.132871840   117.0642   6  22   0.0184   0.0239   0.0377  -0.0135   0.0148  -0.0159   0.00    0.0
2025/04/01 20:58:00.000   39.135150993  141.132871694   117.0569   6  22   0.0178   0.0235   0.0377  -0.0139   0.0141  -0.0156   0.00    0.0
2025/04/01 20:58:30.000   39.135151017  141.132871846   117.0701   6  22   0.0180   0.0235   0.0375  -0.0137   0.0141  -0.0152   0.00    0.0
2025/04/01 20:59:00.000   39.135150995  141.132871934   117.0770   6  22   0.0179   0.0232   0.0374  -0.0135   0.0140  -0.0156   0.00    0.0
2025/04/01 20:59:30.000   39.135150971  141.132871885   117.0740   6  22   0.0181   0.0228   0.0371  -0.0133   0.0140  -0.0157   0.00    0.0
