% program    : MADOCALIB ver.2.0
% inp file   : .\data\rinex\MIZU00JPN_R_20250910000_01D_30S_MO.rnx
% inp file   : .\data\rinex\BRDM00DLR_S_20250910000_01D_MN.rnx
% inp file   : .\data\l6_is-qzss-mdc-004\%Y\%n\%Y%n%HU.204.l6
% inp file   : .\data\l6_is-qzss-mdc-004\%Y\%n\%Y%n%HU.206.l6
% satantfile : 
% rcvantfile : .\data\igs20.atx
% obs start  : 2025/04/01 05:00:00.0 GPST (week2360 190800.0s)
% obs end    : 2025/04/01 05:59:30.0 GPST (week2360 194370.0s)
% pos mode   : PPP Kinematic
% freqs      : L1+2
% siggps     : L1/L2/L5
% sigqzs     : L1/L5/L2
% siggal     : E1/E5a/E5b/E6
% sigbds2    : B1I/B3I/B2I
% sigbds3    : B1I/B3I/B2a
% solution   : Forward
% elev mask  : 10.0 deg
% dynamics   : off
% tidecorr   : on
% ionos opt  : Iono-Free LC
% tropo opt  : Estimate ZTD
% ephemeris  : Broadcast+SSR APC
% navi sys   : GPS GLONASS Galileo QZSS
% amb mode   : OFF
% ar sys     : GPS Galileo QZSS BDS
% val ratio  : 1.5
% max std pos: 1.5 m
% ionocorr   : off
% antenna1   : SEPCHOKE_B3E6   NONE  ( 0.0000  0.0000  0.1206)
%
% (lat/lon/height=WGS84/ellipsoidal,Q=1:fix,2:float,3:sbas,4:dgps,5:single,6:ppp,ns=# of satellites)
%  GPST                  latitude(deg) longitude(deg)  height(m)   Q  ns   sdn(m)   sde(m)   sdu(m)  sdne(m)  sdeu(m)  sdun(m) age(s)  ratio
2025/04/01 05:00:00.000   39.135143021  141.132875987   117.2420   6  24   3.3474   2.8611   6.7819   1.6375   0.4508  -1.7761   0.00    0.0
2025/04/01 05:00:30.000   39.135145447  141.132878120   117.1340   6  23   1.8565   1.9183   3.8443   0.6954   0.5344  -1.5155   0.00    0.0
2025/04/01 05:01:00.000   39.135148282  141.132880329   116.8433   6  23   1.2073   1.4812   2.5118  -0.2146   0.7184  -1.1236   0.00    0.0
2025/04/01 05:01:30.000   39.135149516  141.132878365   117.4049   6  23   0.8702   1.2229   1.8089  -0.4191   0.7297  -0.8635   0.00    0.0
2025/04/01 05:02:00.000   39.135148216  141.132880202   117.4449   6  23   0.6731   1.0467   1.3936  -0.4416   0.6909  -0.6939   0.00    0.0
2025/04/01 05:02:30.000   39.135148662  141.132876748   117.3897   6  23   0.5466   0.9152   1.1251  -0.4271   0.6390  -0.5778   0.00    0.0
2025/04/01 05:03:00.000   39.135148881  141.132879318   117.1828   6  23   0.4593   0.8116   0.9388  -0.4022   0.5865  -0.4941   0.00    0.0
2025/04/01 05:03:30.000   39.135148917  141.132879185   117.4417   6  23   0.3954   0.7266   0.8022  -0.3745   0.5370  -0.4309   0.00    0.0
2025/04/01 05:04:00.000   39.135148750  141.132875860   117.4746   6  23   0.3464   0.6551   0.6978  -0.3473   0.4918  -0.3813   0.00    0.0
2025/04/01 05:04:30.000   39.135148601  141.132877954   117.6518   6  23   0.3075   0.5941   0.6155  -0.3216   0.4510  -0.3412   0.00    0.0
2025/04/01 05:05:00.000   39.135149345  141.132878527   117.3086   6  24   0.2758   0.5410   0.5486  -0.2976   0.4142  -0.3079   0.00    0.0
2025/04/01 05:05:30.000   39.135149039  141.132875569   117.3850   6  24   0.2494   0.4949   0.4935  -0.2757   0.3815  -0.2799   0.00    0.0
2025/04/01 05:06:00.000   39.135148884  141.132876298   117.4563   6  24   0.2271   0.4545   0.4474  -0.2559   0.3523  -0.2560   0.00    0.0
2025/04/01 05:06:30.000   39.135148952  141.132877045   117.4564   6  24   0.2081   0.4189   0.4083  -0.2380   0.3263  -0.2354   0.00    0.0
2025/04/01 05:07:00.000   39.135148897  141.132879053   117.4250   6  24   0.1915   0.3872   0.3747  -0.2216   0.3028  -0.2174   0.00    0.0
2025/04/01 05:07:30.000   39.135148958  141.132878121   117.4396   6  24   0.1771   0.3592   0.3456  -0.2069   0.2819  -0.2016   0.00    0.0
2025/04/01 05:08:00.000   39.135149317  141.132877229   117.3935   6  24   0.1644   0.3340   0.3203  -0.1935   0.2631  -0.1876   0.00    0.0
2025/04/01 05:08:30.000   39.135149521  141.132876179   117.3072   6  24   0.1531   0.3113   0.2979  -0.1813   0.2459  -0.1750   0.00    0.0
2025/04/01 05:09:00.000   39.135149529  141.132877152   117.3334   6  24   0.1429   0.2908   0.2780  -0.1700   0.2303  -0.1636   0.00    0.0
2025/04/01 05:09:30.000   39.135149710  141.132876697   117.3137   6  24   0.1338   0.2722   0.2601  -0.1597   0.2160  -0.1533   0.00    0.0
2025/04/01 05:10:00.000   39.135149701  141.132875907   117.3248   6  24   0.1256   0.2552   0.2441  -0.1502   0.2028  -0.1440   0.00    0.0
2025/04/01 05:10:30.000   39.135149881  141.132875917   117.3118   6  24   0.1182   0.2397   0.2296  -0.1414   0.1908  -0.1354   0.00    0.0
2025/04/01 05:11:00.000   39.135150083  141.132875479   117.2485   6  24   0.1114   0.2255   0.2166  -0.1334   0.1797  -0.1276   0.00    0.0
2025/04/01 05:11:30.000   39.135149925  141.132875336   117.2358   6  24   0.1052   0.2126   0.2046  -0.1259   0.1695  -0.1204   0.00    0.0
2025/04/01 05:12:00.000   39.135149952  141.132875064   117.2528   6  24   0.0995   0.2006   0.1937  -0.1190   0.1602  -0.1139   0.00    0.0
2025/04/01 05:12:30.000   39.135149973  141.132875364   117.2498   6  24   0.0944   0.1897   0.1840  -0.1127   0.1515  -0.1078   0.00    0.0
2025/04/01 05:13:00.000   39.135150077  141.132875174   117.2666   6  24   0.0898   0.1802   0.1772  -0.1072   0.1450  -0.1030   0.00    0.0
2025/04/01 05:13:30.000   39.135150185  141.132874513   117.2299   6  24   0.0862   0.1712   0.1706  -0.1024   0.1385  -0.0994   0.00    0.0
2025/04/01 05:14:00.000   39.135150222  141.132873994   117.2567   6  24   0.0829   0.1629   0.1646  -0.0979   0.1325  -0.0959   0.00    0.0
2025/04/01 05:14:30.000   39.135149995  141.132874901   117.2740   6  24   0.0797   0.1551   0.1588  -0.0937   0.1268  -0.0925   0.00    0.0
2025/04/01 05:15:00.000   39.135150132  141.132874859   117.2561   6  24   0.0769   0.1480   0.1534  -0.0897   0.1214  -0.0893   0.00    0.0
2025/04/01 05:15:30.000   39.135150060  141.132874908   117.2809   6  24   0.0741   0.1412   0.1483  -0.0859   0.1164  -0.0863   0.00    0.0
2025/04/01 05:16:00.000   39.135150147  141.132874295   117.2694   6  24   0.0715   0.1349   0.1433  -0.0824   0.1116  -0.0834   0.00    0.0
2025/04/01 05:16:30.000   39.135150159  141.132874129   117.2521   6  24   0.0691   0.1291   0.1388  -0.0791   0.1071  -0.0806   0.00    0.0
2025/04/01 05:17:00.000   39.135150105  141.132874325   117.2551   6  24   0.0667   0.1236   0.1343  -0.0759   0.1029  -0.0779   0.00    0.0
2025/04/01 05:17:30.000   39.135150088  141.132874522   117.2576   6  24   0.0646   0.1184   0.1302  -0.0729   0.0988  -0.0753   0.00    0.0
2025/04/01 05:18:00.000   39.135150173  141.132873978   117.2324   6  24   0.0624   0.1136   0.1261  -0.0701   0.0949  -0.0728   0.00    0.0
2025/04/01 05:18:30.000   39.135150202  141.132873719   117.2610   6  24   0.0605   0.1091   0.1224  -0.0675   0.0913  -0.0706   0.00    0.0
2025/04/01 05:19:00.000   39.135150102  141.132873605   117.2588   6  24   0.0587   0.1049   0.1187  -0.0649   0.0879  -0.0682   0.00    0.0
2025/04/01 05:19:30.000   39.135150161  141.132873521   117.2532   6  24   0.0569   0.1009   0.1153  -0.0625   0.0846  -0.0660   0.00    0.0
2025/04/01 05:20:00.000   39.135150174  141.132874028   117.2687   6  24   0.0551   0.0971   0.1121  -0.0602   0.0815  -0.0639   0.00    0.0
2025/04/01 05:20:30.000   39.135150146  141.132873945   117.2727   6  24   0.0536   0.0935   0.1089  -0.0581   0.0786  -0.0620   0.00    0.0
2025/04/01 05:21:00.000   39.135150133  141.132873808   117.2765   6  24   0.0520   0.0901   0.1060  -0.0560   0.0758  -0.0601   0.00    0.0
2025/04/01 05:21:30.000   39.135150167  141.132873580   117.2835   6  23   0.0507   0.0870   0.1032  -0.0541   0.0732  -0.0583   0.00    0.0
2025/04/01 05:22:00.000   39.135150217  141.132873611   117.2423   6  23   0.0493   0.0839   0.0998  -0.0522   0.0706  -0.0567   0.00    0.0
2025/04/01 05:22:30.000   39.135150437  141.132873516   117.2130   6  23   0.0480   0.0811   0.0980  -0.0505   0.0682  -0.0548   0.00    0.0
2025/04/01 05:23:00.000   39.135150171  141.132873571   117.2746   6  23   0.0467   0.0784   0.0954  -0.0487   0.0659  -0.0533   0.00    0.0
2025/04/01 05:23:30.000   39.135150283  141.132873237   117.2357   6  23   0.0455   0.0759   0.0926  -0.0473   0.0637  -0.0517   0.00    0.0
2025/04/01 05:24:00.000   39.135150322  141.132873221   117.2305   6  23   0.0444   0.0735   0.0899  -0.0457   0.0615  -0.0505   0.00    0.0
2025/04/01 05:24:30.000   39.135150346  141.132873139   117.2239   6  23   0.0434   0.0712   0.0877  -0.0443   0.0595  -0.0490   0.00    0.0
2025/04/01 05:25:00.000   39.135150292  141.132873179   117.2443   6  23   0.0423   0.0690   0.0856  -0.0429   0.0577  -0.0477   0.00    0.0
2025/04/01 05:25:30.000   39.135150363  141.132873217   117.2288   6  23   0.0415   0.0670   0.0835  -0.0416   0.0557  -0.0464   0.00    0.0
2025/04/01 05:26:00.000   39.135150206  141.132873201   117.2494   6  23   0.0405   0.0651   0.0817  -0.0405   0.0539  -0.0453   0.00    0.0
2025/04/01 05:26:30.000   39.135150234  141.132873201   117.2365   6  23   0.0396   0.0632   0.0798  -0.0392   0.0524  -0.0442   0.00    0.0
2025/04/01 05:27:00.000   39.135150291  141.132873343   117.2323   6  23   0.0387   0.0614   0.0780  -0.0382   0.0508  -0.0430   0.00    0.0
2025/04/01 05:27:30.000   39.135150327  141.132873164   117.2579   6  23   0.0379   0.0597   0.0766  -0.0370   0.0492  -0.0418   0.00    0.0
2025/04/01 05:28:00.000   39.135150211  141.132873103   117.2661   6  23   0.0371   0.0581   0.0749  -0.0360   0.0478  -0.0407   0.00    0.0
2025/04/01 05:28:30.000   39.135150300  141.132873211   117.2482   6  23   0.0364   0.0565   0.0736  -0.0351   0.0464  -0.0397   0.00    0.0
2025/04/01 05:29:00.000   39.135150371  141.132872953   117.2228   6  24   0.0357   0.0550   0.0721  -0.0340   0.0452  -0.0387   0.00    0.0
2025/04/01 05:29:30.000   39.135150345  141.132873161   117.2376   6  24   0.0350   0.0537   0.0701  -0.0332   0.0439  -0.0377   0.00    0.0
2025/04/01 05:30:00.000   39.135150458  141.132872942   117.2436   6  24   0.0342   0.0524   0.0689  -0.0323   0.0426  -0.0365   0.00    0.0
2025/04/01 05:30:30.000   39.135150301  141.132873281   117.2544   6  24   0.0336   0.0510   0.0673  -0.0315   0.0415  -0.0358   0.00    0.0
2025/04/01 05:31:00.000   39.135150261  141.132873269   117.2604   6  24   0.0329   0.0497   0.0662  -0.0306   0.0406  -0.0348   0.00    0.0
2025/04/01 05:31:30.000   39.135150229  141.132873253   117.2635   6  24   0.0324   0.0486   0.0650  -0.0299   0.0394  -0.0339   0.00    0.0
2025/04/01 05:32:00.000   39.135150304  141.132873109   117.2402   6  24   0.0321   0.0476   0.0639  -0.0291   0.0383  -0.0333   0.00    0.0
2025/04/01 05:32:30.000   39.135150357  141.132873160   117.2139   6  24   0.0313   0.0464   0.0629  -0.0286   0.0373  -0.0325   0.00    0.0
2025/04/01 05:33:00.000   39.135150308  141.132873056   117.2416   6  24   0.0309   0.0453   0.0619  -0.0277   0.0364  -0.0318   0.00    0.0
2025/04/01 05:33:30.000   39.135150279  141.132872975   117.2371   6  24   0.0305   0.0445   0.0608  -0.0273   0.0355  -0.0312   0.00    0.0
2025/04/01 05:34:00.000   39.135150444  141.132872918   117.2064   6  24   0.0298   0.0435   0.0599  -0.0265   0.0347  -0.0304   0.00    0.0
2025/04/01 05:34:30.000   39.135150450  141.132872944   117.2142   6  24   0.0292   0.0425   0.0590  -0.0259   0.0338  -0.0296   0.00    0.0
2025/04/01 05:35:00.000   39.135150392  141.132872959   117.2024   6  24   0.0290   0.0415   0.0580  -0.0254   0.0330  -0.0292   0.00    0.0
2025/04/01 05:35:30.000   39.135150471  141.132872871   117.1966   6  24   0.0287   0.0408   0.0574  -0.0247   0.0322  -0.0285   0.00    0.0
2025/04/01 05:36:00.000   39.135150395  141.132872791   117.2041   6  24   0.0282   0.0400   0.0565  -0.0241   0.0316  -0.0280   0.00    0.0
2025/04/01 05:36:30.000   39.135150517  141.132872815   117.1998   6  24   0.0278   0.0392   0.0560  -0.0237   0.0307  -0.0273   0.00    0.0
2025/04/01 05:37:00.000   39.135150419  141.132872893   117.2177   6  24   0.0274   0.0384   0.0550  -0.0232   0.0301  -0.0267   0.00    0.0
2025/04/01 05:37:30.000   39.135150419  141.132872837   117.1968   6  24   0.0268   0.0377   0.0542  -0.0229   0.0294  -0.0263   0.00    0.0
2025/04/01 05:38:00.000   39.135150586  141.132872802   117.1808   6  24   0.0266   0.0371   0.0538  -0.0224   0.0285  -0.0257   0.00    0.0
2025/04/01 05:38:30.000   39.135150556  141.132872642   117.1783   6  24   0.0261   0.0363   0.0530  -0.0221   0.0279  -0.0252   0.00    0.0
2025/04/01 05:39:00.000   39.135150458  141.132872719   117.2007   6  24   0.0262   0.0358   0.0525  -0.0214   0.0273  -0.0249   0.00    0.0
2025/04/01 05:39:30.000   39.135150514  141.132872925   117.2008   6  23   0.0259   0.0351   0.0518  -0.0208   0.0268  -0.0244   0.00    0.0
2025/04/01 05:40:00.000   39.135150455  141.132872753   117.1708   6  22   0.0268   0.0346   0.0516  -0.0211   0.0262  -0.0225   0.00    0.0
2025/04/01 05:40:30.000   39.135150607  141.132872520   117.1831   6  23   0.0266   0.0339   0.0511  -0.0205   0.0256  -0.0225   0.00    0.0
2025/04/01 05:41:00.000   39.135150603  141.132872784   117.1953   6  23   0.0264   0.0330   0.0501  -0.0201   0.0255  -0.0219   0.00    0.0
2025/04/01 05:41:30.000   39.135150480  141.132872775   117.1982   6  24   0.0262   0.0329   0.0497  -0.0198   0.0249  -0.0214   0.00    0.0
2025/04/01 05:42:00.000   39.135150471  141.132872691   117.1764   6  24   0.0257   0.0319   0.0489  -0.0195   0.0247  -0.0210   0.00    0.0
2025/04/01 05:42:30.000   39.135150516  141.132872631   117.1696   6  24   0.0256   0.0317   0.0485  -0.0192   0.0240  -0.0206   0.00    0.0
2025/04/01 05:43:00.000   39.135150556  141.132872574   117.2038   6  24   0.0254   0.0311   0.0478  -0.0189   0.0234  -0.0204   0.00    0.0
2025/04/01 05:43:30.000   39.135150578  141.132872765   117.1843   6  25   0.0251   0.0306   0.0470  -0.0186   0.0229  -0.0204   0.00    0.0
2025/04/01 05:44:00.000   39.135150444  141.132872769   117.1883   6  25   0.0240   0.0302   0.0470  -0.0183   0.0226  -0.0199   0.00    0.0
2025/04/01 05:44:30.000   39.135150502  141.132872600   117.1883   6  25   0.0238   0.0297   0.0464  -0.0180   0.0222  -0.0197   0.00    0.0
2025/04/01 05:45:00.000   39.135150488  141.132872678   117.1962   6  25   0.0232   0.0293   0.0460  -0.0175   0.0215  -0.0196   0.00    0.0
2025/04/01 05:45:30.000   39.135150482  141.132872683   117.1899   6  25   0.0230   0.0288   0.0459  -0.0174   0.0211  -0.0192   0.00    0.0
2025/04/01 05:46:00.000   39.135150455  141.132872774   117.1594   6  25   0.0227   0.0284   0.0451  -0.0170   0.0209  -0.0193   0.00    0.0
2025/04/01 05:46:30.000   39.135150615  141.132872610   117.1961   6  25   0.0225   0.0280   0.0447  -0.0170   0.0206  -0.0189   0.00    0.0
2025/04/01 05:47:00.000   39.135150578  141.132872655   117.2002   6  25   0.0224   0.0277   0.0443  -0.0165   0.0203  -0.0187   0.00    0.0
2025/04/01 05:47:30.000   39.135150607  141.132872743   117.1753   6  25   0.0222   0.0275   0.0442  -0.0164   0.0197  -0.0184   0.00    0.0
2025/04/01 05:48:00.000   39.135150496  141.132872784   117.1917   6  25   0.0218   0.0270   0.0437  -0.0159   0.0193  -0.0184   0.00    0.0
2025/04/01 05:48:30.000   39.135150569  141.132872603   117.1786   6  25   0.0215   0.0266   0.0433  -0.0158   0.0191  -0.0179   0.00    0.0
2025/04/01 05:49:00.000   39.135150471  141.132872740   117.1860   6  25   0.0214   0.0264   0.0430  -0.0158   0.0184  -0.0178   0.00    0.0
2025/04/01 05:49:30.000   39.135150597  141.132872618   117.1847   6  26   0.0215   0.0262   0.0428  -0.0155   0.0181  -0.0174   0.00    0.0
2025/04/01 05:50:00.000   39.135150674  141.132872524   117.1777   6  26   0.0213   0.0256   0.0426  -0.0152   0.0177  -0.0173   0.00    0.0
2025/04/01 05:50:30.000   39.135150567  141.132872620   117.1645   6  26   0.0211   0.0252   0.0421  -0.0149   0.0180  -0.0172   0.00    0.0
2025/04/01 05:51:00.000   39.135150486  141.132872576   117.1611   6  26   0.0208   0.0249   0.0423  -0.0149   0.0172  -0.0167   0.00    0.0
2025/04/01 05:51:30.000   39.135150561  141.132872551   117.1793   6  26   0.0206   0.0246   0.0418  -0.0146   0.0171  -0.0162   0.00    0.0
2025/04/01 05:52:00.000   39.135150516  141.132872655   117.1802   6  26   0.0204   0.0244   0.0412  -0.0144   0.0170  -0.0165   0.00    0.0
2025/04/01 05:52:30.000   39.135150633  141.132872458   117.1704   6  26   0.0204   0.0240   0.0410  -0.0145   0.0167  -0.0160   0.00    0.0
2025/04/01 05:53:00.000   39.135150595  141.132872493   117.1647   6  27   0.0202   0.0237   0.0410  -0.0142   0.0160  -0.0161   0.00    0.0
2025/04/01 05:53:30.000   39.135150632  141.132872487   117.1716   6  27   0.0203   0.0236   0.0406  -0.0142   0.0161  -0.0158   0.00    0.0
2025/04/01 05:54:00.000   39.135150654  141.132872561   117.1493   6  28   0.0201   0.0233   0.0403  -0.0138   0.0157  -0.0156   0.00    0.0
2025/04/01 05:54:30.000   39.135150617  141.132872429   117.1767   6  28   0.0199   0.0228   0.0399  -0.0138   0.0156  -0.0156   0.00    0.0
2025/04/01 05:55:00.000   39.135150528  141.132872452   117.1764   6  28   0.0197   0.0230   0.0401  -0.0134   0.0149  -0.0152   0.00    0.0
2025/04/01 05:55:30.000   39.135150607  141.132872479   117.1679   6  28   0.0201   0.0225   0.0396  -0.0130   0.0154  -0.0154   0.00    0.0
2025/04/01 05:56:00.000   39.135150697  141.132872417   117.1524   6  28   0.0194   0.0226   0.0395  -0.0135   0.0149  -0.0149   0.00    0.0
2025/04/01 05:56:30.000   39.135150605  141.132872439   117.1652   6  27   0.0197   0.0221   0.0394  -0.0134   0.0143  -0.0146   0.00    0.0
2025/04/01 05:57:00.000   39.135150507  141.132872596   117.1478   6  27   0.0196   0.0220   0.0394  -0.0137   0.0139  -0.0140   0.00    0.0
2025/04/01 05:57:30.000   39.135150708  141.132872353   117.1657   6  27   0.0191   0.0219   0.0395  -0.0133   0.0134  -0.0138   0.00    0.0
2025/04/01 05:58:00.000   39.135150643  141.132872395   117.1654   6  27   0.0190   0.0217   0.0391  -0.0129   0.0134  -0.0137   0.00    0.0
2025/04/01 05:58:30.000   39.135150692  141.132872394   117.1779   6  27   0.0191   0.0214   0.0387  -0.0128   0.0128  -0.0140   0.00    0.0
2025/04/01 05:59:00.000   39.135150688  141.132872299   117.1541   6  27   0.0188   0.0212   0.0384  -0.0129   0.0128  -0.0138   0.00    0.0
2025/04/01 05:59:30.000   39.135150636  141.132872403   117.1490   6  27   0.0189   0.0210   0.0384  -0.0127   0.0125  -0.0132   0.00    0.0
