% program    : MADOCALIB ver.2.0
% inp file   : .\data\rinex\MIZU00JPN_R_20250910000_01D_30S_MO.rnx
% inp file   : .\data\rinex\BRDM00DLR_S_20250910000_01D_MN.rnx
% inp file   : .\data\l6_is-qzss-mdc-004\%Y\%n\%Y%n%HU.204.l6
% inp file   : .\data\l6_is-qzss-mdc-004\%Y\%n\%Y%n%HU.206.l6
% satantfile : 
% rcvantfile : .\data\igs20.atx
% obs start  : 2025/04/01 11:00:00.0 GPST (week2360 212400.0s)
% obs end    : 2025/04/01 11:59:30.0 GPST (week2360 215970.0s)
% pos mode   : PPP Kinematic
% freqs      : L1+2
% siggps     : L1/L2/L5
% sigqzs     : L1/L5/L2
% siggal     : E1/E5a/E5b/E6
% sigbds2    : B1I/B3I/B2I
% sigbds3    : B1I/B3I/B2a
% solution   : Forward
% elev mask  : 10.0 deg
% dynamics   : off
% tidecorr   : on
% ionos opt  : Iono-Free LC
% tropo opt  : Estimate ZTD
% ephemeris  : Broadcast+SSR APC
% navi sys   : GPS GLONASS Galileo QZSS
% amb mode   : OFF
% ar sys     : GPS Galileo QZSS BDS
% val ratio  : 1.5
% max std pos: 1.5 m
% ionocorr   : off
% antenna1   : SEPCHOKE_B3E6   NONE  ( 0.0000  0.0000  0.1206)
%
% (lat/lon/height=WGS84/ellipsoidal,Q=1:fix,2:float,3:sbas,4:dgps,5:single,6:ppp,ns=# of satellites)
%  GPST                  latitude(deg) longitude(deg)  height(m)   Q  ns   sdn(m)   sde(m)   sdu(m)  sdne(m)  sdeu(m)  sdun(m) age(s)  ratio
2025/04/01 11:00:00.000   39.135146867  141.132876064   117.2563   6  24   2.7924   2.6610   5.8957   0.7943   1.3637   0.9655   0.00    0.0
2025/04/01 11:00:30.000   39.135140105  141.132869586   117.8648   6  24   1.5564   1.8308   3.3316   0.1615   0.8155  -0.8628   0.00    0.0
2025/04/01 11:01:00.000   39.135142852  141.132868340   117.5338   6  24   1.0180   1.4378   2.2058  -0.2918   0.6189  -0.7780   0.00    0.0
2025/04/01 11:01:30.000   39.135148759  141.132872452   116.9587   6  24   0.7275   1.1874   1.5966  -0.3133   0.5111  -0.6279   0.00    0.0
2025/04/01 11:02:00.000   39.135150650  141.132873314   116.4803   6  24   0.5512   1.0061   1.2269  -0.2967   0.4329  -0.5063   0.00    0.0
2025/04/01 11:02:30.000   39.135151819  141.132877073   116.9940   6  24   0.4355   0.8663   0.9833  -0.2715   0.3703  -0.4151   0.00    0.0
2025/04/01 11:03:00.000   39.135153403  141.132872406   116.9728   6  24   0.3551   0.7547   0.8121  -0.2456   0.3188  -0.3465   0.00    0.0
2025/04/01 11:03:30.000   39.135150945  141.132867861   117.6942   6  24   0.2967   0.6637   0.6856  -0.2216   0.2765  -0.2941   0.00    0.0
2025/04/01 11:04:00.000   39.135150595  141.132870481   117.6407   6  24   0.2527   0.5882   0.5886  -0.2001   0.2416  -0.2531   0.00    0.0
2025/04/01 11:04:30.000   39.135148323  141.132871705   117.7091   6  24   0.2186   0.5251   0.5121  -0.1813   0.2129  -0.2206   0.00    0.0
2025/04/01 11:05:00.000   39.135149712  141.132871699   117.4935   6  24   0.1916   0.4716   0.4506  -0.1648   0.1889  -0.1942   0.00    0.0
2025/04/01 11:05:30.000   39.135151064  141.132873040   117.4535   6  24   0.1700   0.4261   0.4001  -0.1505   0.1690  -0.1728   0.00    0.0
2025/04/01 11:06:00.000   39.135150496  141.132873996   117.4430   6  24   0.1523   0.3870   0.3582  -0.1379   0.1522  -0.1549   0.00    0.0
2025/04/01 11:06:30.000   39.135150463  141.132874241   117.2684   6  24   0.1373   0.3532   0.3230  -0.1269   0.1378  -0.1398   0.00    0.0
2025/04/01 11:07:00.000   39.135149920  141.132872560   117.3038   6  24   0.1247   0.3238   0.2931  -0.1172   0.1256  -0.1270   0.00    0.0
2025/04/01 11:07:30.000   39.135150156  141.132870209   117.2886   6  24   0.1140   0.2981   0.2677  -0.1087   0.1150  -0.1160   0.00    0.0
2025/04/01 11:08:00.000   39.135150311  141.132871031   117.3162   6  24   0.1048   0.2755   0.2455  -0.1011   0.1057  -0.1065   0.00    0.0
2025/04/01 11:08:30.000   39.135149832  141.132870424   117.3444   6  24   0.0968   0.2555   0.2264  -0.0943   0.0976  -0.0981   0.00    0.0
2025/04/01 11:09:00.000   39.135150029  141.132871924   117.2399   6  24   0.0897   0.2377   0.2096  -0.0883   0.0905  -0.0910   0.00    0.0
2025/04/01 11:09:30.000   39.135150050  141.132872362   117.1929   6  24   0.0835   0.2219   0.1948  -0.0828   0.0841  -0.0845   0.00    0.0
2025/04/01 11:10:00.000   39.135150250  141.132872787   117.2015   6  24   0.0781   0.2077   0.1817  -0.0780   0.0785  -0.0788   0.00    0.0
2025/04/01 11:10:30.000   39.135150420  141.132871614   117.1430   6  24   0.0732   0.1949   0.1700  -0.0737   0.0735  -0.0738   0.00    0.0
2025/04/01 11:11:00.000   39.135150348  141.132871070   117.0965   6  24   0.0690   0.1834   0.1596  -0.0696   0.0690  -0.0693   0.00    0.0
2025/04/01 11:11:30.000   39.135150170  141.132871404   117.1376   6  24   0.0652   0.1730   0.1502  -0.0661   0.0650  -0.0652   0.00    0.0
2025/04/01 11:12:00.000   39.135150431  141.132870492   117.0804   6  24   0.0616   0.1635   0.1418  -0.0626   0.0613  -0.0615   0.00    0.0
2025/04/01 11:12:30.000   39.135150569  141.132870949   117.1385   6  24   0.0583   0.1548   0.1342  -0.0597   0.0578  -0.0581   0.00    0.0
2025/04/01 11:13:00.000   39.135150414  141.132872085   117.1624   6  24   0.0555   0.1469   0.1273  -0.0568   0.0548  -0.0552   0.00    0.0
2025/04/01 11:13:30.000   39.135150460  141.132872293   117.1052   6  24   0.0529   0.1396   0.1208  -0.0543   0.0520  -0.0523   0.00    0.0
2025/04/01 11:14:00.000   39.135150359  141.132872773   117.1346   6  24   0.0506   0.1330   0.1151  -0.0520   0.0494  -0.0498   0.00    0.0
2025/04/01 11:14:30.000   39.135150289  141.132872703   117.1340   6  25   0.0483   0.1268   0.1099  -0.0498   0.0470  -0.0472   0.00    0.0
2025/04/01 11:15:00.000   39.135150367  141.132871978   117.0834   6  25   0.0462   0.1212   0.1050  -0.0478   0.0448  -0.0452   0.00    0.0
2025/04/01 11:15:30.000   39.135150612  141.132871616   117.1155   6  25   0.0445   0.1159   0.1003  -0.0459   0.0427  -0.0433   0.00    0.0
2025/04/01 11:16:00.000   39.135150650  141.132872436   117.1268   6  25   0.0426   0.1110   0.0962  -0.0441   0.0410  -0.0413   0.00    0.0
2025/04/01 11:16:30.000   39.135150563  141.132872534   117.1145   6  25   0.0412   0.1064   0.0924  -0.0425   0.0392  -0.0396   0.00    0.0
2025/04/01 11:17:00.000   39.135150451  141.132872282   117.1384   6  25   0.0395   0.1022   0.0887  -0.0409   0.0376  -0.0380   0.00    0.0
2025/04/01 11:17:30.000   39.135150581  141.132871686   117.1052   6  25   0.0383   0.0983   0.0855  -0.0395   0.0363  -0.0364   0.00    0.0
2025/04/01 11:18:00.000   39.135150643  141.132872330   117.1328   6  25   0.0370   0.0945   0.0823  -0.0381   0.0348  -0.0350   0.00    0.0
2025/04/01 11:18:30.000   39.135150635  141.132872960   117.1361   6  24   0.0361   0.0911   0.0794  -0.0368   0.0334  -0.0339   0.00    0.0
2025/04/01 11:19:00.000   39.135150657  141.132872879   117.1289   6  24   0.0347   0.0880   0.0770  -0.0357   0.0325  -0.0326   0.00    0.0
2025/04/01 11:19:30.000   39.135150706  141.132872512   117.0815   6  24   0.0337   0.0851   0.0746  -0.0348   0.0311  -0.0315   0.00    0.0
2025/04/01 11:20:00.000   39.135150597  141.132872412   117.1064   6  24   0.0327   0.0822   0.0724  -0.0335   0.0302  -0.0303   0.00    0.0
2025/04/01 11:20:30.000   39.135150574  141.132872619   117.1231   6  23   0.0321   0.0794   0.0701  -0.0324   0.0288  -0.0296   0.00    0.0
2025/04/01 11:21:00.000   39.135150766  141.132872561   117.1023   6  24   0.0314   0.0770   0.0682  -0.0316   0.0277  -0.0284   0.00    0.0
2025/04/01 11:21:30.000   39.135150606  141.132872670   117.1208   6  24   0.0302   0.0747   0.0665  -0.0308   0.0272  -0.0274   0.00    0.0
2025/04/01 11:22:00.000   39.135150655  141.132872813   117.1380   6  24   0.0293   0.0723   0.0648  -0.0299   0.0264  -0.0265   0.00    0.0
2025/04/01 11:22:30.000   39.135150744  141.132872773   117.1562   6  25   0.0289   0.0701   0.0629  -0.0290   0.0254  -0.0259   0.00    0.0
2025/04/01 11:23:00.000   39.135150654  141.132872846   117.1242   6  24   0.0287   0.0682   0.0613  -0.0287   0.0245  -0.0251   0.00    0.0
2025/04/01 11:23:30.000   39.135150641  141.132872409   117.1137   6  25   0.0276   0.0663   0.0599  -0.0279   0.0238  -0.0243   0.00    0.0
2025/04/01 11:24:00.000   39.135150579  141.132872399   117.1307   6  24   0.0273   0.0646   0.0586  -0.0274   0.0234  -0.0238   0.00    0.0
2025/04/01 11:24:30.000   39.135150630  141.132872457   117.1347   6  25   0.0268   0.0629   0.0571  -0.0267   0.0226  -0.0237   0.00    0.0
2025/04/01 11:25:00.000   39.135150607  141.132872414   117.1263   6  25   0.0261   0.0612   0.0563  -0.0261   0.0223  -0.0229   0.00    0.0
2025/04/01 11:25:30.000   39.135150629  141.132872392   117.1496   6  25   0.0258   0.0596   0.0549  -0.0256   0.0217  -0.0225   0.00    0.0
2025/04/01 11:26:00.000   39.135150664  141.132872583   117.1523   6  25   0.0252   0.0580   0.0543  -0.0248   0.0212  -0.0220   0.00    0.0
2025/04/01 11:26:30.000   39.135150646  141.132872203   117.1232   6  25   0.0247   0.0566   0.0534  -0.0242   0.0208  -0.0214   0.00    0.0
2025/04/01 11:27:00.000   39.135150649  141.132872339   117.1381   6  25   0.0239   0.0552   0.0523  -0.0238   0.0206  -0.0209   0.00    0.0
2025/04/01 11:27:30.000   39.135150569  141.132872450   117.1687   6  25   0.0238   0.0539   0.0513  -0.0233   0.0202  -0.0205   0.00    0.0
2025/04/01 11:28:00.000   39.135150607  141.132872372   117.1621   6  25   0.0231   0.0527   0.0506  -0.0229   0.0198  -0.0199   0.00    0.0
2025/04/01 11:28:30.000   39.135150657  141.132872446   117.1588   6  25   0.0231   0.0515   0.0500  -0.0226   0.0195  -0.0196   0.00    0.0
2025/04/01 11:29:00.000   39.135150731  141.132872555   117.1492   6  25   0.0226   0.0503   0.0490  -0.0223   0.0192  -0.0195   0.00    0.0
2025/04/01 11:29:30.000   39.135150494  141.132872447   117.1425   6  25   0.0223   0.0492   0.0483  -0.0216   0.0188  -0.0191   0.00    0.0
2025/04/01 11:30:00.000   39.135150705  141.132872306   117.1629   6  25   0.0221   0.0480   0.0476  -0.0211   0.0185  -0.0188   0.00    0.0
2025/04/01 11:30:30.000   39.135150437  141.132872469   117.1405   6  25   0.0216   0.0470   0.0470  -0.0209   0.0182  -0.0182   0.00    0.0
2025/04/01 11:31:00.000   39.135150727  141.132872256   117.1505   6  25   0.0213   0.0461   0.0461  -0.0206   0.0178  -0.0180   0.00    0.0
2025/04/01 11:31:30.000   39.135150695  141.132872325   117.1691   6  25   0.0210   0.0452   0.0455  -0.0202   0.0177  -0.0177   0.00    0.0
2025/04/01 11:32:00.000   39.135150628  141.132872537   117.1496   6  25   0.0208   0.0443   0.0449  -0.0196   0.0172  -0.0171   0.00    0.0
2025/04/01 11:32:30.000   39.135150731  141.132872649   117.1518   6  24   0.0210   0.0435   0.0448  -0.0195   0.0171  -0.0169   0.00    0.0
2025/04/01 11:33:00.000   39.135150611  141.132872423   117.1193   6  25   0.0204   0.0427   0.0443  -0.0193   0.0164  -0.0165   0.00    0.0
2025/04/01 11:33:30.000   39.135150738  141.132872456   117.1844   6  25   0.0200   0.0418   0.0437  -0.0187   0.0162  -0.0166   0.00    0.0
2025/04/01 11:34:00.000   39.135150581  141.132872645   117.1480   6  24   0.0201   0.0411   0.0433  -0.0189   0.0158  -0.0161   0.00    0.0
2025/04/01 11:34:30.000   39.135150584  141.132872400   117.1199   6  25   0.0196   0.0405   0.0427  -0.0182   0.0157  -0.0159   0.00    0.0
2025/04/01 11:35:00.000   39.135150552  141.132872536   117.1374   6  25   0.0197   0.0397   0.0422  -0.0178   0.0155  -0.0158   0.00    0.0
2025/04/01 11:35:30.000   39.135150600  141.132872923   117.1592   6  25   0.0192   0.0391   0.0418  -0.0181   0.0152  -0.0152   0.00    0.0
2025/04/01 11:36:00.000   39.135150674  141.132872708   117.1522   6  25   0.0188   0.0384   0.0415  -0.0174   0.0150  -0.0151   0.00    0.0
2025/04/01 11:36:30.000   39.135150595  141.132872739   117.1272   6  25   0.0188   0.0378   0.0409  -0.0173   0.0146  -0.0147   0.00    0.0
2025/04/01 11:37:00.000   39.135150580  141.132872830   117.1251   6  25   0.0186   0.0370   0.0408  -0.0172   0.0143  -0.0145   0.00    0.0
2025/04/01 11:37:30.000   39.135150627  141.132872600   117.1260   6  25   0.0187   0.0365   0.0400  -0.0170   0.0143  -0.0144   0.00    0.0
2025/04/01 11:38:00.000   39.135150602  141.132872489   117.1096   6  25   0.0179   0.0358   0.0401  -0.0166   0.0137  -0.0140   0.00    0.0
2025/04/01 11:38:30.000   39.135150651  141.132872522   117.1304   6  25   0.0180   0.0352   0.0395  -0.0158   0.0140  -0.0141   0.00    0.0
2025/04/01 11:39:00.000   39.135150562  141.132872525   117.0970   6  25   0.0179   0.0348   0.0390  -0.0161   0.0134  -0.0138   0.00    0.0
2025/04/01 11:39:30.000   39.135150589  141.132872478   117.1157   6  25   0.0179   0.0342   0.0389  -0.0154   0.0135  -0.0137   0.00    0.0
2025/04/01 11:40:00.000   39.135150631  141.132872383   117.1225   6  25   0.0175   0.0338   0.0388  -0.0156   0.0134  -0.0136   0.00    0.0
2025/04/01 11:40:30.000   39.135150594  141.132872368   117.1218   6  25   0.0182   0.0332   0.0380  -0.0155   0.0130  -0.0137   0.00    0.0
2025/04/01 11:41:00.000   39.135150706  141.132872363   117.1185   6  25   0.0171   0.0328   0.0384  -0.0150   0.0128  -0.0128   0.00    0.0
2025/04/01 11:41:30.000   39.135150547  141.132872492   117.1197   6  25   0.0176   0.0324   0.0376  -0.0149   0.0126  -0.0131   0.00    0.0
2025/04/01 11:42:00.000   39.135150576  141.132872588   117.1273   6  25   0.0176   0.0319   0.0377  -0.0148   0.0125  -0.0129   0.00    0.0
2025/04/01 11:42:30.000   39.135150487  141.132872367   117.0870   6  25   0.0173   0.0316   0.0373  -0.0150   0.0124  -0.0126   0.00    0.0
2025/04/01 11:43:00.000   39.135150761  141.132872139   117.1328   6  25   0.0172   0.0311   0.0369  -0.0144   0.0119  -0.0128   0.00    0.0
2025/04/01 11:43:30.000   39.135150694  141.132872328   117.1336   6  25   0.0168   0.0306   0.0371  -0.0141   0.0120  -0.0118   0.00    0.0
2025/04/01 11:44:00.000   39.135150597  141.132872458   117.1251   6  25   0.0168   0.0303   0.0365  -0.0139   0.0118  -0.0126   0.00    0.0
2025/04/01 11:44:30.000   39.135150515  141.132872422   117.1042   6  25   0.0170   0.0297   0.0364  -0.0144   0.0117  -0.0126   0.00    0.0
2025/04/01 11:45:00.000   39.135150638  141.132872334   117.1126   6  25   0.0165   0.0295   0.0361  -0.0136   0.0112  -0.0121   0.00    0.0
2025/04/01 11:45:30.000   39.135150658  141.132872217   117.1328   6  25   0.0160   0.0292   0.0363  -0.0136   0.0114  -0.0117   0.00    0.0
2025/04/01 11:46:00.000   39.135150694  141.132872390   117.1267   6  25   0.0164   0.0288   0.0356  -0.0133   0.0111  -0.0121   0.00    0.0
2025/04/01 11:46:30.000   39.135150558  141.132872382   117.0832   6  25   0.0161   0.0286   0.0355  -0.0136   0.0104  -0.0113   0.00    0.0
2025/04/01 11:47:00.000   39.135150531  141.132872371   117.0950   6  25   0.0160   0.0281   0.0354  -0.0133   0.0102  -0.0109   0.00    0.0
2025/04/01 11:47:30.000   39.135150700  141.132872303   117.1443   6  25   0.0162   0.0278   0.0350  -0.0129   0.0099  -0.0113   0.00    0.0
2025/04/01 11:48:00.000   39.135150553  141.132872179   117.0961   6  25   0.0158   0.0276   0.0349  -0.0134   0.0102  -0.0113   0.00    0.0
2025/04/01 11:48:30.000   39.135150563  141.132872338   117.0927   6  25   0.0160   0.0273   0.0345  -0.0130   0.0103  -0.0109   0.00    0.0
2025/04/01 11:49:00.000   39.135150605  141.132872366   117.1118   6  25   0.0160   0.0271   0.0344  -0.0129   0.0100  -0.0106   0.00    0.0
2025/04/01 11:49:30.000   39.135150654  141.132872093   117.1026   6  25   0.0161   0.0266   0.0344  -0.0125   0.0096  -0.0108   0.00    0.0
2025/04/01 11:50:00.000   39.135150812  141.132872155   117.1106   6  25   0.0158   0.0263   0.0346  -0.0122   0.0093  -0.0099   0.00    0.0
2025/04/01 11:50:30.000   39.135150553  141.132872221   117.0939   6  25   0.0159   0.0260   0.0343  -0.0124   0.0097  -0.0104   0.00    0.0
2025/04/01 11:51:00.000   39.135150508  141.132872156   117.0834   6  25   0.0152   0.0260   0.0338  -0.0123   0.0095  -0.0107   0.00    0.0
2025/04/01 11:51:30.000   39.135150742  141.132872407   117.1562   6  25   0.0156   0.0256   0.0338  -0.0120   0.0092  -0.0104   0.00    0.0
2025/04/01 11:52:00.000   39.135150680  141.132872341   117.1045   6  25   0.0152   0.0253   0.0334  -0.0120   0.0088  -0.0100   0.00    0.0
2025/04/01 11:52:30.000   39.135150850  141.132872129   117.0981   6  25   0.0151   0.0251   0.0334  -0.0118   0.0085  -0.0099   0.00    0.0
2025/04/01 11:53:00.000   39.135150672  141.132872284   117.1129   6  25   0.0154   0.0249   0.0336  -0.0119   0.0086  -0.0100   0.00    0.0
2025/04/01 11:53:30.000   39.135150625  141.132872249   117.1096   6  25   0.0152   0.0243   0.0332  -0.0115   0.0083  -0.0099   0.00    0.0
2025/04/01 11:54:00.000   39.135150600  141.132872257   117.0821   6  25   0.0151   0.0245   0.0332  -0.0117   0.0089  -0.0098   0.00    0.0
2025/04/01 11:54:30.000   39.135150574  141.132872127   117.0812   6  25   0.0147   0.0242   0.0330  -0.0114   0.0084  -0.0092   0.00    0.0
2025/04/01 11:55:00.000   39.135150791  141.132872222   117.1008   6  25   0.0152   0.0242   0.0329  -0.0117   0.0081  -0.0096   0.00    0.0
2025/04/01 11:55:30.000   39.135150654  141.132872224   117.1071   6  25   0.0152   0.0240   0.0327  -0.0111   0.0076  -0.0095   0.00    0.0
2025/04/01 11:56:00.000   39.135150669  141.132872148   117.1147   6  25   0.0151   0.0237   0.0328  -0.0113   0.0080  -0.0094   0.00    0.0
2025/04/01 11:56:30.000   39.135150687  141.132872176   117.0934   6  25   0.0156   0.0236   0.0320  -0.0111   0.0085  -0.0099   0.00    0.0
2025/04/01 11:57:00.000   39.135150632  141.132872396   117.0957   6  25   0.0148   0.0234   0.0324  -0.0109   0.0078  -0.0087   0.00    0.0
2025/04/01 11:57:30.000   39.135150772  141.132872195   117.1086   6  25   0.0145   0.0230   0.0326  -0.0111   0.0079  -0.0083   0.00    0.0
2025/04/01 11:58:00.000   39.135150725  141.132872190   117.0892   6  25   0.0150   0.0229   0.0320  -0.0112   0.0073  -0.0092   0.00    0.0
2025/04/01 11:58:30.000   39.135150722  141.132872176   117.0847   6  25   0.0153   0.0229   0.0317  -0.0109   0.0068  -0.0086   0.00    0.0
2025/04/01 11:59:00.000   39.135150716  141.132872187   117.1027   6  25   0.0146   0.0225   0.0320  -0.0102   0.0067  -0.0095   0.00    0.0
2025/04/01 11:59:30.000   39.135150830  141.132872239   117.1121   6  25   0.0145   0.0225   0.0318  -0.0108   0.0066  -0.0090   0.00    0.0
