% program    : MADOCALIB ver.2.0
% inp file   : .\data\rinex\MIZU00JPN_R_20250910000_01D_30S_MO.rnx
% inp file   : .\data\rinex\BRDM00DLR_S_20250910000_01D_MN.rnx
% inp file   : .\data\l6_is-qzss-mdc-004\%Y\%n\%Y%n%HU.204.l6
% inp file   : .\data\l6_is-qzss-mdc-004\%Y\%n\%Y%n%HU.206.l6
% satantfile : 
% rcvantfile : .\data\igs20.atx
% obs start  : 2025/04/01 18:00:00.0 GPST (week2360 237600.0s)
% obs end    : 2025/04/01 18:59:30.0 GPST (week2360 241170.0s)
% pos mode   : PPP Kinematic
% freqs      : L1+2
% siggps     : L1/L2/L5
% sigqzs     : L1/L5/L2
% siggal     : E1/E5a/E5b/E6
% sigbds2    : B1I/B3I/B2I
% sigbds3    : B1I/B3I/B2a
% solution   : Forward
% elev mask  : 10.0 deg
% dynamics   : off
% tidecorr   : on
% ionos opt  : Iono-Free LC
% tropo opt  : Estimate ZTD
% ephemeris  : Broadcast+SSR APC
% navi sys   : GPS GLONASS Galileo QZSS
% amb mode   : OFF
% ar sys     : GPS Galileo QZSS BDS
% val ratio  : 1.5
% max std pos: 1.5 m
% ionocorr   : off
% antenna1   : SEPCHOKE_B3E6   NONE  ( 0.0000  0.0000  0.1206)
%
% (lat/lon/height=WGS84/ellipsoidal,Q=1:fix,2:float,3:sbas,4:dgps,5:single,6:ppp,ns=# of satellites)
%  GPST                  latitude(deg) longitude(deg)  height(m)   Q  ns   sdn(m)   sde(m)   sdu(m)  sdne(m)  sdeu(m)  sdun(m) age(s)  ratio
2025/04/01 18:00:00.000   39.135146342  141.132871794   116.2315   6  21   2.9084   2.6556   6.1250   0.2151  -0.7466  -1.1169   0.00    0.0
2025/04/01 18:00:30.000   39.135151030  141.132873224   117.0871   6  21   1.6878   1.8580   3.3711   0.3017  -0.5102  -1.2218   0.00    0.0
2025/04/01 18:01:00.000   39.135148318  141.132874419   116.2910   6  21   1.1281   1.4868   2.1911   0.3000  -0.4286  -0.9588   0.00    0.0
2025/04/01 18:01:30.000   39.135146360  141.132874031   117.5628   6  21   0.8129   1.2530   1.5620   0.2797  -0.3784  -0.7348   0.00    0.0
2025/04/01 18:02:00.000   39.135147704  141.132873468   117.1873   6  21   0.6172   1.0845   1.1839   0.2554  -0.3376  -0.5729   0.00    0.0
2025/04/01 18:02:30.000   39.135148068  141.132872207   117.2650   6  21   0.4873   0.9538   0.9370   0.2316  -0.3022  -0.4575   0.00    0.0
2025/04/01 18:03:00.000   39.135150231  141.132873183   117.1383   6  21   0.3965   0.8481   0.7655   0.2096  -0.2714  -0.3738   0.00    0.0
2025/04/01 18:03:30.000   39.135150474  141.132873827   116.9778   6  21   0.3303   0.7603   0.6403   0.1898  -0.2444  -0.3118   0.00    0.0
2025/04/01 18:04:00.000   39.135149360  141.132872304   117.1853   6  21   0.2805   0.6860   0.5456   0.1722  -0.2210  -0.2646   0.00    0.0
2025/04/01 18:04:30.000   39.135149302  141.132870906   117.2174   6  21   0.2420   0.6225   0.4718   0.1565  -0.2007  -0.2281   0.00    0.0
2025/04/01 18:05:00.000   39.135149915  141.132871129   117.1446   6  21   0.2115   0.5676   0.4129   0.1426  -0.1830  -0.1991   0.00    0.0
2025/04/01 18:05:30.000   39.135150002  141.132871754   117.1085   6  21   0.1868   0.5199   0.3651   0.1303  -0.1675  -0.1758   0.00    0.0
2025/04/01 18:06:00.000   39.135150370  141.132872796   117.0741   6  21   0.1666   0.4782   0.3258   0.1194  -0.1539  -0.1566   0.00    0.0
2025/04/01 18:06:30.000   39.135150493  141.132872394   117.0664   6  21   0.1497   0.4415   0.2930   0.1097  -0.1419  -0.1407   0.00    0.0
2025/04/01 18:07:00.000   39.135150422  141.132871009   117.1191   6  20   0.1356   0.4092   0.2682   0.1010  -0.1327  -0.1274   0.00    0.0
2025/04/01 18:07:30.000   39.135150293  141.132871961   117.1063   6  20   0.1235   0.3806   0.2481   0.0932  -0.1248  -0.1156   0.00    0.0
2025/04/01 18:08:00.000   39.135150210  141.132871848   117.2013   6  20   0.1131   0.3550   0.2305   0.0862  -0.1177  -0.1056   0.00    0.0
2025/04/01 18:08:30.000   39.135150200  141.132871157   117.2442   6  20   0.1042   0.3322   0.2152   0.0800  -0.1112  -0.0969   0.00    0.0
2025/04/01 18:09:00.000   39.135150246  141.132871051   117.2376   6  20   0.0963   0.3116   0.2015   0.0743  -0.1052  -0.0893   0.00    0.0
2025/04/01 18:09:30.000   39.135150370  141.132871028   117.1823   6  20   0.0895   0.2928   0.1891   0.0689  -0.0994  -0.0825   0.00    0.0
2025/04/01 18:10:00.000   39.135150280  141.132870577   117.2048   6  20   0.0834   0.2759   0.1779   0.0641  -0.0941  -0.0766   0.00    0.0
2025/04/01 18:10:30.000   39.135150264  141.132870179   117.2550   6  20   0.0779   0.2606   0.1678   0.0599  -0.0893  -0.0713   0.00    0.0
2025/04/01 18:11:00.000   39.135150282  141.132870330   117.2348   6  20   0.0732   0.2467   0.1586   0.0560  -0.0848  -0.0666   0.00    0.0
2025/04/01 18:11:30.000   39.135150573  141.132871054   117.1676   6  20   0.0689   0.2340   0.1503   0.0524  -0.0807  -0.0624   0.00    0.0
2025/04/01 18:12:00.000   39.135150478  141.132870658   117.1836   6  20   0.0649   0.2225   0.1426   0.0492  -0.0768  -0.0586   0.00    0.0
2025/04/01 18:12:30.000   39.135150406  141.132870769   117.1924   6  20   0.0614   0.2118   0.1356   0.0462  -0.0733  -0.0552   0.00    0.0
2025/04/01 18:13:00.000   39.135150544  141.132870893   117.1915   6  20   0.0583   0.2020   0.1290   0.0435  -0.0701  -0.0523   0.00    0.0
2025/04/01 18:13:30.000   39.135150610  141.132870740   117.1879   6  20   0.0554   0.1930   0.1231   0.0410  -0.0670  -0.0495   0.00    0.0
2025/04/01 18:14:00.000   39.135150701  141.132870925   117.1776   6  20   0.0528   0.1846   0.1175   0.0386  -0.0641  -0.0469   0.00    0.0
2025/04/01 18:14:30.000   39.135150579  141.132870986   117.1573   6  20   0.0504   0.1769   0.1124   0.0365  -0.0614  -0.0446   0.00    0.0
2025/04/01 18:15:00.000   39.135150665  141.132871440   117.1560   6  20   0.0482   0.1697   0.1076   0.0346  -0.0590  -0.0426   0.00    0.0
2025/04/01 18:15:30.000   39.135150707  141.132871692   117.1479   6  20   0.0461   0.1631   0.1032   0.0327  -0.0565  -0.0406   0.00    0.0
2025/04/01 18:16:00.000   39.135150720  141.132871849   117.1452   6  20   0.0442   0.1569   0.0991   0.0309  -0.0544  -0.0388   0.00    0.0
2025/04/01 18:16:30.000   39.135150730  141.132871672   117.1583   6  20   0.0427   0.1511   0.0952   0.0293  -0.0523  -0.0372   0.00    0.0
2025/04/01 18:17:00.000   39.135150597  141.132871616   117.1632   6  19   0.0411   0.1456   0.0919   0.0276  -0.0502  -0.0352   0.00    0.0
2025/04/01 18:17:30.000   39.135150623  141.132871224   117.1817   6  19   0.0397   0.1406   0.0893   0.0263  -0.0484  -0.0336   0.00    0.0
2025/04/01 18:18:00.000   39.135150608  141.132871303   117.1815   6  19   0.0383   0.1359   0.0868   0.0248  -0.0468  -0.0320   0.00    0.0
2025/04/01 18:18:30.000   39.135150615  141.132871312   117.1837   6  19   0.0371   0.1314   0.0845   0.0236  -0.0453  -0.0305   0.00    0.0
2025/04/01 18:19:00.000   39.135150598  141.132871456   117.1734   6  19   0.0359   0.1272   0.0823   0.0224  -0.0437  -0.0291   0.00    0.0
2025/04/01 18:19:30.000   39.135150643  141.132871512   117.1753   6  19   0.0349   0.1232   0.0803   0.0213  -0.0425  -0.0279   0.00    0.0
2025/04/01 18:20:00.000   39.135150615  141.132871231   117.1721   6  19   0.0337   0.1195   0.0784   0.0199  -0.0410  -0.0266   0.00    0.0
2025/04/01 18:20:30.000   39.135150664  141.132871310   117.1757   6  19   0.0328   0.1160   0.0766   0.0189  -0.0398  -0.0256   0.00    0.0
2025/04/01 18:21:00.000   39.135150633  141.132871538   117.1598   6  19   0.0321   0.1127   0.0748   0.0179  -0.0386  -0.0246   0.00    0.0
2025/04/01 18:21:30.000   39.135150636  141.132871351   117.1498   6  19   0.0311   0.1096   0.0732   0.0168  -0.0374  -0.0233   0.00    0.0
2025/04/01 18:22:00.000   39.135150685  141.132871296   117.1655   6  19   0.0303   0.1066   0.0717   0.0158  -0.0363  -0.0223   0.00    0.0
2025/04/01 18:22:30.000   39.135150677  141.132871350   117.1604   6  19   0.0295   0.1038   0.0702   0.0150  -0.0353  -0.0216   0.00    0.0
2025/04/01 18:23:00.000   39.135150740  141.132871387   117.1542   6  19   0.0290   0.1011   0.0688   0.0138  -0.0344  -0.0207   0.00    0.0
2025/04/01 18:23:30.000   39.135150586  141.132871181   117.1630   6  19   0.0284   0.0986   0.0675   0.0133  -0.0335  -0.0200   0.00    0.0
2025/04/01 18:24:00.000   39.135150567  141.132871170   117.1843   6  19   0.0278   0.0961   0.0661   0.0124  -0.0326  -0.0195   0.00    0.0
2025/04/01 18:24:30.000   39.135150607  141.132871239   117.1735   6  19   0.0273   0.0938   0.0649   0.0116  -0.0317  -0.0189   0.00    0.0
2025/04/01 18:25:00.000   39.135150676  141.132871102   117.1779   6  19   0.0268   0.0916   0.0636   0.0106  -0.0309  -0.0181   0.00    0.0
2025/04/01 18:25:30.000   39.135150669  141.132870981   117.1664   6  19   0.0264   0.0896   0.0625   0.0099  -0.0301  -0.0177   0.00    0.0
2025/04/01 18:26:00.000   39.135150655  141.132871140   117.1547   6  19   0.0258   0.0876   0.0614   0.0094  -0.0293  -0.0170   0.00    0.0
2025/04/01 18:26:30.000   39.135150612  141.132871057   117.1717   6  19   0.0251   0.0857   0.0604   0.0084  -0.0285  -0.0161   0.00    0.0
2025/04/01 18:27:00.000   39.135150582  141.132871347   117.1644   6  19   0.0249   0.0838   0.0593   0.0075  -0.0278  -0.0157   0.00    0.0
2025/04/01 18:27:30.000   39.135150629  141.132871375   117.1565   6  20   0.0246   0.0822   0.0583   0.0059  -0.0272  -0.0153   0.00    0.0
2025/04/01 18:28:00.000   39.135150652  141.132871297   117.1601   6  20   0.0239   0.0804   0.0572   0.0052  -0.0265  -0.0154   0.00    0.0
2025/04/01 18:28:30.000   39.135150727  141.132871175   117.1720   6  20   0.0237   0.0788   0.0563   0.0047  -0.0258  -0.0151   0.00    0.0
2025/04/01 18:29:00.000   39.135150625  141.132870930   117.1674   6  20   0.0233   0.0774   0.0552   0.0028  -0.0249  -0.0146   0.00    0.0
2025/04/01 18:29:30.000   39.135150661  141.132870913   117.1808   6  20   0.0228   0.0759   0.0543   0.0018  -0.0242  -0.0144   0.00    0.0
2025/04/01 18:30:00.000   39.135150618  141.132871138   117.1604   6  20   0.0226   0.0745   0.0533   0.0008  -0.0236  -0.0142   0.00    0.0
2025/04/01 18:30:30.000   39.135150623  141.132871138   117.1549   6  20   0.0224   0.0731   0.0524  -0.0034  -0.0230  -0.0141   0.00    0.0
2025/04/01 18:31:00.000   39.135150627  141.132871035   117.1616   6  20   0.0220   0.0719   0.0519  -0.0034  -0.0223  -0.0138   0.00    0.0
2025/04/01 18:31:30.000   39.135150556  141.132871154   117.1649   6  20   0.0220   0.0705   0.0509  -0.0045  -0.0218  -0.0142   0.00    0.0
2025/04/01 18:32:00.000   39.135150588  141.132871179   117.1678   6  20   0.0217   0.0693   0.0501  -0.0052  -0.0212  -0.0139   0.00    0.0
2025/04/01 18:32:30.000   39.135150704  141.132871211   117.1726   6  20   0.0214   0.0682   0.0495  -0.0061  -0.0207  -0.0135   0.00    0.0
2025/04/01 18:33:00.000   39.135150636  141.132871245   117.1527   6  20   0.0213   0.0671   0.0487  -0.0064  -0.0201  -0.0133   0.00    0.0
2025/04/01 18:33:30.000   39.135150580  141.132871137   117.1564   6  20   0.0209   0.0661   0.0480  -0.0063  -0.0194  -0.0130   0.00    0.0
2025/04/01 18:34:00.000   39.135150704  141.132871315   117.1478   6  21   0.0208   0.0649   0.0471  -0.0071  -0.0190  -0.0132   0.00    0.0
2025/04/01 18:34:30.000   39.135150633  141.132871152   117.1650   6  21   0.0206   0.0640   0.0465  -0.0070  -0.0186  -0.0128   0.00    0.0
2025/04/01 18:35:00.000   39.135150592  141.132871146   117.1537   6  21   0.0205   0.0630   0.0456  -0.0066  -0.0183  -0.0132   0.00    0.0
2025/04/01 18:35:30.000   39.135150644  141.132871374   117.1478   6  21   0.0201   0.0621   0.0450  -0.0069  -0.0177  -0.0125   0.00    0.0
2025/04/01 18:36:00.000   39.135150529  141.132871351   117.1671   6  21   0.0200   0.0612   0.0443  -0.0074  -0.0175  -0.0128   0.00    0.0
2025/04/01 18:36:30.000   39.135150673  141.132871471   117.1526   6  21   0.0199   0.0603   0.0438  -0.0075  -0.0168  -0.0124   0.00    0.0
2025/04/01 18:37:00.000   39.135150695  141.132871359   117.1475   6  20   0.0199   0.0594   0.0433  -0.0076  -0.0167  -0.0126   0.00    0.0
2025/04/01 18:37:30.000   39.135150560  141.132871191   117.1556   6  20   0.0195   0.0586   0.0428  -0.0081  -0.0160  -0.0120   0.00    0.0
2025/04/01 18:38:00.000   39.135150644  141.132871312   117.1606   6  20   0.0193   0.0579   0.0422  -0.0081  -0.0159  -0.0118   0.00    0.0
2025/04/01 18:38:30.000   39.135150700  141.132871485   117.1541   6  20   0.0192   0.0571   0.0419  -0.0082  -0.0159  -0.0118   0.00    0.0
2025/04/01 18:39:00.000   39.135150579  141.132871353   117.1498   6  20   0.0192   0.0565   0.0417  -0.0084  -0.0158  -0.0120   0.00    0.0
2025/04/01 18:39:30.000   39.135150648  141.132871312   117.1622   6  20   0.0192   0.0559   0.0410  -0.0086  -0.0154  -0.0117   0.00    0.0
2025/04/01 18:40:00.000   39.135150646  141.132871424   117.1506   6  20   0.0190   0.0551   0.0408  -0.0087  -0.0155  -0.0121   0.00    0.0
2025/04/01 18:40:30.000   39.135150671  141.132871542   117.1632   6  20   0.0187   0.0545   0.0405  -0.0093  -0.0146  -0.0113   0.00    0.0
2025/04/01 18:41:00.000   39.135150765  141.132871536   117.1512   6  20   0.0186   0.0539   0.0402  -0.0092  -0.0150  -0.0116   0.00    0.0
2025/04/01 18:41:30.000   39.135150682  141.132871396   117.1515   6  20   0.0186   0.0533   0.0401  -0.0085  -0.0145  -0.0114   0.00    0.0
2025/04/01 18:42:00.000   39.135150755  141.132871352   117.1505   6  20   0.0187   0.0527   0.0394  -0.0088  -0.0145  -0.0119   0.00    0.0
2025/04/01 18:42:30.000   39.135150681  141.132871288   117.1561   6  20   0.0183   0.0521   0.0392  -0.0092  -0.0142  -0.0112   0.00    0.0
2025/04/01 18:43:00.000   39.135150785  141.132871411   117.1561   6  20   0.0183   0.0516   0.0389  -0.0088  -0.0140  -0.0112   0.00    0.0
2025/04/01 18:43:30.000   39.135150650  141.132871160   117.1616   6  20   0.0183   0.0510   0.0388  -0.0091  -0.0136  -0.0116   0.00    0.0
2025/04/01 18:44:00.000   39.135150549  141.132871138   117.1787   6  20   0.0180   0.0504   0.0382  -0.0094  -0.0132  -0.0111   0.00    0.0
2025/04/01 18:44:30.000   39.135150672  141.132871311   117.1553   6  20   0.0183   0.0501   0.0384  -0.0092  -0.0130  -0.0113   0.00    0.0
2025/04/01 18:45:00.000   39.135150678  141.132871331   117.1567   6  20   0.0182   0.0495   0.0379  -0.0092  -0.0130  -0.0114   0.00    0.0
2025/04/01 18:45:30.000   39.135150690  141.132871401   117.1664   6  20   0.0181   0.0490   0.0378  -0.0094  -0.0128  -0.0112   0.00    0.0
2025/04/01 18:46:00.000   39.135150663  141.132871324   117.1619   6  20   0.0179   0.0484   0.0374  -0.0095  -0.0124  -0.0113   0.00    0.0
2025/04/01 18:46:30.000   39.135150634  141.132871335   117.1575   6  20   0.0180   0.0480   0.0370  -0.0094  -0.0125  -0.0109   0.00    0.0
2025/04/01 18:47:00.000   39.135150619  141.132871385   117.1680   6  20   0.0177   0.0476   0.0370  -0.0096  -0.0123  -0.0114   0.00    0.0
2025/04/01 18:47:30.000   39.135150545  141.132871386   117.1689   6  20   0.0177   0.0471   0.0367  -0.0094  -0.0123  -0.0108   0.00    0.0
2025/04/01 18:48:00.000   39.135150547  141.132871532   117.1580   6  19   0.0180   0.0467   0.0365  -0.0098  -0.0120  -0.0111   0.00    0.0
2025/04/01 18:48:30.000   39.135150705  141.132871571   117.1622   6  19   0.0181   0.0462   0.0364  -0.0097  -0.0116  -0.0104   0.00    0.0
2025/04/01 18:49:00.000   39.135150761  141.132871643   117.1525   6  19   0.0180   0.0459   0.0362  -0.0094  -0.0111  -0.0108   0.00    0.0
2025/04/01 18:49:30.000   39.135150657  141.132871556   117.1487   6  19   0.0178   0.0455   0.0361  -0.0097  -0.0112  -0.0105   0.00    0.0
2025/04/01 18:50:00.000   39.135150664  141.132871516   117.1549   6  19   0.0177   0.0451   0.0358  -0.0100  -0.0105  -0.0108   0.00    0.0
2025/04/01 18:50:30.000   39.135150688  141.132871557   117.1689   6  19   0.0178   0.0447   0.0360  -0.0097  -0.0105  -0.0112   0.00    0.0
2025/04/01 18:51:00.000   39.135150602  141.132871362   117.1623   6  19   0.0179   0.0445   0.0356  -0.0098  -0.0102  -0.0108   0.00    0.0
2025/04/01 18:51:30.000   39.135150601  141.132871428   117.1760   6  19   0.0179   0.0440   0.0359  -0.0097  -0.0101  -0.0105   0.00    0.0
2025/04/01 18:52:00.000   39.135150750  141.132871473   117.1438   6  19   0.0177   0.0436   0.0356  -0.0093  -0.0101  -0.0103   0.00    0.0
2025/04/01 18:52:30.000   39.135150643  141.132871581   117.1734   6  19   0.0174   0.0433   0.0355  -0.0097  -0.0094  -0.0103   0.00    0.0
2025/04/01 18:53:00.000   39.135150663  141.132871757   117.1534   6  20   0.0171   0.0429   0.0351  -0.0100  -0.0090  -0.0099   0.00    0.0
2025/04/01 18:53:30.000   39.135150697  141.132871587   117.1463   6  20   0.0176   0.0427   0.0349  -0.0098  -0.0090  -0.0103   0.00    0.0
2025/04/01 18:54:00.000   39.135150629  141.132871567   117.1519   6  20   0.0171   0.0424   0.0344  -0.0102  -0.0082  -0.0101   0.00    0.0
2025/04/01 18:54:30.000   39.135150656  141.132871567   117.1580   6  20   0.0175   0.0420   0.0345  -0.0097  -0.0081  -0.0107   0.00    0.0
2025/04/01 18:55:00.000   39.135150672  141.132871591   117.1593   6  20   0.0173   0.0417   0.0342  -0.0102  -0.0086  -0.0103   0.00    0.0
2025/04/01 18:55:30.000   39.135150803  141.132871673   117.1521   6  20   0.0175   0.0414   0.0341  -0.0097  -0.0076  -0.0093   0.00    0.0
2025/04/01 18:56:00.000   39.135150729  141.132871738   117.1470   6  20   0.0171   0.0410   0.0341  -0.0099  -0.0082  -0.0095   0.00    0.0
2025/04/01 18:56:30.000   39.135150597  141.132871577   117.1611   6  20   0.0171   0.0407   0.0338  -0.0100  -0.0079  -0.0095   0.00    0.0
2025/04/01 18:57:00.000   39.135150704  141.132871576   117.1581   6  20   0.0175   0.0406   0.0336  -0.0096  -0.0077  -0.0102   0.00    0.0
2025/04/01 18:57:30.000   39.135150744  141.132871730   117.1493   6  20   0.0169   0.0403   0.0337  -0.0098  -0.0071  -0.0097   0.00    0.0
2025/04/01 18:58:00.000   39.135150673  141.132871694   117.1476   6  20   0.0169   0.0400   0.0339  -0.0097  -0.0065  -0.0096   0.00    0.0
2025/04/01 18:58:30.000   39.135150719  141.132871677   117.1389   6  20   0.0171   0.0397   0.0338  -0.0098  -0.0072  -0.0100   0.00    0.0
2025/04/01 18:59:00.000   39.135150689  141.132871551   117.1585   6  20   0.0168   0.0395   0.0336  -0.0097  -0.0073  -0.0097   0.00    0.0
2025/04/01 18:59:30.000   39.135150694  141.132871628   117.1693   6  20   0.0173   0.0393   0.0334  -0.0103  -0.0061  -0.0101   0.00    0.0
