% program    : MADOCALIB ver.2.0
% inp file   : .\data\rinex\MIZU00JPN_R_20250910000_01D_30S_MO.rnx
% inp file   : .\data\rinex\BRDM00DLR_S_20250910000_01D_MN.rnx
% inp file   : .\data\l6_is-qzss-mdc-004\%Y\%n\%Y%n%HU.204.l6
% inp file   : .\data\l6_is-qzss-mdc-004\%Y\%n\%Y%n%HU.206.l6
% satantfile : 
% rcvantfile : .\data\igs20.atx
% obs start  : 2025/04/01 16:00:00.0 GPST (week2360 230400.0s)
% obs end    : 2025/04/01 16:59:30.0 GPST (week2360 233970.0s)
% pos mode   : PPP Kinematic
% freqs      : L1+2
% siggps     : L1/L2/L5
% sigqzs     : L1/L5/L2
% siggal     : E1/E5a/E5b/E6
% sigbds2    : B1I/B3I/B2I
% sigbds3    : B1I/B3I/B2a
% solution   : Forward
% elev mask  : 10.0 deg
% dynamics   : off
% tidecorr   : on
% ionos opt  : Iono-Free LC
% tropo opt  : Estimate ZTD
% ephemeris  : Broadcast+SSR APC
% navi sys   : GPS GLONASS Galileo QZSS
% amb mode   : OFF
% ar sys     : GPS Galileo QZSS BDS
% val ratio  : 1.5
% max std pos: 1.5 m
% ionocorr   : off
% antenna1   : SEPCHOKE_B3E6   NONE  ( 0.0000  0.0000  0.1206)
%
% (lat/lon/height=WGS84/ellipsoidal,Q=1:fix,2:float,3:sbas,4:dgps,5:single,6:ppp,ns=# of satellites)
%  GPST                  latitude(deg) longitude(deg)  height(m)   Q  ns   sdn(m)   sde(m)   sdu(m)  sdne(m)  sdeu(m)  sdun(m) age(s)  ratio
2025/04/01 16:00:00.000   39.135144243  141.132873254   117.4217   6  27   3.0598   2.3615   5.2238   0.0430   0.6683  -2.4157   0.00    0.0
2025/04/01 16:00:30.000   39.135147486  141.132873506   116.3390   6  27   1.7437   1.6260   2.8686   0.3146   0.4296  -1.3457   0.00    0.0
2025/04/01 16:01:00.000   39.135149108  141.132872212   117.0379   6  27   1.1308   1.2696   1.8591   0.3153   0.3220  -0.8630   0.00    0.0
2025/04/01 16:01:30.000   39.135146461  141.132876717   118.5470   6  27   0.7964   1.0387   1.3514   0.2845   0.2617  -0.6075   0.00    0.0
2025/04/01 16:02:00.000   39.135148416  141.132878710   118.1959   6  27   0.5955   0.8707   1.0609   0.2498   0.2233  -0.4572   0.00    0.0
2025/04/01 16:02:30.000   39.135146463  141.132880801   117.6787   6  27   0.4654   0.7418   0.8726   0.2178   0.1956  -0.3606   0.00    0.0
2025/04/01 16:03:00.000   39.135147073  141.132881370   117.7310   6  27   0.3760   0.6397   0.7373   0.1902   0.1735  -0.2941   0.00    0.0
2025/04/01 16:03:30.000   39.135148558  141.132878134   117.3552   6  26   0.3117   0.5575   0.6436   0.1668   0.1538  -0.2466   0.00    0.0
2025/04/01 16:04:00.000   39.135149259  141.132877102   117.2901   6  26   0.2637   0.4903   0.5732   0.1471   0.1370  -0.2110   0.00    0.0
2025/04/01 16:04:30.000   39.135149499  141.132876942   117.2301   6  27   0.2269   0.4348   0.5173   0.1305   0.1227  -0.1838   0.00    0.0
2025/04/01 16:05:00.000   39.135150425  141.132875378   117.2907   6  27   0.1979   0.3884   0.4698   0.1165   0.1104  -0.1623   0.00    0.0
2025/04/01 16:05:30.000   39.135150665  141.132876325   117.4053   6  27   0.1746   0.3493   0.4278   0.1046   0.1000  -0.1447   0.00    0.0
2025/04/01 16:06:00.000   39.135150271  141.132875229   117.2375   6  27   0.1555   0.3161   0.3897   0.0944   0.0911  -0.1299   0.00    0.0
2025/04/01 16:06:30.000   39.135149551  141.132875375   117.1041   6  27   0.1398   0.2876   0.3550   0.0857   0.0832  -0.1173   0.00    0.0
2025/04/01 16:07:00.000   39.135150010  141.132874733   117.1035   6  27   0.1265   0.2631   0.3235   0.0780   0.0764  -0.1065   0.00    0.0
2025/04/01 16:07:30.000   39.135150126  141.132874615   117.1818   6  27   0.1153   0.2417   0.2952   0.0715   0.0704  -0.0972   0.00    0.0
2025/04/01 16:08:00.000   39.135149926  141.132874563   117.1240   6  27   0.1056   0.2231   0.2701   0.0657   0.0651  -0.0890   0.00    0.0
2025/04/01 16:08:30.000   39.135150286  141.132873709   117.1426   6  27   0.0972   0.2066   0.2478   0.0607   0.0603  -0.0819   0.00    0.0
2025/04/01 16:09:00.000   39.135150330  141.132873664   117.0575   6  27   0.0899   0.1922   0.2281   0.0562   0.0560  -0.0756   0.00    0.0
2025/04/01 16:09:30.000   39.135150323  141.132873416   117.0894   6  27   0.0836   0.1793   0.2107   0.0522   0.0521  -0.0702   0.00    0.0
2025/04/01 16:10:00.000   39.135150383  141.132873233   117.0736   6  27   0.0779   0.1677   0.1953   0.0487   0.0485  -0.0653   0.00    0.0
2025/04/01 16:10:30.000   39.135150281  141.132873258   117.1515   6  27   0.0730   0.1575   0.1816   0.0454   0.0454  -0.0611   0.00    0.0
2025/04/01 16:11:00.000   39.135150248  141.132873203   117.1143   6  26   0.0687   0.1482   0.1698   0.0425   0.0422  -0.0574   0.00    0.0
2025/04/01 16:11:30.000   39.135150341  141.132873120   117.1160   6  26   0.0645   0.1398   0.1595   0.0400   0.0395  -0.0541   0.00    0.0
2025/04/01 16:12:00.000   39.135150450  141.132873136   117.1308   6  26   0.0609   0.1323   0.1502   0.0377   0.0370  -0.0511   0.00    0.0
2025/04/01 16:12:30.000   39.135150294  141.132873246   117.1344   6  26   0.0577   0.1252   0.1419   0.0357   0.0348  -0.0486   0.00    0.0
2025/04/01 16:13:00.000   39.135150169  141.132873420   117.1467   6  26   0.0549   0.1190   0.1342   0.0336   0.0327  -0.0461   0.00    0.0
2025/04/01 16:13:30.000   39.135150365  141.132873294   117.1459   6  26   0.0521   0.1132   0.1274   0.0319   0.0307  -0.0439   0.00    0.0
2025/04/01 16:14:00.000   39.135150320  141.132873093   117.1505   6  26   0.0497   0.1079   0.1210   0.0303   0.0290  -0.0418   0.00    0.0
2025/04/01 16:14:30.000   39.135150407  141.132873110   117.1420   6  26   0.0476   0.1030   0.1153   0.0286   0.0272  -0.0400   0.00    0.0
2025/04/01 16:15:00.000   39.135150487  141.132873080   117.1131   6  26   0.0455   0.0985   0.1100   0.0274   0.0260  -0.0384   0.00    0.0
2025/04/01 16:15:30.000   39.135150493  141.132872718   117.0991   6  26   0.0437   0.0944   0.1052   0.0262   0.0244  -0.0367   0.00    0.0
2025/04/01 16:16:00.000   39.135150440  141.132872708   117.1222   6  26   0.0419   0.0904   0.1008   0.0250   0.0230  -0.0354   0.00    0.0
2025/04/01 16:16:30.000   39.135150445  141.132872760   117.1233   6  26   0.0403   0.0869   0.0967   0.0238   0.0220  -0.0342   0.00    0.0
2025/04/01 16:17:00.000   39.135150440  141.132872696   117.1152   6  26   0.0388   0.0835   0.0930   0.0229   0.0208  -0.0329   0.00    0.0
2025/04/01 16:17:30.000   39.135150427  141.132872405   117.1512   6  26   0.0376   0.0804   0.0895   0.0220   0.0199  -0.0316   0.00    0.0
2025/04/01 16:18:00.000   39.135150494  141.132872610   117.1711   6  26   0.0361   0.0774   0.0862   0.0210   0.0186  -0.0306   0.00    0.0
2025/04/01 16:18:30.000   39.135150485  141.132872658   117.1652   6  26   0.0349   0.0748   0.0833   0.0203   0.0177  -0.0296   0.00    0.0
2025/04/01 16:19:00.000   39.135150395  141.132872637   117.1677   6  26   0.0339   0.0722   0.0805   0.0194   0.0166  -0.0288   0.00    0.0
2025/04/01 16:19:30.000   39.135150680  141.132872352   117.1535   6  26   0.0329   0.0699   0.0779   0.0189   0.0159  -0.0279   0.00    0.0
2025/04/01 16:20:00.000   39.135150733  141.132872395   117.1381   6  27   0.0318   0.0675   0.0755   0.0183   0.0149  -0.0269   0.00    0.0
2025/04/01 16:20:30.000   39.135150611  141.132872291   117.1471   6  26   0.0312   0.0654   0.0731   0.0173   0.0136  -0.0262   0.00    0.0
2025/04/01 16:21:00.000   39.135150669  141.132872346   117.1267   6  26   0.0304   0.0635   0.0710   0.0171   0.0128  -0.0255   0.00    0.0
2025/04/01 16:21:30.000   39.135150657  141.132872194   117.1267   6  26   0.0295   0.0617   0.0692   0.0160   0.0117  -0.0247   0.00    0.0
2025/04/01 16:22:00.000   39.135150585  141.132872151   117.1445   6  26   0.0287   0.0599   0.0674   0.0159   0.0099  -0.0239   0.00    0.0
2025/04/01 16:22:30.000   39.135150715  141.132872158   117.1532   6  26   0.0283   0.0581   0.0656   0.0153   0.0095  -0.0235   0.00    0.0
2025/04/01 16:23:00.000   39.135150656  141.132872235   117.1494   6  26   0.0275   0.0568   0.0642   0.0146   0.0092  -0.0228   0.00    0.0
2025/04/01 16:23:30.000   39.135150549  141.132872203   117.1628   6  26   0.0270   0.0552   0.0627   0.0145   0.0076  -0.0222   0.00    0.0
2025/04/01 16:24:00.000   39.135150642  141.132872229   117.1585   6  26   0.0260   0.0538   0.0613   0.0138   0.0066  -0.0212   0.00    0.0
2025/04/01 16:24:30.000   39.135150680  141.132872056   117.1508   6  26   0.0257   0.0524   0.0598   0.0136   0.0051  -0.0208   0.00    0.0
2025/04/01 16:25:00.000   39.135150831  141.132871997   117.1451   6  26   0.0253   0.0511   0.0586   0.0133   0.0039  -0.0207   0.00    0.0
2025/04/01 16:25:30.000   39.135150750  141.132872065   117.1497   6  26   0.0249   0.0501   0.0574   0.0126   0.0035  -0.0202   0.00    0.0
2025/04/01 16:26:00.000   39.135150697  141.132871972   117.1544   6  26   0.0246   0.0490   0.0563   0.0116  -0.0014  -0.0200   0.00    0.0
2025/04/01 16:26:30.000   39.135150757  141.132871963   117.1396   6  25   0.0239   0.0477   0.0552   0.0122  -0.0044  -0.0195   0.00    0.0
2025/04/01 16:27:00.000   39.135150743  141.132872090   117.1287   6  25   0.0235   0.0467   0.0542   0.0119  -0.0052  -0.0190   0.00    0.0
2025/04/01 16:27:30.000   39.135150713  141.132871921   117.1359   6  25   0.0232   0.0458   0.0536   0.0115  -0.0043  -0.0185   0.00    0.0
2025/04/01 16:28:00.000   39.135150609  141.132871884   117.1460   6  25   0.0227   0.0447   0.0527   0.0113  -0.0063  -0.0181   0.00    0.0
2025/04/01 16:28:30.000   39.135150702  141.132871789   117.1448   6  25   0.0228   0.0438   0.0519   0.0109  -0.0061  -0.0180   0.00    0.0
2025/04/01 16:29:00.000   39.135150926  141.132871643   117.1346   6  24   0.0223   0.0430   0.0514   0.0104  -0.0062  -0.0180   0.00    0.0
2025/04/01 16:29:30.000   39.135150721  141.132871895   117.1377   6  24   0.0219   0.0421   0.0504   0.0103  -0.0067  -0.0176   0.00    0.0
2025/04/01 16:30:00.000   39.135150759  141.132872056   117.1315   6  24   0.0215   0.0414   0.0499   0.0099  -0.0072  -0.0176   0.00    0.0
2025/04/01 16:30:30.000   39.135150714  141.132871785   117.1215   6  24   0.0214   0.0407   0.0492   0.0094  -0.0071  -0.0171   0.00    0.0
2025/04/01 16:31:00.000   39.135150771  141.132871783   117.1357   6  24   0.0210   0.0401   0.0487   0.0091  -0.0063  -0.0165   0.00    0.0
2025/04/01 16:31:30.000   39.135150789  141.132871807   117.1307   6  22   0.0210   0.0394   0.0487   0.0095  -0.0081  -0.0170   0.00    0.0
2025/04/01 16:32:00.000   39.135150692  141.132871848   117.1409   6  22   0.0211   0.0384   0.0483   0.0098  -0.0079  -0.0172   0.00    0.0
2025/04/01 16:32:30.000   39.135150735  141.132871989   117.1210   6  22   0.0200   0.0380   0.0477   0.0097  -0.0083  -0.0170   0.00    0.0
2025/04/01 16:33:00.000   39.135150708  141.132871766   117.1443   6  22   0.0203   0.0373   0.0473   0.0089  -0.0084  -0.0167   0.00    0.0
2025/04/01 16:33:30.000   39.135150782  141.132871826   117.1366   6  22   0.0204   0.0368   0.0469   0.0093  -0.0085  -0.0161   0.00    0.0
2025/04/01 16:34:00.000   39.135150748  141.132871957   117.1342   6  21   0.0204   0.0362   0.0468   0.0087  -0.0082  -0.0164   0.00    0.0
2025/04/01 16:34:30.000   39.135150871  141.132871814   117.1302   6  22   0.0198   0.0356   0.0462   0.0088  -0.0084  -0.0158   0.00    0.0
2025/04/01 16:35:00.000   39.135150927  141.132871861   117.1071   6  22   0.0196   0.0349   0.0457   0.0086  -0.0079  -0.0156   0.00    0.0
2025/04/01 16:35:30.000   39.135150620  141.132871964   117.1278   6  22   0.0194   0.0346   0.0453   0.0081  -0.0087  -0.0152   0.00    0.0
2025/04/01 16:36:00.000   39.135150539  141.132871933   117.1501   6  22   0.0193   0.0342   0.0450   0.0075  -0.0084  -0.0146   0.00    0.0
2025/04/01 16:36:30.000   39.135150745  141.132872010   117.1358   6  22   0.0188   0.0337   0.0451   0.0076  -0.0088  -0.0145   0.00    0.0
2025/04/01 16:37:00.000   39.135150614  141.132871981   117.1393   6  22   0.0186   0.0332   0.0444   0.0079  -0.0091  -0.0141   0.00    0.0
2025/04/01 16:37:30.000   39.135150618  141.132871952   117.1383   6  22   0.0186   0.0329   0.0442   0.0070  -0.0086  -0.0142   0.00    0.0
2025/04/01 16:38:00.000   39.135150685  141.132871892   117.1449   6  22   0.0184   0.0326   0.0437   0.0069  -0.0095  -0.0135   0.00    0.0
2025/04/01 16:38:30.000   39.135150631  141.132871998   117.1573   6  22   0.0184   0.0321   0.0438   0.0073  -0.0085  -0.0138   0.00    0.0
2025/04/01 16:39:00.000   39.135150676  141.132872144   117.1378   6  23   0.0176   0.0316   0.0434   0.0071  -0.0093  -0.0132   0.00    0.0
2025/04/01 16:39:30.000   39.135150589  141.132872146   117.1478   6  23   0.0185   0.0310   0.0429   0.0065  -0.0093  -0.0129   0.00    0.0
2025/04/01 16:40:00.000   39.135150639  141.132871963   117.1575   6  23   0.0176   0.0307   0.0423   0.0078  -0.0093  -0.0126   0.00    0.0
2025/04/01 16:40:30.000   39.135150722  141.132872164   117.1339   6  23   0.0179   0.0303   0.0420   0.0071  -0.0093  -0.0121   0.00    0.0
2025/04/01 16:41:00.000   39.135150664  141.132871972   117.1596   6  23   0.0171   0.0302   0.0419   0.0073  -0.0094  -0.0119   0.00    0.0
2025/04/01 16:41:30.000   39.135150596  141.132872157   117.1591   6  23   0.0178   0.0297   0.0416   0.0067  -0.0098  -0.0118   0.00    0.0
2025/04/01 16:42:00.000   39.135150664  141.132872117   117.1445   6  22   0.0172   0.0293   0.0415   0.0073  -0.0106  -0.0114   0.00    0.0
2025/04/01 16:42:30.000   39.135150751  141.132872035   117.1413   6  22   0.0168   0.0290   0.0417   0.0066  -0.0103  -0.0109   0.00    0.0
2025/04/01 16:43:00.000   39.135150670  141.132872019   117.1743   6  24   0.0171   0.0288   0.0414   0.0069  -0.0101  -0.0106   0.00    0.0
2025/04/01 16:43:30.000   39.135150632  141.132872072   117.1686   6  24   0.0168   0.0284   0.0411   0.0067  -0.0103  -0.0107   0.00    0.0
2025/04/01 16:44:00.000   39.135150722  141.132872062   117.1613   6  24   0.0167   0.0283   0.0405   0.0052  -0.0103  -0.0107   0.00    0.0
2025/04/01 16:44:30.000   39.135150738  141.132872017   117.1551   6  24   0.0166   0.0281   0.0402   0.0060  -0.0098  -0.0103   0.00    0.0
2025/04/01 16:45:00.000   39.135150637  141.132872128   117.1478   6  24   0.0167   0.0276   0.0402   0.0061  -0.0106  -0.0102   0.00    0.0
2025/04/01 16:45:30.000   39.135150619  141.132872146   117.1441   6  24   0.0164   0.0274   0.0400   0.0061  -0.0105  -0.0097   0.00    0.0
2025/04/01 16:46:00.000   39.135150699  141.132871959   117.1612   6  24   0.0163   0.0270   0.0398   0.0058  -0.0106  -0.0094   0.00    0.0
2025/04/01 16:46:30.000   39.135150699  141.132872022   117.1658   6  23   0.0165   0.0271   0.0398   0.0054  -0.0106  -0.0090   0.00    0.0
2025/04/01 16:47:00.000   39.135150696  141.132872028   117.1454   6  23   0.0162   0.0268   0.0396   0.0054  -0.0102  -0.0090   0.00    0.0
2025/04/01 16:47:30.000   39.135150648  141.132872096   117.1599   6  23   0.0162   0.0264   0.0394   0.0058  -0.0102  -0.0085   0.00    0.0
2025/04/01 16:48:00.000   39.135150677  141.132872016   117.1593   6  23   0.0160   0.0259   0.0393   0.0061  -0.0108  -0.0083   0.00    0.0
2025/04/01 16:48:30.000   39.135150737  141.132871980   117.1503   6  23   0.0167   0.0259   0.0391   0.0044  -0.0099  -0.0086   0.00    0.0
2025/04/01 16:49:00.000   39.135150638  141.132872071   117.1652   6  23   0.0158   0.0256   0.0388   0.0051  -0.0108  -0.0080   0.00    0.0
2025/04/01 16:49:30.000   39.135150714  141.132872123   117.1397   6  23   0.0154   0.0256   0.0383   0.0052  -0.0100  -0.0077   0.00    0.0
2025/04/01 16:50:00.000   39.135150730  141.132872059   117.1551   6  23   0.0155   0.0252   0.0386   0.0058  -0.0100  -0.0080   0.00    0.0
2025/04/01 16:50:30.000   39.135150672  141.132872037   117.1708   6  23   0.0161   0.0251   0.0387   0.0053  -0.0106  -0.0077   0.00    0.0
2025/04/01 16:51:00.000   39.135150768  141.132872012   117.1637   6  23   0.0159   0.0252   0.0385   0.0049  -0.0100  -0.0067   0.00    0.0
2025/04/01 16:51:30.000   39.135150710  141.132872021   117.1556   6  23   0.0156   0.0247   0.0383   0.0054  -0.0110  -0.0076   0.00    0.0
2025/04/01 16:52:00.000   39.135150741  141.132872204   117.1350   6  22   0.0157   0.0242   0.0389   0.0057  -0.0107  -0.0066   0.00    0.0
2025/04/01 16:52:30.000   39.135150669  141.132872130   117.1339   6  23   0.0156   0.0244   0.0382   0.0051  -0.0099  -0.0059   0.00    0.0
2025/04/01 16:53:00.000   39.135150683  141.132872147   117.1564   6  23   0.0153   0.0236   0.0384   0.0051  -0.0104  -0.0083   0.00    0.0
2025/04/01 16:53:30.000   39.135150782  141.132871843   117.1830   6  23   0.0156   0.0237   0.0379   0.0050  -0.0106  -0.0075   0.00    0.0
2025/04/01 16:54:00.000   39.135150816  141.132872110   117.1382   6  23   0.0156   0.0238   0.0374   0.0038  -0.0101  -0.0075   0.00    0.0
2025/04/01 16:54:30.000   39.135150682  141.132872096   117.1595   6  23   0.0151   0.0235   0.0377   0.0040  -0.0101  -0.0077   0.00    0.0
2025/04/01 16:55:00.000   39.135150697  141.132872040   117.1619   6  23   0.0152   0.0233   0.0377   0.0051  -0.0103  -0.0075   0.00    0.0
2025/04/01 16:55:30.000   39.135150710  141.132872242   117.1345   6  23   0.0150   0.0231   0.0374   0.0047  -0.0104  -0.0066   0.00    0.0
2025/04/01 16:56:00.000   39.135150801  141.132872163   117.1319   6  23   0.0153   0.0230   0.0373   0.0039  -0.0101  -0.0084   0.00    0.0
2025/04/01 16:56:30.000   39.135150795  141.132872011   117.1388   6  23   0.0152   0.0227   0.0373   0.0042  -0.0094  -0.0077   0.00    0.0
2025/04/01 16:57:00.000   39.135150736  141.132872114   117.1401   6  23   0.0150   0.0230   0.0368   0.0030  -0.0102  -0.0069   0.00    0.0
2025/04/01 16:57:30.000   39.135150720  141.132872094   117.1629   6  23   0.0149   0.0231   0.0365   0.0035  -0.0100  -0.0066   0.00    0.0
2025/04/01 16:58:00.000   39.135150766  141.132872076   117.1453   6  23   0.0148   0.0228   0.0364   0.0018  -0.0101  -0.0068   0.00    0.0
2025/04/01 16:58:30.000   39.135150785  141.132872037   117.1363   6  23   0.0143   0.0226   0.0363   0.0036  -0.0102  -0.0057   0.00    0.0
2025/04/01 16:59:00.000   39.135150752  141.132872044   117.1606   6  23   0.0152   0.0223   0.0367   0.0032  -0.0096  -0.0074   0.00    0.0
2025/04/01 16:59:30.000   39.135150754  141.132872138   117.1531   6  23   0.0147   0.0226   0.0358   0.0035  -0.0097  -0.0053   0.00    0.0
