% program    : MADOCALIB ver.2.0
% inp file   : .\data\rinex\MIZU00JPN_R_20250910000_01D_30S_MO.rnx
% inp file   : .\data\rinex\BRDM00DLR_S_20250910000_01D_MN.rnx
% inp file   : .\data\l6_is-qzss-mdc-004\%Y\%n\%Y%n%HU.204.l6
% inp file   : .\data\l6_is-qzss-mdc-004\%Y\%n\%Y%n%HU.206.l6
% satantfile : 
% rcvantfile : .\data\igs20.atx
% obs start  : 2025/04/01 00:00:00.0 GPST (week2360 172800.0s)
% obs end    : 2025/04/01 00:59:30.0 GPST (week2360 176370.0s)
% pos mode   : PPP Kinematic
% freqs      : L1+2
% siggps     : L1/L2/L5
% sigqzs     : L1/L5/L2
% siggal     : E1/E5a/E5b/E6
% sigbds2    : B1I/B3I/B2I
% sigbds3    : B1I/B3I/B2a
% solution   : Forward
% elev mask  : 10.0 deg
% dynamics   : off
% tidecorr   : on
% ionos opt  : Iono-Free LC
% tropo opt  : Estimate ZTD
% ephemeris  : Broadcast+SSR APC
% navi sys   : GPS GLONASS Galileo QZSS
% amb mode   : OFF
% ar sys     : GPS Galileo QZSS BDS
% val ratio  : 1.5
% max std pos: 1.5 m
% ionocorr   : off
% antenna1   : SEPCHOKE_B3E6   NONE  ( 0.0000  0.0000  0.1206)
%
% (lat/lon/height=WGS84/ellipsoidal,Q=1:fix,2:float,3:sbas,4:dgps,5:single,6:ppp,ns=# of satellites)
%  GPST                  latitude(deg) longitude(deg)  height(m)   Q  ns   sdn(m)   sde(m)   sdu(m)  sdne(m)  sdeu(m)  sdun(m) age(s)  ratio
2025/04/01 00:01:00.000   39.135147183  141.132876743   117.9693   6  10   6.1096   4.3537  10.1142   2.8855  -3.8564  -6.4790   0.00    0.0
2025/04/01 00:01:30.000   39.135155861  141.132884070   116.7460   6  10   4.1319   3.0036   6.9246   1.9142  -2.6190  -4.4842   0.00    0.0
2025/04/01 00:02:00.000   39.135158162  141.132886039   116.9527   6  11   3.1418   2.2712   5.3687   1.3433  -1.9946  -3.5192   0.00    0.0
2025/04/01 00:02:30.000   39.135155981  141.132880032   117.1027   6  15   2.4892   1.8153   4.0971   0.9679  -1.4859  -2.7442   0.00    0.0
2025/04/01 00:03:00.000   39.135151243  141.132873119   118.2574   6  15   2.0068   1.5197   3.1867   0.7320  -1.1534  -2.1805   0.00    0.0
2025/04/01 00:03:30.000   39.135152383  141.132874095   117.4471   6  15   1.6205   1.3056   2.5196   0.5700  -0.9262  -1.7421   0.00    0.0
2025/04/01 00:04:00.000   39.135154073  141.132874081   116.8663   6  15   1.3218   1.1415   2.0444   0.4612  -0.7730  -1.4151   0.00    0.0
2025/04/01 00:04:30.000   39.135153716  141.132873559   116.9335   6  14   1.0972   1.0119   1.7112   0.3898  -0.6711  -1.1789   0.00    0.0
2025/04/01 00:05:00.000   39.135150611  141.132877200   117.4700   6  14   0.9300   0.9060   1.4765   0.3443  -0.6013  -1.0103   0.00    0.0
2025/04/01 00:05:30.000   39.135149059  141.132877157   117.6121   6  14   0.8051   0.8180   1.3086   0.3154  -0.5522  -0.8893   0.00    0.0
2025/04/01 00:06:00.000   39.135151480  141.132875357   117.1736   6  13   0.7113   0.7442   1.1855   0.2962  -0.5161  -0.8015   0.00    0.0
2025/04/01 00:06:30.000   39.135150349  141.132875803   117.2873   6  13   0.6399   0.6814   1.0929   0.2837  -0.4890  -0.7367   0.00    0.0
2025/04/01 00:07:00.000   39.135150493  141.132874592   117.2752   6  13   0.5846   0.6275   1.0211   0.2751  -0.4676  -0.6875   0.00    0.0
2025/04/01 00:07:30.000   39.135151403  141.132872968   117.1258   6  13   0.5410   0.5807   0.9632   0.2686  -0.4497  -0.6489   0.00    0.0
2025/04/01 00:08:00.000   39.135151679  141.132872979   116.9988   6  13   0.5056   0.5398   0.9141   0.2627  -0.4338  -0.6169   0.00    0.0
2025/04/01 00:08:30.000   39.135150656  141.132872823   117.2843   6  13   0.4762   0.5038   0.8714   0.2572  -0.4191  -0.5896   0.00    0.0
2025/04/01 00:09:00.000   39.135150763  141.132872256   117.2881   6  14   0.4510   0.4718   0.8325   0.2517  -0.4050  -0.5651   0.00    0.0
2025/04/01 00:09:30.000   39.135151379  141.132872108   117.1519   6  14   0.4272   0.4428   0.7928   0.2444  -0.3897  -0.5398   0.00    0.0
2025/04/01 00:10:00.000   39.135151415  141.132871939   117.2208   6  14   0.4035   0.4162   0.7509   0.2352  -0.3723  -0.5127   0.00    0.0
2025/04/01 00:10:30.000   39.135150941  141.132871964   117.2716   6  14   0.3795   0.3915   0.7064   0.2239  -0.3529  -0.4834   0.00    0.0
2025/04/01 00:11:00.000   39.135150840  141.132872113   117.3310   6  13   0.3554   0.3756   0.6606   0.2132  -0.3345  -0.4529   0.00    0.0
2025/04/01 00:11:30.000   39.135149741  141.132871325   117.4844   6  13   0.3317   0.3603   0.6145   0.2017  -0.3150  -0.4220   0.00    0.0
2025/04/01 00:12:00.000   39.135150193  141.132870959   117.3399   6  12   0.3090   0.3464   0.5746   0.1902  -0.2987  -0.3918   0.00    0.0
2025/04/01 00:12:30.000   39.135150038  141.132871563   117.3988   6  12   0.2878   0.3331   0.5375   0.1792  -0.2832  -0.3637   0.00    0.0
2025/04/01 00:13:00.000   39.135150222  141.132871744   117.3285   6  12   0.2684   0.3202   0.5026   0.1687  -0.2680  -0.3373   0.00    0.0
2025/04/01 00:13:30.000   39.135150504  141.132871250   117.2614   6  16   0.2507   0.3073   0.4698   0.1583  -0.2528  -0.3127   0.00    0.0
2025/04/01 00:14:00.000   39.135150130  141.132871009   117.3330   6  16   0.2348   0.2951   0.4395   0.1490  -0.2388  -0.2904   0.00    0.0
2025/04/01 00:14:30.000   39.135149841  141.132870901   117.3977   6  16   0.2208   0.2837   0.4120   0.1408  -0.2259  -0.2702   0.00    0.0
2025/04/01 00:15:00.000   39.135149673  141.132871063   117.4273   6  16   0.2084   0.2727   0.3871   0.1338  -0.2141  -0.2521   0.00    0.0
2025/04/01 00:15:30.000   39.135149491  141.132870505   117.4502   6  16   0.1974   0.2623   0.3645   0.1277  -0.2033  -0.2358   0.00    0.0
2025/04/01 00:16:00.000   39.135149551  141.132870405   117.4173   6  16   0.1875   0.2525   0.3440   0.1225  -0.1934  -0.2213   0.00    0.0
2025/04/01 00:16:30.000   39.135149726  141.132870890   117.3496   6  16   0.1788   0.2430   0.3254   0.1181  -0.1844  -0.2083   0.00    0.0
2025/04/01 00:17:00.000   39.135149649  141.132870130   117.3746   6  16   0.1708   0.2341   0.3086   0.1142  -0.1761  -0.1966   0.00    0.0
2025/04/01 00:17:30.000   39.135149620  141.132870603   117.4288   6  16   0.1636   0.2255   0.2933   0.1109  -0.1684  -0.1861   0.00    0.0
2025/04/01 00:18:00.000   39.135149732  141.132871587   117.3686   6  16   0.1570   0.2174   0.2793   0.1079  -0.1614  -0.1766   0.00    0.0
2025/04/01 00:18:30.000   39.135149360  141.132871119   117.4446   6  17   0.1510   0.2097   0.2665   0.1054  -0.1549  -0.1680   0.00    0.0
2025/04/01 00:19:00.000   39.135149199  141.132870103   117.4919   6  17   0.1452   0.2024   0.2547   0.1030  -0.1489  -0.1601   0.00    0.0
2025/04/01 00:19:30.000   39.135149368  141.132870371   117.4672   6  17   0.1399   0.1955   0.2439   0.1009  -0.1433  -0.1529   0.00    0.0
2025/04/01 00:20:00.000   39.135149406  141.132870774   117.4708   6  17   0.1350   0.1890   0.2340   0.0989  -0.1382  -0.1464   0.00    0.0
2025/04/01 00:20:30.000   39.135149421  141.132870594   117.5045   6  17   0.1304   0.1828   0.2249   0.0969  -0.1333  -0.1404   0.00    0.0
2025/04/01 00:21:00.000   39.135149760  141.132870268   117.3971   6  17   0.1260   0.1769   0.2164   0.0951  -0.1288  -0.1349   0.00    0.0
2025/04/01 00:21:30.000   39.135149607  141.132870572   117.4564   6  17   0.1218   0.1714   0.2086   0.0932  -0.1246  -0.1298   0.00    0.0
2025/04/01 00:22:00.000   39.135149347  141.132870900   117.4798   6  17   0.1179   0.1661   0.2013   0.0915  -0.1207  -0.1251   0.00    0.0
2025/04/01 00:22:30.000   39.135149533  141.132871176   117.4755   6  17   0.1142   0.1611   0.1946   0.0898  -0.1170  -0.1207   0.00    0.0
2025/04/01 00:23:00.000   39.135149309  141.132870394   117.4745   6  17   0.1106   0.1564   0.1882   0.0880  -0.1135  -0.1166   0.00    0.0
2025/04/01 00:23:30.000   39.135149393  141.132870733   117.4827   6  17   0.1073   0.1519   0.1824   0.0864  -0.1103  -0.1128   0.00    0.0
2025/04/01 00:24:00.000   39.135149427  141.132870708   117.4819   6  18   0.1040   0.1477   0.1769   0.0848  -0.1072  -0.1092   0.00    0.0
2025/04/01 00:24:30.000   39.135149188  141.132870416   117.5361   6  18   0.1007   0.1436   0.1716   0.0831  -0.1043  -0.1056   0.00    0.0
2025/04/01 00:25:00.000   39.135149173  141.132870456   117.4948   6  18   0.0976   0.1398   0.1667   0.0815  -0.1017  -0.1024   0.00    0.0
2025/04/01 00:25:30.000   39.135149367  141.132870485   117.4851   6  18   0.0947   0.1361   0.1620   0.0799  -0.0990  -0.0992   0.00    0.0
2025/04/01 00:26:00.000   39.135149336  141.132870199   117.4753   6  20   0.0919   0.1326   0.1576   0.0782  -0.0966  -0.0964   0.00    0.0
2025/04/01 00:26:30.000   39.135149045  141.132869755   117.5288   6  20   0.0892   0.1291   0.1534   0.0766  -0.0942  -0.0936   0.00    0.0
2025/04/01 00:27:00.000   39.135149037  141.132869689   117.5030   6  20   0.0867   0.1259   0.1493   0.0750  -0.0919  -0.0911   0.00    0.0
2025/04/01 00:27:30.000   39.135149071  141.132869521   117.5257   6  20   0.0842   0.1228   0.1455   0.0734  -0.0897  -0.0885   0.00    0.0
2025/04/01 00:28:00.000   39.135149140  141.132869534   117.5386   6  20   0.0818   0.1198   0.1418   0.0718  -0.0876  -0.0862   0.00    0.0
2025/04/01 00:28:30.000   39.135149202  141.132869908   117.4797   6  20   0.0794   0.1169   0.1382   0.0703  -0.0855  -0.0839   0.00    0.0
2025/04/01 00:29:00.000   39.135149221  141.132869760   117.4650   6  20   0.0773   0.1141   0.1349   0.0688  -0.0836  -0.0818   0.00    0.0
2025/04/01 00:29:30.000   39.135149170  141.132869599   117.4877   6  20   0.0751   0.1115   0.1316   0.0672  -0.0818  -0.0797   0.00    0.0
2025/04/01 00:30:00.000   39.135149291  141.132869925   117.4519   6  20   0.0732   0.1089   0.1283   0.0658  -0.0799  -0.0778   0.00    0.0
2025/04/01 00:30:30.000   39.135149344  141.132869926   117.4606   6  21   0.0712   0.1064   0.1253   0.0643  -0.0782  -0.0759   0.00    0.0
2025/04/01 00:31:00.000   39.135149340  141.132869668   117.4545   6  21   0.0692   0.1040   0.1223   0.0628  -0.0766  -0.0740   0.00    0.0
2025/04/01 00:31:30.000   39.135149298  141.132869583   117.4819   6  21   0.0674   0.1018   0.1195   0.0615  -0.0750  -0.0722   0.00    0.0
2025/04/01 00:32:00.000   39.135149374  141.132869556   117.4357   6  21   0.0657   0.0995   0.1167   0.0601  -0.0734  -0.0705   0.00    0.0
2025/04/01 00:32:30.000   39.135149529  141.132869793   117.4253   6  21   0.0640   0.0974   0.1140   0.0588  -0.0718  -0.0688   0.00    0.0
2025/04/01 00:33:00.000   39.135149461  141.132869875   117.4462   6  21   0.0624   0.0954   0.1115   0.0575  -0.0704  -0.0673   0.00    0.0
2025/04/01 00:33:30.000   39.135149553  141.132870067   117.4524   6  21   0.0608   0.0934   0.1090   0.0562  -0.0689  -0.0657   0.00    0.0
2025/04/01 00:34:00.000   39.135149617  141.132870260   117.4081   6  21   0.0593   0.0915   0.1065   0.0550  -0.0675  -0.0643   0.00    0.0
2025/04/01 00:34:30.000   39.135149566  141.132870104   117.4065   6  20   0.0579   0.0898   0.1043   0.0538  -0.0660  -0.0628   0.00    0.0
2025/04/01 00:35:00.000   39.135149756  141.132870278   117.4010   6  20   0.0566   0.0882   0.1024   0.0528  -0.0644  -0.0614   0.00    0.0
2025/04/01 00:35:30.000   39.135149717  141.132870402   117.4222   6  20   0.0553   0.0867   0.1004   0.0516  -0.0627  -0.0598   0.00    0.0
2025/04/01 00:36:00.000   39.135149598  141.132870353   117.4093   6  20   0.0540   0.0852   0.0985   0.0507  -0.0612  -0.0585   0.00    0.0
2025/04/01 00:36:30.000   39.135149729  141.132870239   117.3820   6  20   0.0528   0.0838   0.0967   0.0497  -0.0596  -0.0571   0.00    0.0
2025/04/01 00:37:00.000   39.135149805  141.132870254   117.3729   6  20   0.0518   0.0823   0.0955   0.0486  -0.0584  -0.0556   0.00    0.0
2025/04/01 00:37:30.000   39.135149737  141.132870325   117.3777   6  20   0.0505   0.0808   0.0937   0.0477  -0.0570  -0.0545   0.00    0.0
2025/04/01 00:38:00.000   39.135149762  141.132870502   117.3674   6  20   0.0494   0.0795   0.0920   0.0468  -0.0555  -0.0533   0.00    0.0
2025/04/01 00:38:30.000   39.135149889  141.132870557   117.3728   6  20   0.0484   0.0782   0.0905   0.0459  -0.0542  -0.0521   0.00    0.0
2025/04/01 00:39:00.000   39.135149891  141.132870411   117.3692   6  20   0.0474   0.0769   0.0889   0.0449  -0.0529  -0.0511   0.00    0.0
2025/04/01 00:39:30.000   39.135149947  141.132870652   117.3426   6  20   0.0467   0.0756   0.0877   0.0439  -0.0518  -0.0497   0.00    0.0
2025/04/01 00:40:00.000   39.135150017  141.132870794   117.3427   6  20   0.0454   0.0743   0.0862   0.0431  -0.0504  -0.0487   0.00    0.0
2025/04/01 00:40:30.000   39.135150005  141.132870687   117.3458   6  20   0.0445   0.0731   0.0849   0.0423  -0.0492  -0.0479   0.00    0.0
2025/04/01 00:41:00.000   39.135150026  141.132870695   117.3170   6  20   0.0440   0.0719   0.0837   0.0412  -0.0483  -0.0468   0.00    0.0
2025/04/01 00:41:30.000   39.135150013  141.132870613   117.3255   6  20   0.0432   0.0714   0.0834   0.0410  -0.0484  -0.0465   0.00    0.0
2025/04/01 00:42:00.000   39.135150069  141.132870760   117.3355   6  20   0.0425   0.0706   0.0823   0.0402  -0.0477  -0.0454   0.00    0.0
2025/04/01 00:42:30.000   39.135150011  141.132870758   117.3064   6  20   0.0417   0.0697   0.0808   0.0396  -0.0465  -0.0444   0.00    0.0
2025/04/01 00:43:00.000   39.135150101  141.132870872   117.3321   6  20   0.0410   0.0688   0.0795   0.0388  -0.0454  -0.0435   0.00    0.0
2025/04/01 00:43:30.000   39.135150062  141.132870767   117.3076   6  20   0.0401   0.0679   0.0787   0.0384  -0.0448  -0.0430   0.00    0.0
2025/04/01 00:44:00.000   39.135150006  141.132870849   117.3083   6  20   0.0394   0.0671   0.0775   0.0377  -0.0438  -0.0422   0.00    0.0
2025/04/01 00:44:30.000   39.135150147  141.132870823   117.3310   6  20   0.0389   0.0663   0.0767   0.0368  -0.0431  -0.0411   0.00    0.0
2025/04/01 00:45:00.000   39.135150049  141.132870819   117.3235   6  20   0.0382   0.0654   0.0758   0.0363  -0.0423  -0.0404   0.00    0.0
2025/04/01 00:45:30.000   39.135150099  141.132870834   117.3127   6  20   0.0376   0.0646   0.0748   0.0357  -0.0414  -0.0397   0.00    0.0
2025/04/01 00:46:00.000   39.135150098  141.132870880   117.3089   6  20   0.0370   0.0637   0.0737   0.0350  -0.0406  -0.0389   0.00    0.0
2025/04/01 00:46:30.000   39.135150183  141.132870958   117.3017   6  20   0.0363   0.0628   0.0729   0.0345  -0.0397  -0.0383   0.00    0.0
2025/04/01 00:47:00.000   39.135150189  141.132870895   117.2733   6  20   0.0358   0.0620   0.0717   0.0339  -0.0388  -0.0378   0.00    0.0
2025/04/01 00:47:30.000   39.135150199  141.132870897   117.2858   6  21   0.0351   0.0611   0.0708   0.0333  -0.0380  -0.0371   0.00    0.0
2025/04/01 00:48:00.000   39.135150270  141.132870975   117.2795   6  21   0.0346   0.0604   0.0697   0.0326  -0.0371  -0.0365   0.00    0.0
2025/04/01 00:48:30.000   39.135150226  141.132871034   117.2896   6  21   0.0342   0.0596   0.0692   0.0321  -0.0366  -0.0356   0.00    0.0
2025/04/01 00:49:00.000   39.135150150  141.132870886   117.2653   6  21   0.0335   0.0588   0.0684   0.0314  -0.0359  -0.0349   0.00    0.0
2025/04/01 00:49:30.000   39.135150226  141.132870912   117.2604   6  21   0.0332   0.0582   0.0675   0.0309  -0.0351  -0.0344   0.00    0.0
2025/04/01 00:50:00.000   39.135150277  141.132871129   117.2650   6  21   0.0327   0.0573   0.0667   0.0302  -0.0345  -0.0338   0.00    0.0
2025/04/01 00:50:30.000   39.135150268  141.132871125   117.2531   6  21   0.0323   0.0565   0.0657   0.0297  -0.0336  -0.0334   0.00    0.0
2025/04/01 00:51:00.000   39.135150256  141.132871011   117.2357   6  21   0.0318   0.0558   0.0651   0.0291  -0.0331  -0.0327   0.00    0.0
2025/04/01 00:51:30.000   39.135150405  141.132871025   117.2370   6  21   0.0314   0.0551   0.0644   0.0286  -0.0324  -0.0321   0.00    0.0
2025/04/01 00:52:00.000   39.135150321  141.132871146   117.2326   6  21   0.0309   0.0544   0.0636   0.0281  -0.0319  -0.0316   0.00    0.0
2025/04/01 00:52:30.000   39.135150400  141.132871162   117.2412   6  21   0.0305   0.0536   0.0628   0.0277  -0.0310  -0.0314   0.00    0.0
2025/04/01 00:53:00.000   39.135150299  141.132870976   117.2121   6  21   0.0300   0.0530   0.0622   0.0272  -0.0305  -0.0307   0.00    0.0
2025/04/01 00:53:30.000   39.135150395  141.132871179   117.2275   6  21   0.0298   0.0524   0.0617   0.0266  -0.0300  -0.0301   0.00    0.0
2025/04/01 00:54:00.000   39.135150430  141.132871270   117.2101   6  21   0.0295   0.0516   0.0610   0.0260  -0.0295  -0.0297   0.00    0.0
2025/04/01 00:54:30.000   39.135150433  141.132871274   117.2141   6  21   0.0291   0.0511   0.0603   0.0255  -0.0289  -0.0293   0.00    0.0
2025/04/01 00:55:00.000   39.135150482  141.132871259   117.2208   6  21   0.0287   0.0503   0.0598   0.0252  -0.0285  -0.0289   0.00    0.0
2025/04/01 00:55:30.000   39.135150296  141.132871217   117.2231   6  21   0.0283   0.0497   0.0590   0.0249  -0.0280  -0.0284   0.00    0.0
2025/04/01 00:56:00.000   39.135150320  141.132871137   117.2081   6  21   0.0280   0.0491   0.0586   0.0242  -0.0273  -0.0281   0.00    0.0
2025/04/01 00:56:30.000   39.135150470  141.132871357   117.2124   6  21   0.0277   0.0485   0.0579   0.0240  -0.0269  -0.0275   0.00    0.0
2025/04/01 00:57:00.000   39.135150554  141.132871460   117.2099   6  21   0.0275   0.0480   0.0574   0.0236  -0.0264  -0.0272   0.00    0.0
2025/04/01 00:57:30.000   39.135150402  141.132871451   117.1952   6  19   0.0272   0.0473   0.0570   0.0230  -0.0260  -0.0268   0.00    0.0
2025/04/01 00:58:00.000   39.135150466  141.132871322   117.1899   6  19   0.0270   0.0468   0.0564   0.0226  -0.0255  -0.0264   0.00    0.0
2025/04/01 00:58:30.000   39.135150557  141.132871427   117.1936   6  19   0.0266   0.0464   0.0559   0.0222  -0.0250  -0.0260   0.00    0.0
2025/04/01 00:59:00.000   39.135150509  141.132871336   117.1905   6  19   0.0264   0.0458   0.0554   0.0219  -0.0244  -0.0257   0.00    0.0
2025/04/01 00:59:30.000   39.135150522  141.132871426   117.2037   6  19   0.0261   0.0454   0.0552   0.0215  -0.0237  -0.0254   0.00    0.0
