% program    : MADOCALIB ver.2.0
% inp file   : .\data\rinex\MIZU00JPN_R_20250910000_01D_30S_MO.rnx
% inp file   : .\data\rinex\BRDM00DLR_S_20250910000_01D_MN.rnx
% inp file   : .\data\l6_is-qzss-mdc-004\%Y\%n\%Y%n%HU.204.l6
% inp file   : .\data\l6_is-qzss-mdc-004\%Y\%n\%Y%n%HU.206.l6
% satantfile : 
% rcvantfile : .\data\igs20.atx
% obs start  : 2025/04/01 06:00:00.0 GPST (week2360 194400.0s)
% obs end    : 2025/04/01 06:59:30.0 GPST (week2360 197970.0s)
% pos mode   : PPP Kinematic
% freqs      : L1+2
% siggps     : L1/L2/L5
% sigqzs     : L1/L5/L2
% siggal     : E1/E5a/E5b/E6
% sigbds2    : B1I/B3I/B2I
% sigbds3    : B1I/B3I/B2a
% solution   : Forward
% elev mask  : 10.0 deg
% dynamics   : off
% tidecorr   : on
% ionos opt  : Iono-Free LC
% tropo opt  : Estimate ZTD
% ephemeris  : Broadcast+SSR APC
% navi sys   : GPS GLONASS Galileo QZSS
% amb mode   : OFF
% ar sys     : GPS Galileo QZSS BDS
% val ratio  : 1.5
% max std pos: 1.5 m
% ionocorr   : off
% antenna1   : SEPCHOKE_B3E6   NONE  ( 0.0000  0.0000  0.1206)
%
% (lat/lon/height=WGS84/ellipsoidal,Q=1:fix,2:float,3:sbas,4:dgps,5:single,6:ppp,ns=# of satellites)
%  GPST                  latitude(deg) longitude(deg)  height(m)   Q  ns   sdn(m)   sde(m)   sdu(m)  sdne(m)  sdeu(m)  sdun(m) age(s)  ratio
2025/04/01 06:00:00.000   39.135145000  141.132878150   117.4273   6  27   3.0163   2.3667   5.8178  -0.7712   0.9428  -2.0308   0.00    0.0
2025/04/01 06:00:30.000   39.135144094  141.132875588   117.0257   6  27   1.7915   1.6206   3.5178  -0.5270   0.5631  -1.5026   0.00    0.0
2025/04/01 06:01:00.000   39.135150395  141.132872696   115.5349   6  27   1.2126   1.2559   2.4127  -0.3997   0.3623  -1.1292   0.00    0.0
2025/04/01 06:01:30.000   39.135150124  141.132875522   116.6171   6  27   0.8818   1.0193   1.7717  -0.3182   0.2308  -0.8579   0.00    0.0
2025/04/01 06:02:00.000   39.135152835  141.132876183   116.8265   6  27   0.6748   0.8482   1.3667  -0.2627   0.1298  -0.6646   0.00    0.0
2025/04/01 06:02:30.000   39.135154303  141.132877526   116.5809   6  27   0.5364   0.7180   1.0937  -0.2224  -0.0482  -0.5238   0.00    0.0
2025/04/01 06:03:00.000   39.135152085  141.132878322   116.5971   6  27   0.4392   0.6160   0.9020  -0.1920  -0.1111  -0.4194   0.00    0.0
2025/04/01 06:03:30.000   39.135152226  141.132876690   116.4544   6  27   0.3680   0.5346   0.7626  -0.1682  -0.1311  -0.3407   0.00    0.0
2025/04/01 06:04:00.000   39.135152874  141.132877289   116.3574   6  27   0.3141   0.4687   0.6579  -0.1491  -0.1379  -0.2803   0.00    0.0
2025/04/01 06:04:30.000   39.135151480  141.132876477   116.6541   6  27   0.2721   0.4145   0.5765  -0.1332  -0.1381  -0.2336   0.00    0.0
2025/04/01 06:05:00.000   39.135151066  141.132874673   116.6077   6  27   0.2385   0.3695   0.5116  -0.1198  -0.1349  -0.1971   0.00    0.0
2025/04/01 06:05:30.000   39.135151144  141.132875189   116.6699   6  27   0.2113   0.3316   0.4584  -0.1082  -0.1297  -0.1683   0.00    0.0
2025/04/01 06:06:00.000   39.135151839  141.132873977   116.5236   6  27   0.1888   0.2996   0.4140  -0.0983  -0.1237  -0.1453   0.00    0.0
2025/04/01 06:06:30.000   39.135151924  141.132874165   116.5698   6  27   0.1699   0.2722   0.3764  -0.0897  -0.1172  -0.1269   0.00    0.0
2025/04/01 06:07:00.000   39.135151729  141.132874127   116.6402   6  27   0.1539   0.2485   0.3441  -0.0820  -0.1107  -0.1120   0.00    0.0
2025/04/01 06:07:30.000   39.135152091  141.132873878   116.4531   6  27   0.1401   0.2281   0.3161  -0.0752  -0.1045  -0.0997   0.00    0.0
2025/04/01 06:08:00.000   39.135151674  141.132874348   116.6733   6  27   0.1284   0.2101   0.2917  -0.0692  -0.0985  -0.0895   0.00    0.0
2025/04/01 06:08:30.000   39.135151310  141.132873978   116.8130   6  27   0.1181   0.1944   0.2702  -0.0640  -0.0929  -0.0812   0.00    0.0
2025/04/01 06:09:00.000   39.135151568  141.132872685   116.5957   6  27   0.1091   0.1805   0.2514  -0.0593  -0.0878  -0.0739   0.00    0.0
2025/04/01 06:09:30.000   39.135151689  141.132873061   116.6462   6  27   0.1013   0.1681   0.2345  -0.0550  -0.0829  -0.0679   0.00    0.0
2025/04/01 06:10:00.000   39.135151091  141.132873270   116.8067   6  27   0.0943   0.1570   0.2195  -0.0514  -0.0784  -0.0626   0.00    0.0
2025/04/01 06:10:30.000   39.135151045  141.132873042   116.8130   6  27   0.0880   0.1472   0.2060  -0.0480  -0.0745  -0.0580   0.00    0.0
2025/04/01 06:11:00.000   39.135151002  141.132872835   116.8692   6  27   0.0826   0.1383   0.1939  -0.0448  -0.0705  -0.0541   0.00    0.0
2025/04/01 06:11:30.000   39.135150850  141.132873094   116.9462   6  27   0.0776   0.1303   0.1830  -0.0422  -0.0671  -0.0504   0.00    0.0
2025/04/01 06:12:00.000   39.135150751  141.132873002   116.9454   6  27   0.0731   0.1231   0.1731  -0.0399  -0.0640  -0.0471   0.00    0.0
2025/04/01 06:12:30.000   39.135150802  141.132872926   116.9429   6  27   0.0692   0.1165   0.1640  -0.0376  -0.0610  -0.0445   0.00    0.0
2025/04/01 06:13:00.000   39.135150944  141.132872733   116.9267   6  27   0.0653   0.1105   0.1558  -0.0357  -0.0584  -0.0418   0.00    0.0
2025/04/01 06:13:30.000   39.135150825  141.132872755   117.0134   6  27   0.0621   0.1050   0.1483  -0.0338  -0.0559  -0.0394   0.00    0.0
2025/04/01 06:14:00.000   39.135150789  141.132872726   117.0154   6  27   0.0592   0.0999   0.1414  -0.0322  -0.0536  -0.0375   0.00    0.0
2025/04/01 06:14:30.000   39.135150882  141.132872974   117.0204   6  27   0.0563   0.0953   0.1351  -0.0306  -0.0515  -0.0357   0.00    0.0
2025/04/01 06:15:00.000   39.135150758  141.132872923   117.0758   6  27   0.0539   0.0910   0.1293  -0.0292  -0.0495  -0.0341   0.00    0.0
2025/04/01 06:15:30.000   39.135150851  141.132872836   117.0697   6  27   0.0516   0.0871   0.1239  -0.0278  -0.0476  -0.0326   0.00    0.0
2025/04/01 06:16:00.000   39.135150828  141.132872547   117.0595   6  27   0.0495   0.0834   0.1190  -0.0268  -0.0458  -0.0310   0.00    0.0
2025/04/01 06:16:30.000   39.135150834  141.132872408   117.0848   6  27   0.0473   0.0800   0.1143  -0.0257  -0.0443  -0.0296   0.00    0.0
2025/04/01 06:17:00.000   39.135150905  141.132872599   117.0868   6  27   0.0455   0.0769   0.1100  -0.0247  -0.0429  -0.0285   0.00    0.0
2025/04/01 06:17:30.000   39.135150866  141.132872486   117.0971   6  27   0.0438   0.0738   0.1060  -0.0239  -0.0414  -0.0275   0.00    0.0
2025/04/01 06:18:00.000   39.135150825  141.132872321   117.1140   6  27   0.0423   0.0711   0.1024  -0.0230  -0.0402  -0.0262   0.00    0.0
2025/04/01 06:18:30.000   39.135150954  141.132872349   117.0937   6  28   0.0408   0.0686   0.0989  -0.0221  -0.0388  -0.0252   0.00    0.0
2025/04/01 06:19:00.000   39.135150956  141.132872266   117.0867   6  29   0.0395   0.0662   0.0956  -0.0213  -0.0377  -0.0243   0.00    0.0
2025/04/01 06:19:30.000   39.135150841  141.132872234   117.1091   6  29   0.0380   0.0639   0.0925  -0.0205  -0.0365  -0.0234   0.00    0.0
2025/04/01 06:20:00.000   39.135150906  141.132872241   117.1156   6  29   0.0368   0.0618   0.0897  -0.0197  -0.0357  -0.0228   0.00    0.0
2025/04/01 06:20:30.000   39.135151010  141.132872223   117.1178   6  29   0.0358   0.0599   0.0869  -0.0194  -0.0348  -0.0218   0.00    0.0
2025/04/01 06:21:00.000   39.135150915  141.132872111   117.1456   6  29   0.0346   0.0579   0.0845  -0.0188  -0.0338  -0.0214   0.00    0.0
2025/04/01 06:21:30.000   39.135150864  141.132872032   117.1306   6  29   0.0337   0.0562   0.0820  -0.0180  -0.0328  -0.0209   0.00    0.0
2025/04/01 06:22:00.000   39.135150987  141.132871998   117.1299   6  29   0.0328   0.0546   0.0796  -0.0177  -0.0319  -0.0201   0.00    0.0
2025/04/01 06:22:30.000   39.135150824  141.132872104   117.1524   6  29   0.0318   0.0530   0.0776  -0.0171  -0.0313  -0.0196   0.00    0.0
2025/04/01 06:23:00.000   39.135150780  141.132871958   117.1373   6  29   0.0310   0.0516   0.0756  -0.0168  -0.0306  -0.0189   0.00    0.0
2025/04/01 06:23:30.000   39.135150968  141.132871885   117.1060   6  29   0.0301   0.0501   0.0738  -0.0162  -0.0297  -0.0185   0.00    0.0
2025/04/01 06:24:00.000   39.135150876  141.132871947   117.1082   6  29   0.0295   0.0488   0.0718  -0.0158  -0.0291  -0.0182   0.00    0.0
2025/04/01 06:24:30.000   39.135150859  141.132872075   117.1508   6  29   0.0288   0.0477   0.0702  -0.0152  -0.0283  -0.0174   0.00    0.0
2025/04/01 06:25:00.000   39.135150865  141.132871931   117.1443   6  29   0.0280   0.0465   0.0687  -0.0152  -0.0278  -0.0169   0.00    0.0
2025/04/01 06:25:30.000   39.135150820  141.132871868   117.1587   6  29   0.0277   0.0451   0.0669  -0.0147  -0.0273  -0.0169   0.00    0.0
2025/04/01 06:26:00.000   39.135150816  141.132871872   117.1334   6  30   0.0270   0.0441   0.0656  -0.0141  -0.0268  -0.0167   0.00    0.0
2025/04/01 06:26:30.000   39.135150848  141.132871914   117.1563   6  30   0.0264   0.0431   0.0641  -0.0139  -0.0260  -0.0159   0.00    0.0
2025/04/01 06:27:00.000   39.135150745  141.132871960   117.1732   6  30   0.0258   0.0421   0.0628  -0.0132  -0.0255  -0.0160   0.00    0.0
2025/04/01 06:27:30.000   39.135150824  141.132871975   117.1652   6  30   0.0252   0.0411   0.0617  -0.0134  -0.0253  -0.0155   0.00    0.0
2025/04/01 06:28:00.000   39.135150808  141.132871935   117.1513   6  30   0.0247   0.0404   0.0603  -0.0131  -0.0246  -0.0152   0.00    0.0
2025/04/01 06:28:30.000   39.135150750  141.132871892   117.1593   6  30   0.0244   0.0393   0.0593  -0.0132  -0.0243  -0.0152   0.00    0.0
2025/04/01 06:29:00.000   39.135150801  141.132871919   117.1525   6  30   0.0239   0.0385   0.0580  -0.0131  -0.0236  -0.0153   0.00    0.0
2025/04/01 06:29:30.000   39.135150806  141.132871977   117.1775   6  30   0.0236   0.0378   0.0572  -0.0125  -0.0233  -0.0147   0.00    0.0
2025/04/01 06:30:00.000   39.135150730  141.132871752   117.1780   6  30   0.0232   0.0370   0.0563  -0.0120  -0.0231  -0.0144   0.00    0.0
2025/04/01 06:30:30.000   39.135150804  141.132871796   117.1688   6  30   0.0227   0.0363   0.0552  -0.0119  -0.0226  -0.0143   0.00    0.0
2025/04/01 06:31:00.000   39.135150890  141.132871967   117.1447   6  30   0.0226   0.0356   0.0544  -0.0118  -0.0223  -0.0139   0.00    0.0
2025/04/01 06:31:30.000   39.135150904  141.132871772   117.1668   6  30   0.0219   0.0350   0.0533  -0.0116  -0.0216  -0.0137   0.00    0.0
2025/04/01 06:32:00.000   39.135150877  141.132871745   117.1764   6  30   0.0219   0.0344   0.0527  -0.0114  -0.0214  -0.0135   0.00    0.0
2025/04/01 06:32:30.000   39.135150921  141.132871829   117.1758   6  30   0.0211   0.0337   0.0519  -0.0113  -0.0210  -0.0132   0.00    0.0
2025/04/01 06:33:00.000   39.135150931  141.132871755   117.1691   6  30   0.0212   0.0334   0.0511  -0.0113  -0.0207  -0.0131   0.00    0.0
2025/04/01 06:33:30.000   39.135150880  141.132871666   117.1995   6  30   0.0211   0.0327   0.0503  -0.0107  -0.0203  -0.0130   0.00    0.0
2025/04/01 06:34:00.000   39.135150896  141.132871716   117.1823   6  30   0.0207   0.0319   0.0494  -0.0110  -0.0199  -0.0127   0.00    0.0
2025/04/01 06:34:30.000   39.135150848  141.132871740   117.1691   6  30   0.0203   0.0318   0.0489  -0.0108  -0.0198  -0.0126   0.00    0.0
2025/04/01 06:35:00.000   39.135150910  141.132871852   117.1922   6  30   0.0200   0.0311   0.0481  -0.0101  -0.0195  -0.0129   0.00    0.0
2025/04/01 06:35:30.000   39.135150944  141.132871804   117.1443   6  30   0.0200   0.0304   0.0476  -0.0107  -0.0193  -0.0127   0.00    0.0
2025/04/01 06:36:00.000   39.135150837  141.132871784   117.1701   6  30   0.0194   0.0300   0.0468  -0.0101  -0.0187  -0.0126   0.00    0.0
2025/04/01 06:36:30.000   39.135150841  141.132871867   117.1880   6  30   0.0193   0.0293   0.0464  -0.0102  -0.0187  -0.0128   0.00    0.0
2025/04/01 06:37:00.000   39.135150889  141.132871872   117.1331   6  30   0.0192   0.0292   0.0456  -0.0099  -0.0182  -0.0126   0.00    0.0
2025/04/01 06:37:30.000   39.135150873  141.132871886   117.1340   6  30   0.0190   0.0285   0.0450  -0.0093  -0.0180  -0.0125   0.00    0.0
2025/04/01 06:38:00.000   39.135150861  141.132871901   117.1518   6  30   0.0185   0.0283   0.0446  -0.0103  -0.0177  -0.0121   0.00    0.0
2025/04/01 06:38:30.000   39.135150875  141.132871942   117.1548   6  30   0.0183   0.0279   0.0442  -0.0092  -0.0175  -0.0126   0.00    0.0
2025/04/01 06:39:00.000   39.135150867  141.132871840   117.1306   6  30   0.0182   0.0276   0.0438  -0.0090  -0.0171  -0.0124   0.00    0.0
2025/04/01 06:39:30.000   39.135150879  141.132871903   117.1520   6  30   0.0185   0.0271   0.0433  -0.0096  -0.0170  -0.0122   0.00    0.0
2025/04/01 06:40:00.000   39.135150829  141.132871943   117.1628   6  28   0.0182   0.0266   0.0429  -0.0095  -0.0169  -0.0127   0.00    0.0
2025/04/01 06:40:30.000   39.135150788  141.132871950   117.1493   6  28   0.0174   0.0269   0.0426  -0.0087  -0.0160  -0.0117   0.00    0.0
2025/04/01 06:41:00.000   39.135150854  141.132871873   117.1569   6  28   0.0176   0.0259   0.0424  -0.0095  -0.0167  -0.0120   0.00    0.0
2025/04/01 06:41:30.000   39.135150883  141.132871906   117.1317   6  28   0.0177   0.0257   0.0420  -0.0079  -0.0159  -0.0125   0.00    0.0
2025/04/01 06:42:00.000   39.135150829  141.132871921   117.1458   6  28   0.0170   0.0254   0.0421  -0.0088  -0.0162  -0.0122   0.00    0.0
2025/04/01 06:42:30.000   39.135150832  141.132871851   117.1525   6  28   0.0170   0.0250   0.0417  -0.0084  -0.0154  -0.0123   0.00    0.0
2025/04/01 06:43:00.000   39.135150833  141.132871971   117.1287   6  28   0.0170   0.0248   0.0416  -0.0091  -0.0159  -0.0119   0.00    0.0
2025/04/01 06:43:30.000   39.135150829  141.132871979   117.1474   6  28   0.0169   0.0245   0.0411  -0.0086  -0.0152  -0.0117   0.00    0.0
2025/04/01 06:44:00.000   39.135150788  141.132871929   117.1431   6  28   0.0169   0.0243   0.0409  -0.0080  -0.0150  -0.0127   0.00    0.0
2025/04/01 06:44:30.000   39.135150887  141.132871927   117.1420   6  28   0.0164   0.0244   0.0401  -0.0089  -0.0149  -0.0124   0.00    0.0
2025/04/01 06:45:00.000   39.135150802  141.132871916   117.1543   6  28   0.0166   0.0235   0.0404  -0.0077  -0.0143  -0.0119   0.00    0.0
2025/04/01 06:45:30.000   39.135150802  141.132871895   117.1366   6  28   0.0163   0.0236   0.0401  -0.0082  -0.0144  -0.0125   0.00    0.0
2025/04/01 06:46:00.000   39.135150834  141.132871941   117.1368   6  28   0.0164   0.0234   0.0399  -0.0081  -0.0141  -0.0123   0.00    0.0
2025/04/01 06:46:30.000   39.135150818  141.132871952   117.1608   6  28   0.0162   0.0234   0.0396  -0.0082  -0.0144  -0.0125   0.00    0.0
2025/04/01 06:47:00.000   39.135150795  141.132871970   117.1771   6  28   0.0164   0.0226   0.0394  -0.0078  -0.0134  -0.0127   0.00    0.0
2025/04/01 06:47:30.000   39.135150840  141.132871957   117.1468   6  28   0.0160   0.0225   0.0394  -0.0078  -0.0139  -0.0125   0.00    0.0
2025/04/01 06:48:00.000   39.135150828  141.132871915   117.1200   6  28   0.0162   0.0223   0.0392  -0.0084  -0.0137  -0.0121   0.00    0.0
2025/04/01 06:48:30.000   39.135150755  141.132871906   117.1728   6  28   0.0154   0.0222   0.0390  -0.0081  -0.0136  -0.0118   0.00    0.0
2025/04/01 06:49:00.000   39.135150802  141.132871958   117.1752   6  28   0.0161   0.0219   0.0389  -0.0078  -0.0136  -0.0124   0.00    0.0
2025/04/01 06:49:30.000   39.135150836  141.132871893   117.1551   6  28   0.0149   0.0213   0.0388  -0.0073  -0.0131  -0.0123   0.00    0.0
2025/04/01 06:50:00.000   39.135150809  141.132871882   117.1585   6  28   0.0154   0.0212   0.0387  -0.0078  -0.0130  -0.0126   0.00    0.0
2025/04/01 06:50:30.000   39.135150822  141.132871892   117.1493   6  28   0.0155   0.0219   0.0385  -0.0071  -0.0126  -0.0121   0.00    0.0
2025/04/01 06:51:00.000   39.135150919  141.132871881   117.1226   6  28   0.0154   0.0212   0.0383  -0.0077  -0.0125  -0.0121   0.00    0.0
2025/04/01 06:51:30.000   39.135150918  141.132872002   117.1440   6  28   0.0152   0.0214   0.0383  -0.0074  -0.0130  -0.0121   0.00    0.0
2025/04/01 06:52:00.000   39.135150848  141.132871877   117.1739   6  28   0.0154   0.0207   0.0381  -0.0067  -0.0123  -0.0124   0.00    0.0
2025/04/01 06:52:30.000   39.135150843  141.132871840   117.1447   6  28   0.0150   0.0205   0.0380  -0.0070  -0.0123  -0.0121   0.00    0.0
2025/04/01 06:53:00.000   39.135150813  141.132871885   117.1540   6  28   0.0153   0.0205   0.0377  -0.0070  -0.0117  -0.0124   0.00    0.0
2025/04/01 06:53:30.000   39.135150850  141.132871955   117.1423   6  28   0.0150   0.0206   0.0375  -0.0068  -0.0120  -0.0123   0.00    0.0
2025/04/01 06:54:00.000   39.135150834  141.132871888   117.1295   6  28   0.0151   0.0200   0.0375  -0.0063  -0.0113  -0.0120   0.00    0.0
2025/04/01 06:54:30.000   39.135150747  141.132871922   117.1787   6  28   0.0153   0.0197   0.0375  -0.0072  -0.0120  -0.0121   0.00    0.0
2025/04/01 06:55:00.000   39.135150855  141.132871895   117.1582   6  28   0.0151   0.0194   0.0373  -0.0069  -0.0116  -0.0120   0.00    0.0
2025/04/01 06:55:30.000   39.135150847  141.132871896   117.1294   6  29   0.0144   0.0196   0.0370  -0.0072  -0.0115  -0.0123   0.00    0.0
2025/04/01 06:56:00.000   39.135150887  141.132871921   117.1492   6  29   0.0145   0.0191   0.0372  -0.0074  -0.0116  -0.0121   0.00    0.0
2025/04/01 06:56:30.000   39.135150808  141.132871879   117.1681   6  29   0.0143   0.0194   0.0370  -0.0073  -0.0117  -0.0118   0.00    0.0
2025/04/01 06:57:00.000   39.135150762  141.132871916   117.1670   6  29   0.0146   0.0193   0.0371  -0.0068  -0.0109  -0.0116   0.00    0.0
2025/04/01 06:57:30.000   39.135150833  141.132871976   117.1481   6  29   0.0147   0.0192   0.0367  -0.0065  -0.0106  -0.0116   0.00    0.0
2025/04/01 06:58:00.000   39.135150854  141.132871900   117.1640   6  29   0.0146   0.0192   0.0366  -0.0064  -0.0106  -0.0116   0.00    0.0
2025/04/01 06:58:30.000   39.135150839  141.132871870   117.1680   6  29   0.0146   0.0189   0.0369  -0.0068  -0.0108  -0.0115   0.00    0.0
2025/04/01 06:59:00.000   39.135150841  141.132871910   117.1232   6  29   0.0148   0.0183   0.0366  -0.0074  -0.0105  -0.0114   0.00    0.0
2025/04/01 06:59:30.000   39.135150895  141.132871869   117.1795   6  29   0.0144   0.0187   0.0364  -0.0066  -0.0110  -0.0115   0.00    0.0
