% program    : MADOCALIB ver.2.0
% inp file   : .\data\rinex\MIZU00JPN_R_20250910000_01D_30S_MO.rnx
% inp file   : .\data\rinex\BRDM00DLR_S_20250910000_01D_MN.rnx
% inp file   : .\data\l6_is-qzss-mdc-004\%Y\%n\%Y%n%HU.204.l6
% inp file   : .\data\l6_is-qzss-mdc-004\%Y\%n\%Y%n%HU.206.l6
% satantfile : 
% rcvantfile : .\data\igs20.atx
% obs start  : 2025/04/01 09:00:00.0 GPST (week2360 205200.0s)
% obs end    : 2025/04/01 09:59:30.0 GPST (week2360 208770.0s)
% pos mode   : PPP Kinematic
% freqs      : L1+2
% siggps     : L1/L2/L5
% sigqzs     : L1/L5/L2
% siggal     : E1/E5a/E5b/E6
% sigbds2    : B1I/B3I/B2I
% sigbds3    : B1I/B3I/B2a
% solution   : Forward
% elev mask  : 10.0 deg
% dynamics   : off
% tidecorr   : on
% ionos opt  : Iono-Free LC
% tropo opt  : Estimate ZTD
% ephemeris  : Broadcast+SSR APC
% navi sys   : GPS GLONASS Galileo QZSS
% amb mode   : OFF
% ar sys     : GPS Galileo QZSS BDS
% val ratio  : 1.5
% max std pos: 1.5 m
% ionocorr   : off
% antenna1   : SEPCHOKE_B3E6   NONE  ( 0.0000  0.0000  0.1206)
%
% (lat/lon/height=WGS84/ellipsoidal,Q=1:fix,2:float,3:sbas,4:dgps,5:single,6:ppp,ns=# of satellites)
%  GPST                  latitude(deg) longitude(deg)  height(m)   Q  ns   sdn(m)   sde(m)   sdu(m)  sdne(m)  sdeu(m)  sdun(m) age(s)  ratio
2025/04/01 09:00:00.000   39.135153436  141.132880273   116.1456   6  27   2.7628   2.5785   6.0117   0.9564  -2.1788  -1.9377   0.00    0.0
2025/04/01 09:00:30.000   39.135155090  141.132879716   114.9291   6  27   1.5991   1.7769   3.3965   0.7807  -1.2937  -1.3815   0.00    0.0
2025/04/01 09:01:00.000   39.135152468  141.132876300   113.9456   6  27   1.0646   1.4075   2.2331   0.6592  -0.9219  -1.0022   0.00    0.0
2025/04/01 09:01:30.000   39.135153392  141.132871803   115.1673   6  27   0.7697   1.1766   1.6085   0.5655  -0.7172  -0.7518   0.00    0.0
2025/04/01 09:02:00.000   39.135150093  141.132868719   116.4584   6  27   0.5897   1.0114   1.2394   0.4920  -0.5881  -0.5870   0.00    0.0
2025/04/01 09:02:30.000   39.135148144  141.132870097   116.3222   6  27   0.4711   0.8839   0.9973   0.4324  -0.4953  -0.4731   0.00    0.0
2025/04/01 09:03:00.000   39.135148283  141.132872754   116.1701   6  27   0.3883   0.7814   0.8274   0.3832  -0.4254  -0.3914   0.00    0.0
2025/04/01 09:03:30.000   39.135150344  141.132873469   116.3197   6  27   0.3275   0.6967   0.7014   0.3420  -0.3705  -0.3304   0.00    0.0
2025/04/01 09:04:00.000   39.135149255  141.132868882   116.8299   6  27   0.2813   0.6255   0.6043   0.3069  -0.3263  -0.2835   0.00    0.0
2025/04/01 09:04:30.000   39.135150145  141.132871326   116.8368   6  27   0.2451   0.5649   0.5274   0.2770  -0.2900  -0.2465   0.00    0.0
2025/04/01 09:05:00.000   39.135150194  141.132872124   116.8306   6  27   0.2161   0.5129   0.4652   0.2511  -0.2598  -0.2169   0.00    0.0
2025/04/01 09:05:30.000   39.135150739  141.132872139   117.0473   6  27   0.1923   0.4679   0.4142   0.2287  -0.2344  -0.1926   0.00    0.0
2025/04/01 09:06:00.000   39.135150710  141.132872614   116.9250   6  27   0.1727   0.4288   0.3717   0.2092  -0.2129  -0.1724   0.00    0.0
2025/04/01 09:06:30.000   39.135149979  141.132871587   116.9266   6  27   0.1561   0.3946   0.3360   0.1921  -0.1943  -0.1555   0.00    0.0
2025/04/01 09:07:00.000   39.135150182  141.132872216   116.9852   6  27   0.1420   0.3644   0.3056   0.1771  -0.1783  -0.1411   0.00    0.0
2025/04/01 09:07:30.000   39.135150405  141.132872818   117.0326   6  27   0.1300   0.3378   0.2795   0.1638  -0.1642  -0.1288   0.00    0.0
2025/04/01 09:08:00.000   39.135150788  141.132873339   117.0566   6  27   0.1195   0.3142   0.2570   0.1520  -0.1519  -0.1181   0.00    0.0
2025/04/01 09:08:30.000   39.135150671  141.132872636   117.1786   6  27   0.1103   0.2932   0.2374   0.1415  -0.1410  -0.1088   0.00    0.0
2025/04/01 09:09:00.000   39.135150532  141.132871624   117.1956   6  27   0.1022   0.2744   0.2201   0.1321  -0.1314  -0.1006   0.00    0.0
2025/04/01 09:09:30.000   39.135150576  141.132871782   117.1355   6  27   0.0952   0.2574   0.2050   0.1237  -0.1228  -0.0934   0.00    0.0
2025/04/01 09:10:00.000   39.135150337  141.132871887   117.1395   6  27   0.0888   0.2422   0.1915   0.1161  -0.1149  -0.0869   0.00    0.0
2025/04/01 09:10:30.000   39.135150255  141.132872256   117.1417   6  27   0.0832   0.2284   0.1795   0.1092  -0.1081  -0.0812   0.00    0.0
2025/04/01 09:11:00.000   39.135150165  141.132871731   117.1282   6  27   0.0782   0.2159   0.1688   0.1029  -0.1017  -0.0761   0.00    0.0
2025/04/01 09:11:30.000   39.135150471  141.132871629   117.0689   6  27   0.0735   0.2045   0.1591   0.0972  -0.0960  -0.0714   0.00    0.0
2025/04/01 09:12:00.000   39.135150786  141.132872034   117.1313   6  27   0.0695   0.1941   0.1504   0.0921  -0.0908  -0.0672   0.00    0.0
2025/04/01 09:12:30.000   39.135150821  141.132872460   117.1431   6  27   0.0658   0.1846   0.1425   0.0873  -0.0861  -0.0635   0.00    0.0
2025/04/01 09:13:00.000   39.135150868  141.132872344   117.1355   6  27   0.0624   0.1758   0.1353   0.0829  -0.0817  -0.0601   0.00    0.0
2025/04/01 09:13:30.000   39.135150735  141.132871764   117.1037   6  27   0.0592   0.1678   0.1288   0.0789  -0.0776  -0.0568   0.00    0.0
2025/04/01 09:14:00.000   39.135150700  141.132871782   117.1038   6  27   0.0562   0.1604   0.1227   0.0752  -0.0740  -0.0539   0.00    0.0
2025/04/01 09:14:30.000   39.135150611  141.132871501   117.1395   6  27   0.0538   0.1535   0.1172   0.0718  -0.0705  -0.0512   0.00    0.0
2025/04/01 09:15:00.000   39.135150597  141.132871826   117.1156   6  27   0.0514   0.1472   0.1121   0.0686  -0.0675  -0.0489   0.00    0.0
2025/04/01 09:15:30.000   39.135150651  141.132872051   117.1271   6  27   0.0492   0.1413   0.1075   0.0657  -0.0645  -0.0466   0.00    0.0
2025/04/01 09:16:00.000   39.135150640  141.132872106   117.0823   6  27   0.0471   0.1358   0.1032   0.0630  -0.0619  -0.0445   0.00    0.0
2025/04/01 09:16:30.000   39.135150851  141.132872012   117.0960   6  27   0.0452   0.1306   0.0992   0.0604  -0.0593  -0.0426   0.00    0.0
2025/04/01 09:17:00.000   39.135150896  141.132872199   117.0912   6  27   0.0435   0.1259   0.0954   0.0581  -0.0570  -0.0409   0.00    0.0
2025/04/01 09:17:30.000   39.135150808  141.132872248   117.0854   6  27   0.0419   0.1214   0.0920   0.0558  -0.0547  -0.0392   0.00    0.0
2025/04/01 09:18:00.000   39.135150652  141.132871867   117.1035   6  27   0.0403   0.1172   0.0888   0.0537  -0.0527  -0.0377   0.00    0.0
2025/04/01 09:18:30.000   39.135150750  141.132871945   117.1238   6  28   0.0388   0.1134   0.0859   0.0517  -0.0508  -0.0359   0.00    0.0
2025/04/01 09:19:00.000   39.135150874  141.132872461   117.1023   6  28   0.0375   0.1096   0.0829   0.0499  -0.0490  -0.0347   0.00    0.0
2025/04/01 09:19:30.000   39.135150799  141.132872358   117.1241   6  28   0.0365   0.1061   0.0803   0.0483  -0.0471  -0.0336   0.00    0.0
2025/04/01 09:20:00.000   39.135150731  141.132872298   117.1348   6  28   0.0350   0.1028   0.0777   0.0466  -0.0455  -0.0322   0.00    0.0
2025/04/01 09:20:30.000   39.135150625  141.132872350   117.1107   6  28   0.0339   0.0998   0.0754   0.0451  -0.0439  -0.0311   0.00    0.0
2025/04/01 09:21:00.000   39.135150582  141.132872196   117.1270   6  28   0.0328   0.0968   0.0732   0.0436  -0.0426  -0.0300   0.00    0.0
2025/04/01 09:21:30.000   39.135150608  141.132872374   117.1175   6  28   0.0319   0.0941   0.0712   0.0421  -0.0412  -0.0290   0.00    0.0
2025/04/01 09:22:00.000   39.135150696  141.132872336   117.1281   6  28   0.0311   0.0915   0.0691   0.0409  -0.0400  -0.0282   0.00    0.0
2025/04/01 09:22:30.000   39.135150679  141.132872193   117.1533   6  28   0.0303   0.0890   0.0676   0.0397  -0.0386  -0.0271   0.00    0.0
2025/04/01 09:23:00.000   39.135150613  141.132872203   117.1445   6  28   0.0295   0.0867   0.0655   0.0386  -0.0375  -0.0265   0.00    0.0
2025/04/01 09:23:30.000   39.135150736  141.132872293   117.1450   6  28   0.0287   0.0843   0.0642   0.0374  -0.0364  -0.0257   0.00    0.0
2025/04/01 09:24:00.000   39.135150664  141.132872270   117.1345   6  27   0.0280   0.0826   0.0622   0.0363  -0.0354  -0.0249   0.00    0.0
2025/04/01 09:24:30.000   39.135150772  141.132872182   117.1761   6  27   0.0273   0.0808   0.0609   0.0355  -0.0345  -0.0243   0.00    0.0
2025/04/01 09:25:00.000   39.135150608  141.132872086   117.1599   6  27   0.0270   0.0789   0.0599   0.0347  -0.0339  -0.0237   0.00    0.0
2025/04/01 09:25:30.000   39.135150617  141.132872031   117.1484   6  27   0.0263   0.0772   0.0585   0.0337  -0.0331  -0.0231   0.00    0.0
2025/04/01 09:26:00.000   39.135150710  141.132872134   117.1553   6  27   0.0256   0.0757   0.0573   0.0328  -0.0324  -0.0223   0.00    0.0
2025/04/01 09:26:30.000   39.135150778  141.132872235   117.1404   6  27   0.0249   0.0740   0.0561   0.0321  -0.0318  -0.0219   0.00    0.0
2025/04/01 09:27:00.000   39.135150682  141.132872063   117.1652   6  27   0.0247   0.0725   0.0552   0.0314  -0.0312  -0.0214   0.00    0.0
2025/04/01 09:27:30.000   39.135150686  141.132872133   117.1561   6  27   0.0240   0.0711   0.0542   0.0307  -0.0305  -0.0211   0.00    0.0
2025/04/01 09:28:00.000   39.135150690  141.132872081   117.1788   6  27   0.0233   0.0697   0.0532   0.0299  -0.0300  -0.0203   0.00    0.0
2025/04/01 09:28:30.000   39.135150707  141.132872057   117.1636   6  28   0.0230   0.0684   0.0521   0.0292  -0.0293  -0.0200   0.00    0.0
2025/04/01 09:29:00.000   39.135150651  141.132872125   117.1519   6  28   0.0226   0.0671   0.0511   0.0285  -0.0288  -0.0194   0.00    0.0
2025/04/01 09:29:30.000   39.135150632  141.132872039   117.1681   6  27   0.0224   0.0663   0.0505   0.0278  -0.0277  -0.0192   0.00    0.0
2025/04/01 09:30:00.000   39.135150651  141.132872043   117.1650   6  27   0.0219   0.0654   0.0496   0.0273  -0.0272  -0.0191   0.00    0.0
2025/04/01 09:30:30.000   39.135150743  141.132872070   117.1739   6  27   0.0214   0.0645   0.0488   0.0271  -0.0269  -0.0184   0.00    0.0
2025/04/01 09:31:00.000   39.135150700  141.132872084   117.1538   6  27   0.0213   0.0636   0.0480   0.0263  -0.0265  -0.0182   0.00    0.0
2025/04/01 09:31:30.000   39.135150788  141.132872024   117.1643   6  26   0.0207   0.0628   0.0474   0.0260  -0.0260  -0.0177   0.00    0.0
2025/04/01 09:32:00.000   39.135150810  141.132872131   117.1803   6  26   0.0205   0.0619   0.0467   0.0255  -0.0256  -0.0175   0.00    0.0
2025/04/01 09:32:30.000   39.135150552  141.132871973   117.1644   6  26   0.0198   0.0611   0.0461   0.0250  -0.0252  -0.0172   0.00    0.0
2025/04/01 09:33:00.000   39.135150540  141.132871777   117.1749   6  26   0.0203   0.0604   0.0455   0.0248  -0.0249  -0.0171   0.00    0.0
2025/04/01 09:33:30.000   39.135150654  141.132871692   117.1651   6  26   0.0198   0.0596   0.0448   0.0243  -0.0246  -0.0165   0.00    0.0
2025/04/01 09:34:00.000   39.135150636  141.132871662   117.1566   6  26   0.0197   0.0588   0.0441   0.0240  -0.0243  -0.0166   0.00    0.0
2025/04/01 09:34:30.000   39.135150553  141.132871705   117.1811   6  26   0.0194   0.0581   0.0437   0.0234  -0.0238  -0.0159   0.00    0.0
2025/04/01 09:35:00.000   39.135150633  141.132871651   117.1602   6  26   0.0189   0.0573   0.0430   0.0232  -0.0236  -0.0159   0.00    0.0
2025/04/01 09:35:30.000   39.135150576  141.132871563   117.1736   6  26   0.0189   0.0567   0.0425   0.0227  -0.0234  -0.0155   0.00    0.0
2025/04/01 09:36:00.000   39.135150569  141.132871596   117.1637   6  26   0.0185   0.0561   0.0421   0.0224  -0.0230  -0.0154   0.00    0.0
2025/04/01 09:36:30.000   39.135150534  141.132871730   117.1613   6  26   0.0183   0.0555   0.0417   0.0219  -0.0226  -0.0149   0.00    0.0
2025/04/01 09:37:00.000   39.135150635  141.132871501   117.1667   6  26   0.0184   0.0547   0.0410   0.0215  -0.0225  -0.0152   0.00    0.0
2025/04/01 09:37:30.000   39.135150600  141.132871687   117.1843   6  26   0.0180   0.0541   0.0406   0.0212  -0.0221  -0.0146   0.00    0.0
2025/04/01 09:38:00.000   39.135150569  141.132871735   117.1876   6  26   0.0174   0.0535   0.0402   0.0209  -0.0216  -0.0145   0.00    0.0
2025/04/01 09:38:30.000   39.135150435  141.132871520   117.1908   6  26   0.0174   0.0528   0.0398   0.0208  -0.0214  -0.0140   0.00    0.0
2025/04/01 09:39:00.000   39.135150485  141.132871590   117.2016   6  26   0.0174   0.0524   0.0390   0.0204  -0.0212  -0.0140   0.00    0.0
2025/04/01 09:39:30.000   39.135150486  141.132871579   117.1865   6  26   0.0175   0.0517   0.0388   0.0203  -0.0211  -0.0140   0.00    0.0
2025/04/01 09:40:00.000   39.135150457  141.132871377   117.1944   6  26   0.0175   0.0513   0.0386   0.0199  -0.0206  -0.0137   0.00    0.0
2025/04/01 09:40:30.000   39.135150551  141.132871530   117.1936   6  26   0.0173   0.0506   0.0382   0.0195  -0.0204  -0.0133   0.00    0.0
2025/04/01 09:41:00.000   39.135150495  141.132871457   117.1837   6  26   0.0170   0.0501   0.0376   0.0191  -0.0202  -0.0135   0.00    0.0
2025/04/01 09:41:30.000   39.135150541  141.132871617   117.1814   6  26   0.0169   0.0495   0.0374   0.0187  -0.0199  -0.0132   0.00    0.0
2025/04/01 09:42:00.000   39.135150539  141.132871552   117.2017   6  26   0.0164   0.0490   0.0371   0.0186  -0.0198  -0.0128   0.00    0.0
2025/04/01 09:42:30.000   39.135150446  141.132871437   117.1857   6  26   0.0166   0.0487   0.0369   0.0185  -0.0195  -0.0129   0.00    0.0
2025/04/01 09:43:00.000   39.135150390  141.132871569   117.1786   6  26   0.0157   0.0481   0.0367   0.0179  -0.0191  -0.0122   0.00    0.0
2025/04/01 09:43:30.000   39.135150562  141.132871472   117.1959   6  26   0.0161   0.0476   0.0361   0.0179  -0.0191  -0.0125   0.00    0.0
2025/04/01 09:44:00.000   39.135150538  141.132871402   117.1986   6  26   0.0160   0.0472   0.0359   0.0174  -0.0189  -0.0124   0.00    0.0
2025/04/01 09:44:30.000   39.135150468  141.132871477   117.1797   6  26   0.0160   0.0467   0.0355   0.0174  -0.0187  -0.0123   0.00    0.0
2025/04/01 09:45:00.000   39.135150491  141.132871472   117.1880   6  26   0.0159   0.0462   0.0351   0.0168  -0.0186  -0.0125   0.00    0.0
2025/04/01 09:45:30.000   39.135150468  141.132871392   117.1932   6  26   0.0156   0.0458   0.0353   0.0165  -0.0181  -0.0116   0.00    0.0
2025/04/01 09:46:00.000   39.135150514  141.132871350   117.1763   6  26   0.0155   0.0454   0.0347   0.0163  -0.0181  -0.0116   0.00    0.0
2025/04/01 09:46:30.000   39.135150466  141.132871386   117.1803   6  26   0.0157   0.0449   0.0348   0.0159  -0.0177  -0.0117   0.00    0.0
2025/04/01 09:47:00.000   39.135150333  141.132871341   117.1676   6  26   0.0158   0.0447   0.0345   0.0159  -0.0174  -0.0114   0.00    0.0
2025/04/01 09:47:30.000   39.135150390  141.132871280   117.1823   6  25   0.0158   0.0441   0.0343   0.0157  -0.0173  -0.0114   0.00    0.0
2025/04/01 09:48:00.000   39.135150622  141.132871349   117.1711   6  25   0.0153   0.0438   0.0341   0.0155  -0.0170  -0.0102   0.00    0.0
2025/04/01 09:48:30.000   39.135150499  141.132871472   117.1741   6  25   0.0155   0.0434   0.0339   0.0154  -0.0167  -0.0110   0.00    0.0
2025/04/01 09:49:00.000   39.135150412  141.132871457   117.1728   6  25   0.0154   0.0431   0.0337   0.0151  -0.0165  -0.0104   0.00    0.0
2025/04/01 09:49:30.000   39.135150430  141.132871354   117.1902   6  26   0.0151   0.0427   0.0334   0.0148  -0.0163  -0.0109   0.00    0.0
2025/04/01 09:50:00.000   39.135150513  141.132871333   117.1802   6  26   0.0152   0.0422   0.0329   0.0148  -0.0159  -0.0116   0.00    0.0
2025/04/01 09:50:30.000   39.135150535  141.132871347   117.1756   6  26   0.0147   0.0419   0.0327   0.0147  -0.0159  -0.0108   0.00    0.0
2025/04/01 09:51:00.000   39.135150500  141.132871403   117.1804   6  26   0.0150   0.0415   0.0324   0.0146  -0.0156  -0.0103   0.00    0.0
2025/04/01 09:51:30.000   39.135150486  141.132871479   117.1713   6  26   0.0146   0.0412   0.0322   0.0141  -0.0154  -0.0104   0.00    0.0
2025/04/01 09:52:00.000   39.135150392  141.132871316   117.1629   6  26   0.0146   0.0408   0.0320   0.0138  -0.0151  -0.0103   0.00    0.0
2025/04/01 09:52:30.000   39.135150406  141.132871478   117.1539   6  25   0.0145   0.0405   0.0323   0.0134  -0.0149  -0.0102   0.00    0.0
2025/04/01 09:53:00.000   39.135150467  141.132871382   117.1712   6  25   0.0145   0.0400   0.0322   0.0135  -0.0146  -0.0106   0.00    0.0
2025/04/01 09:53:30.000   39.135150547  141.132871364   117.1874   6  25   0.0143   0.0400   0.0320   0.0131  -0.0147  -0.0104   0.00    0.0
2025/04/01 09:54:00.000   39.135150587  141.132871599   117.1765   6  25   0.0141   0.0396   0.0314   0.0131  -0.0142  -0.0100   0.00    0.0
2025/04/01 09:54:30.000   39.135150484  141.132871447   117.1561   6  25   0.0146   0.0392   0.0316   0.0126  -0.0145  -0.0100   0.00    0.0
2025/04/01 09:55:00.000   39.135150553  141.132871476   117.1691   6  25   0.0146   0.0390   0.0315   0.0126  -0.0139  -0.0096   0.00    0.0
2025/04/01 09:55:30.000   39.135150446  141.132871615   117.1828   6  25   0.0145   0.0384   0.0315   0.0129  -0.0139  -0.0100   0.00    0.0
2025/04/01 09:56:00.000   39.135150497  141.132871514   117.1620   6  25   0.0148   0.0383   0.0310   0.0124  -0.0137  -0.0099   0.00    0.0
2025/04/01 09:56:30.000   39.135150532  141.132871396   117.1630   6  25   0.0144   0.0380   0.0312   0.0123  -0.0132  -0.0103   0.00    0.0
2025/04/01 09:57:00.000   39.135150541  141.132871263   117.1788   6  25   0.0141   0.0378   0.0311   0.0122  -0.0133  -0.0097   0.00    0.0
2025/04/01 09:57:30.000   39.135150556  141.132871354   117.1551   6  25   0.0142   0.0374   0.0309   0.0121  -0.0128  -0.0092   0.00    0.0
2025/04/01 09:58:00.000   39.135150507  141.132871363   117.1674   6  25   0.0142   0.0372   0.0313   0.0117  -0.0126  -0.0098   0.00    0.0
2025/04/01 09:58:30.000   39.135150550  141.132871585   117.1889   6  25   0.0143   0.0369   0.0309   0.0118  -0.0123  -0.0097   0.00    0.0
2025/04/01 09:59:00.000   39.135150551  141.132871458   117.1583   6  25   0.0140   0.0367   0.0308   0.0114  -0.0125  -0.0095   0.00    0.0
2025/04/01 09:59:30.000   39.135150491  141.132871333   117.1402   6  25   0.0138   0.0364   0.0308   0.0115  -0.0121  -0.0095   0.00    0.0
