% program    : MADOCALIB ver.2.0
% inp file   : .\data\rinex\MIZU00JPN_R_20250910000_01D_30S_MO.rnx
% inp file   : .\data\rinex\BRDM00DLR_S_20250910000_01D_MN.rnx
% inp file   : .\data\l6_is-qzss-mdc-004\%Y\%n\%Y%n%HU.204.l6
% inp file   : .\data\l6_is-qzss-mdc-004\%Y\%n\%Y%n%HU.206.l6
% satantfile : 
% rcvantfile : .\data\igs20.atx
% obs start  : 2025/04/01 15:00:00.0 GPST (week2360 226800.0s)
% obs end    : 2025/04/01 15:59:30.0 GPST (week2360 230370.0s)
% pos mode   : PPP Kinematic
% freqs      : L1+2
% siggps     : L1/L2/L5
% sigqzs     : L1/L5/L2
% siggal     : E1/E5a/E5b/E6
% sigbds2    : B1I/B3I/B2I
% sigbds3    : B1I/B3I/B2a
% solution   : Forward
% elev mask  : 10.0 deg
% dynamics   : off
% tidecorr   : on
% ionos opt  : Iono-Free LC
% tropo opt  : Estimate ZTD
% ephemeris  : Broadcast+SSR APC
% navi sys   : GPS GLONASS Galileo QZSS
% amb mode   : OFF
% ar sys     : GPS Galileo QZSS BDS
% val ratio  : 1.5
% max std pos: 1.5 m
% ionocorr   : off
% antenna1   : SEPCHOKE_B3E6   NONE  ( 0.0000  0.0000  0.1206)
%
% (lat/lon/height=WGS84/ellipsoidal,Q=1:fix,2:float,3:sbas,4:dgps,5:single,6:ppp,ns=# of satellites)
%  GPST                  latitude(deg) longitude(deg)  height(m)   Q  ns   sdn(m)   sde(m)   sdu(m)  sdne(m)  sdeu(m)  sdun(m) age(s)  ratio
2025/04/01 15:00:00.000   39.135150346  141.132875450   116.5122   6  25   2.9485   2.1712   5.9703  -0.7616   1.7366  -1.9135   0.00    0.0
2025/04/01 15:00:30.000   39.135156561  141.132874442   116.8039   6  25   1.7841   1.4662   3.2130  -0.3855   0.9179  -1.4722   0.00    0.0
2025/04/01 15:01:00.000   39.135154606  141.132876487   116.9252   6  25   1.2252   1.1265   2.0752   0.0335   0.5335  -1.0990   0.00    0.0
2025/04/01 15:01:30.000   39.135151961  141.132879275   116.9587   6  25   0.8993   0.9111   1.4885   0.2186   0.3080  -0.8385   0.00    0.0
2025/04/01 15:02:00.000   39.135146783  141.132877227   117.2152   6  25   0.6922   0.7579   1.1458   0.2377   0.1503  -0.6613   0.00    0.0
2025/04/01 15:02:30.000   39.135147799  141.132876999   117.3038   6  25   0.5525   0.6422   0.9275   0.2291  -0.0795  -0.5385   0.00    0.0
2025/04/01 15:03:00.000   39.135148401  141.132879311   117.3100   6  25   0.4537   0.5520   0.7786   0.2126  -0.1330  -0.4503   0.00    0.0
2025/04/01 15:03:30.000   39.135148813  141.132879589   117.4196   6  25   0.3810   0.4801   0.6706   0.1944  -0.1467  -0.3847   0.00    0.0
2025/04/01 15:04:00.000   39.135149210  141.132878791   117.4554   6  25   0.3258   0.4217   0.5880   0.1770  -0.1481  -0.3342   0.00    0.0
2025/04/01 15:04:30.000   39.135150546  141.132876911   117.2636   6  25   0.2828   0.3738   0.5222   0.1611  -0.1443  -0.2941   0.00    0.0
2025/04/01 15:05:00.000   39.135149088  141.132876683   117.2199   6  25   0.2484   0.3338   0.4679   0.1467  -0.1383  -0.2615   0.00    0.0
2025/04/01 15:05:30.000   39.135149374  141.132875914   117.3824   6  25   0.2204   0.3003   0.4222   0.1341  -0.1312  -0.2344   0.00    0.0
2025/04/01 15:06:00.000   39.135148881  141.132875409   117.3687   6  25   0.1973   0.2719   0.3831   0.1229  -0.1238  -0.2115   0.00    0.0
2025/04/01 15:06:30.000   39.135149653  141.132875207   117.2769   6  26   0.1780   0.2475   0.3494   0.1130  -0.1163  -0.1921   0.00    0.0
2025/04/01 15:07:00.000   39.135149994  141.132875179   117.1974   6  26   0.1615   0.2263   0.3198   0.1043  -0.1094  -0.1752   0.00    0.0
2025/04/01 15:07:30.000   39.135150046  141.132875238   117.2628   6  27   0.1475   0.2080   0.2939   0.0964  -0.1029  -0.1607   0.00    0.0
2025/04/01 15:08:00.000   39.135150194  141.132874357   117.2188   6  27   0.1354   0.1919   0.2708   0.0896  -0.0965  -0.1479   0.00    0.0
2025/04/01 15:08:30.000   39.135149652  141.132873693   117.2027   6  27   0.1249   0.1779   0.2504   0.0834  -0.0904  -0.1367   0.00    0.0
2025/04/01 15:09:00.000   39.135150037  141.132873974   117.1741   6  27   0.1156   0.1653   0.2321   0.0778  -0.0848  -0.1267   0.00    0.0
2025/04/01 15:09:30.000   39.135150527  141.132874273   117.1579   6  27   0.1075   0.1543   0.2156   0.0727  -0.0795  -0.1178   0.00    0.0
2025/04/01 15:10:00.000   39.135150891  141.132873358   117.1068   6  26   0.1005   0.1453   0.2015   0.0692  -0.0729  -0.1093   0.00    0.0
2025/04/01 15:10:30.000   39.135150620  141.132873247   117.1017   6  27   0.0942   0.1369   0.1887   0.0654  -0.0671  -0.1020   0.00    0.0
2025/04/01 15:11:00.000   39.135150844  141.132873258   117.0767   6  27   0.0885   0.1293   0.1769   0.0619  -0.0619  -0.0954   0.00    0.0
2025/04/01 15:11:30.000   39.135150634  141.132873367   117.1326   6  27   0.0834   0.1223   0.1662   0.0587  -0.0573  -0.0895   0.00    0.0
2025/04/01 15:12:00.000   39.135150684  141.132873353   117.1864   6  27   0.0788   0.1159   0.1563   0.0558  -0.0532  -0.0840   0.00    0.0
2025/04/01 15:12:30.000   39.135150838  141.132873271   117.1444   6  27   0.0753   0.1102   0.1475   0.0536  -0.0488  -0.0788   0.00    0.0
2025/04/01 15:13:00.000   39.135150565  141.132873312   117.1411   6  28   0.0708   0.1049   0.1393   0.0508  -0.0454  -0.0745   0.00    0.0
2025/04/01 15:13:30.000   39.135150882  141.132873313   117.1802   6  29   0.0672   0.0998   0.1317   0.0483  -0.0424  -0.0704   0.00    0.0
2025/04/01 15:14:00.000   39.135150923  141.132873402   117.1503   6  29   0.0639   0.0953   0.1248   0.0461  -0.0395  -0.0666   0.00    0.0
2025/04/01 15:14:30.000   39.135150853  141.132873246   117.1382   6  29   0.0609   0.0909   0.1186   0.0440  -0.0372  -0.0633   0.00    0.0
2025/04/01 15:15:00.000   39.135151193  141.132873028   117.1315   6  29   0.0582   0.0869   0.1130   0.0420  -0.0346  -0.0602   0.00    0.0
2025/04/01 15:15:30.000   39.135150778  141.132872842   117.1188   6  29   0.0556   0.0833   0.1077   0.0402  -0.0328  -0.0573   0.00    0.0
2025/04/01 15:16:00.000   39.135151004  141.132872748   117.1073   6  29   0.0533   0.0799   0.1029   0.0385  -0.0310  -0.0547   0.00    0.0
2025/04/01 15:16:30.000   39.135151040  141.132872996   117.1455   6  29   0.0512   0.0767   0.0985   0.0369  -0.0293  -0.0523   0.00    0.0
2025/04/01 15:17:00.000   39.135151000  141.132872998   117.1450   6  29   0.0491   0.0738   0.0944   0.0356  -0.0278  -0.0500   0.00    0.0
2025/04/01 15:17:30.000   39.135150753  141.132872863   117.1451   6  29   0.0471   0.0709   0.0906   0.0342  -0.0264  -0.0479   0.00    0.0
2025/04/01 15:18:00.000   39.135150855  141.132872601   117.1308   6  29   0.0455   0.0684   0.0871   0.0331  -0.0252  -0.0460   0.00    0.0
2025/04/01 15:18:30.000   39.135150733  141.132872679   117.1719   6  28   0.0445   0.0660   0.0841   0.0320  -0.0239  -0.0441   0.00    0.0
2025/04/01 15:19:00.000   39.135150633  141.132872976   117.1803   6  29   0.0425   0.0638   0.0810   0.0306  -0.0231  -0.0426   0.00    0.0
2025/04/01 15:19:30.000   39.135150818  141.132872937   117.1339   6  28   0.0416   0.0616   0.0783   0.0298  -0.0219  -0.0407   0.00    0.0
2025/04/01 15:20:00.000   39.135150911  141.132872959   117.1238   6  29   0.0398   0.0595   0.0756   0.0289  -0.0211  -0.0396   0.00    0.0
2025/04/01 15:20:30.000   39.135150905  141.132873035   117.1626   6  29   0.0386   0.0579   0.0732   0.0279  -0.0203  -0.0383   0.00    0.0
2025/04/01 15:21:00.000   39.135150825  141.132872993   117.1801   6  29   0.0374   0.0558   0.0709   0.0267  -0.0200  -0.0372   0.00    0.0
2025/04/01 15:21:30.000   39.135150711  141.132872983   117.1721   6  29   0.0362   0.0543   0.0687   0.0259  -0.0192  -0.0359   0.00    0.0
2025/04/01 15:22:00.000   39.135150789  141.132872979   117.1685   6  29   0.0352   0.0526   0.0668   0.0252  -0.0188  -0.0349   0.00    0.0
2025/04/01 15:22:30.000   39.135150916  141.132872932   117.1336   6  29   0.0343   0.0513   0.0649   0.0245  -0.0181  -0.0338   0.00    0.0
2025/04/01 15:23:00.000   39.135150869  141.132872845   117.1555   6  29   0.0334   0.0497   0.0632   0.0237  -0.0177  -0.0326   0.00    0.0
2025/04/01 15:23:30.000   39.135150822  141.132873001   117.1542   6  29   0.0325   0.0485   0.0615   0.0233  -0.0169  -0.0318   0.00    0.0
2025/04/01 15:24:00.000   39.135150825  141.132872977   117.1575   6  29   0.0317   0.0471   0.0600   0.0225  -0.0166  -0.0311   0.00    0.0
2025/04/01 15:24:30.000   39.135150922  141.132872753   117.1348   6  29   0.0311   0.0459   0.0584   0.0215  -0.0166  -0.0302   0.00    0.0
2025/04/01 15:25:00.000   39.135150920  141.132872695   117.1403   6  29   0.0302   0.0447   0.0572   0.0212  -0.0157  -0.0295   0.00    0.0
2025/04/01 15:25:30.000   39.135151052  141.132872610   117.1454   6  28   0.0294   0.0438   0.0560   0.0206  -0.0152  -0.0287   0.00    0.0
2025/04/01 15:26:00.000   39.135150797  141.132872738   117.1316   6  28   0.0288   0.0427   0.0548   0.0201  -0.0145  -0.0278   0.00    0.0
2025/04/01 15:26:30.000   39.135150772  141.132872606   117.1391   6  28   0.0284   0.0419   0.0539   0.0198  -0.0142  -0.0273   0.00    0.0
2025/04/01 15:27:00.000   39.135151071  141.132872507   117.1176   6  28   0.0278   0.0407   0.0528   0.0191  -0.0137  -0.0268   0.00    0.0
2025/04/01 15:27:30.000   39.135150974  141.132872603   117.1252   6  28   0.0270   0.0401   0.0518   0.0187  -0.0134  -0.0261   0.00    0.0
2025/04/01 15:28:00.000   39.135150821  141.132872571   117.1239   6  28   0.0267   0.0390   0.0509   0.0180  -0.0127  -0.0257   0.00    0.0
2025/04/01 15:28:30.000   39.135151013  141.132872531   117.1240   6  28   0.0259   0.0384   0.0500   0.0180  -0.0117  -0.0248   0.00    0.0
2025/04/01 15:29:00.000   39.135150767  141.132872531   117.1147   6  28   0.0257   0.0376   0.0489   0.0173  -0.0123  -0.0247   0.00    0.0
2025/04/01 15:29:30.000   39.135150790  141.132872180   117.1107   6  27   0.0254   0.0369   0.0484   0.0168  -0.0117  -0.0241   0.00    0.0
2025/04/01 15:30:00.000   39.135150948  141.132872298   117.0934   6  27   0.0248   0.0363   0.0477   0.0168  -0.0111  -0.0238   0.00    0.0
2025/04/01 15:30:30.000   39.135151009  141.132872379   117.1252   6  27   0.0245   0.0355   0.0470   0.0163  -0.0106  -0.0234   0.00    0.0
2025/04/01 15:31:00.000   39.135151067  141.132872331   117.1279   6  27   0.0241   0.0347   0.0464   0.0156  -0.0104  -0.0227   0.00    0.0
2025/04/01 15:31:30.000   39.135151090  141.132872241   117.0931   6  27   0.0236   0.0343   0.0457   0.0155  -0.0097  -0.0223   0.00    0.0
2025/04/01 15:32:00.000   39.135150883  141.132872272   117.0727   6  27   0.0234   0.0334   0.0452   0.0151  -0.0097  -0.0220   0.00    0.0
2025/04/01 15:32:30.000   39.135150902  141.132872324   117.0959   6  27   0.0229   0.0331   0.0447   0.0149  -0.0097  -0.0216   0.00    0.0
2025/04/01 15:33:00.000   39.135150983  141.132872158   117.1118   6  27   0.0226   0.0325   0.0440   0.0149  -0.0094  -0.0212   0.00    0.0
2025/04/01 15:33:30.000   39.135151000  141.132872274   117.1129   6  27   0.0221   0.0320   0.0436   0.0144  -0.0088  -0.0209   0.00    0.0
2025/04/01 15:34:00.000   39.135150898  141.132872273   117.1082   6  27   0.0219   0.0314   0.0430   0.0141  -0.0091  -0.0206   0.00    0.0
2025/04/01 15:34:30.000   39.135150878  141.132872349   117.0971   6  27   0.0217   0.0311   0.0428   0.0139  -0.0082  -0.0201   0.00    0.0
2025/04/01 15:35:00.000   39.135151034  141.132872190   117.1096   6  26   0.0216   0.0305   0.0423   0.0135  -0.0083  -0.0201   0.00    0.0
2025/04/01 15:35:30.000   39.135151018  141.132872320   117.0913   6  26   0.0215   0.0301   0.0419   0.0134  -0.0080  -0.0197   0.00    0.0
2025/04/01 15:36:00.000   39.135150898  141.132872364   117.0980   6  26   0.0212   0.0297   0.0413   0.0132  -0.0077  -0.0194   0.00    0.0
2025/04/01 15:36:30.000   39.135150880  141.132872295   117.1042   6  26   0.0212   0.0296   0.0410   0.0136  -0.0074  -0.0190   0.00    0.0
2025/04/01 15:37:00.000   39.135150916  141.132872262   117.1059   6  26   0.0209   0.0292   0.0406   0.0134  -0.0071  -0.0188   0.00    0.0
2025/04/01 15:37:30.000   39.135150964  141.132872305   117.1339   6  26   0.0205   0.0290   0.0403   0.0128  -0.0068  -0.0184   0.00    0.0
2025/04/01 15:38:00.000   39.135151008  141.132872235   117.0875   6  26   0.0204   0.0284   0.0400   0.0126  -0.0066  -0.0185   0.00    0.0
2025/04/01 15:38:30.000   39.135150987  141.132872247   117.0857   6  26   0.0201   0.0283   0.0397   0.0128  -0.0066  -0.0178   0.00    0.0
2025/04/01 15:39:00.000   39.135150940  141.132872223   117.0977   6  26   0.0202   0.0279   0.0395   0.0127  -0.0067  -0.0178   0.00    0.0
2025/04/01 15:39:30.000   39.135150908  141.132872278   117.1265   6  26   0.0200   0.0278   0.0391   0.0128  -0.0064  -0.0173   0.00    0.0
2025/04/01 15:40:00.000   39.135150831  141.132872256   117.1247   6  26   0.0196   0.0275   0.0388   0.0123  -0.0054  -0.0173   0.00    0.0
2025/04/01 15:40:30.000   39.135150793  141.132872302   117.1156   6  26   0.0195   0.0271   0.0384   0.0124  -0.0059  -0.0173   0.00    0.0
2025/04/01 15:41:00.000   39.135150969  141.132872231   117.1432   6  26   0.0191   0.0269   0.0382   0.0120  -0.0062  -0.0170   0.00    0.0
2025/04/01 15:41:30.000   39.135150734  141.132872198   117.1134   6  26   0.0192   0.0267   0.0380   0.0122  -0.0052  -0.0167   0.00    0.0
2025/04/01 15:42:00.000   39.135150849  141.132872245   117.1172   6  26   0.0188   0.0266   0.0378   0.0121  -0.0053  -0.0160   0.00    0.0
2025/04/01 15:42:30.000   39.135150846  141.132872222   117.1340   6  26   0.0187   0.0263   0.0376   0.0117  -0.0045  -0.0162   0.00    0.0
2025/04/01 15:43:00.000   39.135150725  141.132872241   117.1488   6  27   0.0188   0.0259   0.0374   0.0114  -0.0043  -0.0162   0.00    0.0
2025/04/01 15:43:30.000   39.135150794  141.132872242   117.1371   6  27   0.0183   0.0256   0.0371   0.0116  -0.0045  -0.0158   0.00    0.0
2025/04/01 15:44:00.000   39.135150701  141.132872302   117.1414   6  27   0.0178   0.0255   0.0372   0.0121  -0.0020  -0.0154   0.00    0.0
2025/04/01 15:44:30.000   39.135150836  141.132872291   117.1276   6  27   0.0183   0.0252   0.0366   0.0117  -0.0043  -0.0155   0.00    0.0
2025/04/01 15:45:00.000   39.135150792  141.132872314   117.1318   6  27   0.0181   0.0250   0.0365   0.0118  -0.0047  -0.0157   0.00    0.0
2025/04/01 15:45:30.000   39.135150740  141.132872279   117.1190   6  27   0.0179   0.0249   0.0365   0.0116   0.0004  -0.0151   0.00    0.0
2025/04/01 15:46:00.000   39.135150875  141.132872191   117.1377   6  27   0.0180   0.0245   0.0360   0.0116  -0.0029  -0.0151   0.00    0.0
2025/04/01 15:46:30.000   39.135150749  141.132872146   117.1449   6  27   0.0174   0.0238   0.0361   0.0120   0.0013  -0.0147   0.00    0.0
2025/04/01 15:47:00.000   39.135150798  141.132872221   117.1352   6  27   0.0178   0.0238   0.0359   0.0115  -0.0035  -0.0147   0.00    0.0
2025/04/01 15:47:30.000   39.135150793  141.132872255   117.1258   6  27   0.0173   0.0237   0.0355   0.0111  -0.0025  -0.0147   0.00    0.0
2025/04/01 15:48:00.000   39.135150587  141.132872243   117.1360   6  27   0.0173   0.0238   0.0354   0.0112  -0.0041  -0.0140   0.00    0.0
2025/04/01 15:48:30.000   39.135150845  141.132872214   117.1208   6  27   0.0175   0.0232   0.0355   0.0106  -0.0023  -0.0142   0.00    0.0
2025/04/01 15:49:00.000   39.135150739  141.132872177   117.1462   6  27   0.0170   0.0234   0.0351   0.0102  -0.0029  -0.0143   0.00    0.0
2025/04/01 15:49:30.000   39.135150664  141.132872186   117.1343   6  27   0.0170   0.0233   0.0353   0.0107  -0.0031  -0.0142   0.00    0.0
2025/04/01 15:50:00.000   39.135150815  141.132872182   117.1297   6  27   0.0168   0.0229   0.0349   0.0108   0.0015  -0.0139   0.00    0.0
2025/04/01 15:50:30.000   39.135150706  141.132872213   117.1445   6  27   0.0171   0.0227   0.0346   0.0101  -0.0029  -0.0140   0.00    0.0
2025/04/01 15:51:00.000   39.135150732  141.132872265   117.1526   6  27   0.0169   0.0223   0.0349   0.0104   0.0014  -0.0139   0.00    0.0
2025/04/01 15:51:30.000   39.135150748  141.132872188   117.1219   6  27   0.0164   0.0228   0.0341   0.0099  -0.0020  -0.0138   0.00    0.0
2025/04/01 15:52:00.000   39.135150710  141.132872087   117.1075   6  27   0.0169   0.0226   0.0341   0.0099   0.0024  -0.0137   0.00    0.0
2025/04/01 15:52:30.000   39.135150834  141.132872261   117.1173   6  27   0.0168   0.0221   0.0343   0.0098  -0.0010  -0.0135   0.00    0.0
2025/04/01 15:53:00.000   39.135150782  141.132872224   117.1147   6  27   0.0162   0.0218   0.0343   0.0102   0.0017  -0.0132   0.00    0.0
2025/04/01 15:53:30.000   39.135150852  141.132872181   117.1222   6  27   0.0164   0.0217   0.0338   0.0095  -0.0025  -0.0134   0.00    0.0
2025/04/01 15:54:00.000   39.135150641  141.132872225   117.1205   6  27   0.0160   0.0216   0.0340   0.0100   0.0032  -0.0130   0.00    0.0
2025/04/01 15:54:30.000   39.135150864  141.132872161   117.1232   6  27   0.0162   0.0214   0.0340   0.0100   0.0038  -0.0129   0.00    0.0
2025/04/01 15:55:00.000   39.135150671  141.132872210   117.1297   6  27   0.0161   0.0212   0.0340   0.0097  -0.0028  -0.0126   0.00    0.0
2025/04/01 15:55:30.000   39.135150806  141.132872175   117.1453   6  27   0.0163   0.0211   0.0336   0.0098   0.0021  -0.0129   0.00    0.0
2025/04/01 15:56:00.000   39.135150827  141.132872274   117.1524   6  27   0.0156   0.0209   0.0336   0.0093   0.0023  -0.0122   0.00    0.0
2025/04/01 15:56:30.000   39.135150685  141.132872162   117.1224   6  27   0.0159   0.0210   0.0336   0.0100   0.0033  -0.0127   0.00    0.0
2025/04/01 15:57:00.000   39.135150776  141.132872167   117.1166   6  27   0.0159   0.0209   0.0335   0.0094   0.0014  -0.0122   0.00    0.0
2025/04/01 15:57:30.000   39.135150785  141.132872179   117.1193   6  27   0.0156   0.0209   0.0334   0.0094   0.0022  -0.0125   0.00    0.0
2025/04/01 15:58:00.000   39.135150852  141.132872193   117.1181   6  27   0.0156   0.0201   0.0335   0.0092   0.0029  -0.0124   0.00    0.0
2025/04/01 15:58:30.000   39.135150721  141.132872267   117.1344   6  27   0.0157   0.0204   0.0332   0.0088   0.0022  -0.0120   0.00    0.0
2025/04/01 15:59:00.000   39.135150712  141.132872242   117.1329   6  27   0.0157   0.0204   0.0331   0.0088   0.0041  -0.0122   0.00    0.0
2025/04/01 15:59:30.000   39.135150769  141.132872241   117.1160   6  27   0.0152   0.0201   0.0332   0.0091   0.0029  -0.0120   0.00    0.0
