% program    : MADOCALIB ver.2.0
% inp file   : .\data\rinex\MIZU00JPN_R_20250910000_01D_30S_MO.rnx
% inp file   : .\data\rinex\BRDM00DLR_S_20250910000_01D_MN.rnx
% inp file   : .\data\l6_is-qzss-mdc-004\%Y\%n\%Y%n%HU.204.l6
% inp file   : .\data\l6_is-qzss-mdc-004\%Y\%n\%Y%n%HU.206.l6
% satantfile : 
% rcvantfile : .\data\igs20.atx
% obs start  : 2025/04/01 21:00:00.0 GPST (week2360 248400.0s)
% obs end    : 2025/04/01 21:59:30.0 GPST (week2360 251970.0s)
% pos mode   : PPP Kinematic
% freqs      : L1+2
% siggps     : L1/L2/L5
% sigqzs     : L1/L5/L2
% siggal     : E1/E5a/E5b/E6
% sigbds2    : B1I/B3I/B2I
% sigbds3    : B1I/B3I/B2a
% solution   : Forward
% elev mask  : 10.0 deg
% dynamics   : off
% tidecorr   : on
% ionos opt  : Iono-Free LC
% tropo opt  : Estimate ZTD
% ephemeris  : Broadcast+SSR APC
% navi sys   : GPS GLONASS Galileo QZSS
% amb mode   : OFF
% ar sys     : GPS Galileo QZSS BDS
% val ratio  : 1.5
% max std pos: 1.5 m
% ionocorr   : off
% antenna1   : SEPCHOKE_B3E6   NONE  ( 0.0000  0.0000  0.1206)
%
% (lat/lon/height=WGS84/ellipsoidal,Q=1:fix,2:float,3:sbas,4:dgps,5:single,6:ppp,ns=# of satellites)
%  GPST                  latitude(deg) longitude(deg)  height(m)   Q  ns   sdn(m)   sde(m)   sdu(m)  sdne(m)  sdeu(m)  sdun(m) age(s)  ratio
2025/04/01 21:00:00.000   39.135151872  141.132871976   117.0835   6  22   3.1208   2.6725   6.1912  -1.3862   0.6014  -1.8215   0.00    0.0
2025/04/01 21:00:30.000   39.135154474  141.132869017   117.8671   6  22   1.8246   1.7988   3.9289  -0.7474   0.6976  -1.5274   0.00    0.0
2025/04/01 21:01:00.000   39.135151976  141.132869518   117.4932   6  21   1.2368   1.3802   2.8445  -0.4663   0.6226  -1.2416   0.00    0.0
2025/04/01 21:01:30.000   39.135146037  141.132879225   117.0480   6  21   0.9037   1.1115   2.1852  -0.3142   0.5241  -0.9954   0.00    0.0
2025/04/01 21:02:00.000   39.135148380  141.132878026   117.4393   6  21   0.6941   0.9192   1.7498  -0.2248   0.4349  -0.8061   0.00    0.0
2025/04/01 21:02:30.000   39.135151595  141.132871872   116.6688   6  21   0.5527   0.7740   1.4490  -0.1675   0.3591  -0.6645   0.00    0.0
2025/04/01 21:03:00.000   39.135152390  141.132869452   116.4045   6  21   0.4525   0.6611   1.2326  -0.1284   0.2961  -0.5580   0.00    0.0
2025/04/01 21:03:30.000   39.135150934  141.132872298   116.6485   6  21   0.3788   0.5715   1.0707  -0.1007   0.2439  -0.4766   0.00    0.0
2025/04/01 21:04:00.000   39.135149588  141.132874629   116.8313   6  21   0.3228   0.4993   0.9450  -0.0801   0.2007  -0.4131   0.00    0.0
2025/04/01 21:04:30.000   39.135150357  141.132871483   116.8139   6  21   0.2792   0.4409   0.8443  -0.0645   0.1647  -0.3627   0.00    0.0
2025/04/01 21:05:00.000   39.135150490  141.132870123   116.8026   6  21   0.2446   0.3924   0.7613  -0.0523   0.1346  -0.3218   0.00    0.0
2025/04/01 21:05:30.000   39.135150888  141.132870134   116.7837   6  21   0.2166   0.3518   0.6914  -0.0429   0.1090  -0.2881   0.00    0.0
2025/04/01 21:06:00.000   39.135150898  141.132870678   116.8754   6  21   0.1935   0.3174   0.6316  -0.0352   0.0874  -0.2599   0.00    0.0
2025/04/01 21:06:30.000   39.135150472  141.132870025   117.0875   6  21   0.1743   0.2882   0.5798  -0.0289   0.0686  -0.2361   0.00    0.0
2025/04/01 21:07:00.000   39.135149863  141.132871074   117.1548   6  21   0.1581   0.2631   0.5346  -0.0237   0.0518  -0.2156   0.00    0.0
2025/04/01 21:07:30.000   39.135149812  141.132872504   117.1881   6  21   0.1442   0.2413   0.4948  -0.0195   0.0357  -0.1980   0.00    0.0
2025/04/01 21:08:00.000   39.135149947  141.132872246   117.1828   6  21   0.1324   0.2224   0.4595  -0.0158   0.0176  -0.1827   0.00    0.0
2025/04/01 21:08:30.000   39.135150237  141.132871787   117.0870   6  21   0.1221   0.2058   0.4281  -0.0132  -0.0187  -0.1692   0.00    0.0
2025/04/01 21:09:00.000   39.135150391  141.132872185   117.1055   6  21   0.1131   0.1911   0.4000  -0.0103  -0.0282  -0.1573   0.00    0.0
2025/04/01 21:09:30.000   39.135150192  141.132872768   117.2093   6  20   0.1053   0.1796   0.3750  -0.0134  -0.0305  -0.1469   0.00    0.0
2025/04/01 21:10:00.000   39.135150554  141.132872397   117.1162   6  20   0.0984   0.1690   0.3523  -0.0139  -0.0346  -0.1375   0.00    0.0
2025/04/01 21:10:30.000   39.135150661  141.132872107   117.2055   6  20   0.0922   0.1595   0.3318  -0.0142  -0.0377  -0.1290   0.00    0.0
2025/04/01 21:11:00.000   39.135150648  141.132872123   117.1933   6  20   0.0866   0.1509   0.3133  -0.0144  -0.0398  -0.1214   0.00    0.0
2025/04/01 21:11:30.000   39.135150644  141.132872265   117.0840   6  20   0.0817   0.1430   0.2964  -0.0139  -0.0411  -0.1145   0.00    0.0
2025/04/01 21:12:00.000   39.135150776  141.132871792   117.0301   6  20   0.0771   0.1359   0.2811  -0.0144  -0.0421  -0.1082   0.00    0.0
2025/04/01 21:12:30.000   39.135150768  141.132871978   117.1354   6  20   0.0731   0.1294   0.2671  -0.0139  -0.0427  -0.1025   0.00    0.0
2025/04/01 21:13:00.000   39.135150879  141.132872259   117.1172   6  20   0.0695   0.1234   0.2541  -0.0140  -0.0430  -0.0974   0.00    0.0
2025/04/01 21:13:30.000   39.135150924  141.132871917   117.0566   6  20   0.0661   0.1178   0.2424  -0.0138  -0.0432  -0.0926   0.00    0.0
2025/04/01 21:14:00.000   39.135150943  141.132871632   117.0487   6  20   0.0630   0.1127   0.2315  -0.0135  -0.0432  -0.0882   0.00    0.0
2025/04/01 21:14:30.000   39.135151036  141.132871530   117.0015   6  20   0.0603   0.1080   0.2215  -0.0135  -0.0429  -0.0841   0.00    0.0
2025/04/01 21:15:00.000   39.135151035  141.132871644   117.0326   6  20   0.0577   0.1035   0.2122  -0.0134  -0.0427  -0.0805   0.00    0.0
2025/04/01 21:15:30.000   39.135151063  141.132871078   117.0226   6  20   0.0552   0.0995   0.2036  -0.0129  -0.0423  -0.0769   0.00    0.0
2025/04/01 21:16:00.000   39.135151173  141.132871043   116.9939   6  21   0.0532   0.0957   0.1956  -0.0128  -0.0418  -0.0738   0.00    0.0
2025/04/01 21:16:30.000   39.135151152  141.132871411   117.0010   6  21   0.0510   0.0922   0.1879  -0.0126  -0.0414  -0.0706   0.00    0.0
2025/04/01 21:17:00.000   39.135151131  141.132871629   117.0475   6  21   0.0491   0.0888   0.1807  -0.0125  -0.0408  -0.0678   0.00    0.0
2025/04/01 21:17:30.000   39.135151115  141.132871498   117.0138   6  21   0.0472   0.0857   0.1740  -0.0124  -0.0401  -0.0650   0.00    0.0
2025/04/01 21:18:00.000   39.135151126  141.132871691   117.0444   6  21   0.0456   0.0828   0.1676  -0.0123  -0.0395  -0.0626   0.00    0.0
2025/04/01 21:18:30.000   39.135151064  141.132871724   117.0496   6  21   0.0443   0.0800   0.1615  -0.0122  -0.0386  -0.0603   0.00    0.0
2025/04/01 21:19:00.000   39.135150987  141.132871827   117.0547   6  21   0.0428   0.0774   0.1557  -0.0115  -0.0377  -0.0582   0.00    0.0
2025/04/01 21:19:30.000   39.135150984  141.132871783   117.0757   6  21   0.0414   0.0750   0.1503  -0.0118  -0.0367  -0.0561   0.00    0.0
2025/04/01 21:20:00.000   39.135151093  141.132871750   117.0507   6  21   0.0403   0.0726   0.1451  -0.0113  -0.0356  -0.0543   0.00    0.0
2025/04/01 21:20:30.000   39.135151070  141.132871630   117.0405   6  22   0.0391   0.0703   0.1402  -0.0112  -0.0348  -0.0524   0.00    0.0
2025/04/01 21:21:00.000   39.135151076  141.132871606   117.0648   6  22   0.0380   0.0682   0.1355  -0.0115  -0.0336  -0.0507   0.00    0.0
2025/04/01 21:21:30.000   39.135151079  141.132871728   117.0671   6  22   0.0368   0.0663   0.1311  -0.0113  -0.0326  -0.0492   0.00    0.0
2025/04/01 21:22:00.000   39.135151121  141.132871743   117.0542   6  22   0.0361   0.0644   0.1268  -0.0107  -0.0314  -0.0477   0.00    0.0
2025/04/01 21:22:30.000   39.135151043  141.132871973   117.0564   6  22   0.0351   0.0624   0.1230  -0.0109  -0.0307  -0.0463   0.00    0.0
2025/04/01 21:23:00.000   39.135150991  141.132872093   117.0601   6  22   0.0343   0.0607   0.1192  -0.0104  -0.0297  -0.0451   0.00    0.0
2025/04/01 21:23:30.000   39.135151100  141.132872123   117.0633   6  22   0.0335   0.0591   0.1157  -0.0103  -0.0287  -0.0437   0.00    0.0
2025/04/01 21:24:00.000   39.135151037  141.132871936   117.0653   6  22   0.0326   0.0574   0.1123  -0.0099  -0.0279  -0.0428   0.00    0.0
2025/04/01 21:24:30.000   39.135150995  141.132872013   117.0568   6  22   0.0320   0.0559   0.1090  -0.0101  -0.0270  -0.0416   0.00    0.0
2025/04/01 21:25:00.000   39.135151014  141.132872077   117.0490   6  23   0.0315   0.0545   0.1061  -0.0093  -0.0262  -0.0406   0.00    0.0
2025/04/01 21:25:30.000   39.135150994  141.132871956   117.0638   6  23   0.0307   0.0531   0.1032  -0.0094  -0.0254  -0.0395   0.00    0.0
2025/04/01 21:26:00.000   39.135151046  141.132871912   117.0688   6  24   0.0299   0.0518   0.1005  -0.0098  -0.0247  -0.0385   0.00    0.0
2025/04/01 21:26:30.000   39.135151016  141.132871949   117.0541   6  24   0.0292   0.0504   0.0979  -0.0095  -0.0239  -0.0377   0.00    0.0
2025/04/01 21:27:00.000   39.135151125  141.132871860   117.0557   6  24   0.0287   0.0492   0.0953  -0.0090  -0.0232  -0.0369   0.00    0.0
2025/04/01 21:27:30.000   39.135151129  141.132871701   117.0747   6  24   0.0282   0.0481   0.0930  -0.0085  -0.0226  -0.0360   0.00    0.0
2025/04/01 21:28:00.000   39.135150988  141.132871612   117.0779   6  24   0.0278   0.0471   0.0908  -0.0082  -0.0220  -0.0354   0.00    0.0
2025/04/01 21:28:30.000   39.135151061  141.132871776   117.0810   6  24   0.0274   0.0460   0.0886  -0.0076  -0.0215  -0.0345   0.00    0.0
2025/04/01 21:29:00.000   39.135151072  141.132871765   117.0868   6  24   0.0267   0.0450   0.0867  -0.0078  -0.0210  -0.0340   0.00    0.0
2025/04/01 21:29:30.000   39.135150940  141.132871712   117.0952   6  24   0.0266   0.0439   0.0848  -0.0077  -0.0204  -0.0333   0.00    0.0
2025/04/01 21:30:00.000   39.135150973  141.132871843   117.0886   6  24   0.0261   0.0429   0.0829  -0.0074  -0.0198  -0.0326   0.00    0.0
2025/04/01 21:30:30.000   39.135151036  141.132871735   117.0917   6  24   0.0257   0.0420   0.0814  -0.0069  -0.0196  -0.0320   0.00    0.0
2025/04/01 21:31:00.000   39.135151075  141.132871620   117.0774   6  24   0.0251   0.0413   0.0795  -0.0070  -0.0191  -0.0311   0.00    0.0
2025/04/01 21:31:30.000   39.135151071  141.132871771   117.0968   6  24   0.0247   0.0405   0.0781  -0.0070  -0.0189  -0.0306   0.00    0.0
2025/04/01 21:32:00.000   39.135150974  141.132871635   117.0944   6  24   0.0247   0.0396   0.0765  -0.0061  -0.0183  -0.0302   0.00    0.0
2025/04/01 21:32:30.000   39.135151049  141.132871800   117.0972   6  24   0.0242   0.0387   0.0751  -0.0059  -0.0181  -0.0296   0.00    0.0
2025/04/01 21:33:00.000   39.135151037  141.132871743   117.1218   6  24   0.0239   0.0381   0.0737  -0.0059  -0.0178  -0.0290   0.00    0.0
2025/04/01 21:33:30.000   39.135150938  141.132871838   117.0863   6  24   0.0235   0.0373   0.0723  -0.0066  -0.0176  -0.0286   0.00    0.0
2025/04/01 21:34:00.000   39.135151003  141.132871964   117.0913   6  24   0.0232   0.0365   0.0711  -0.0058  -0.0173  -0.0280   0.00    0.0
2025/04/01 21:34:30.000   39.135151027  141.132871927   117.0957   6  24   0.0231   0.0360   0.0699  -0.0055  -0.0171  -0.0276   0.00    0.0
2025/04/01 21:35:00.000   39.135150919  141.132871715   117.0935   6  24   0.0226   0.0353   0.0687  -0.0060  -0.0167  -0.0270   0.00    0.0
2025/04/01 21:35:30.000   39.135150908  141.132871827   117.0734   6  24   0.0227   0.0347   0.0675  -0.0052  -0.0166  -0.0268   0.00    0.0
2025/04/01 21:36:00.000   39.135150963  141.132871877   117.0707   6  24   0.0222   0.0342   0.0665  -0.0057  -0.0164  -0.0261   0.00    0.0
2025/04/01 21:36:30.000   39.135150964  141.132871917   117.0597   6  24   0.0220   0.0337   0.0655  -0.0048  -0.0163  -0.0257   0.00    0.0
2025/04/01 21:37:00.000   39.135150999  141.132872042   117.1011   6  24   0.0218   0.0331   0.0645  -0.0050  -0.0159  -0.0254   0.00    0.0
2025/04/01 21:37:30.000   39.135151022  141.132871781   117.0767   6  24   0.0216   0.0326   0.0635  -0.0044  -0.0158  -0.0250   0.00    0.0
2025/04/01 21:38:00.000   39.135150955  141.132872057   117.0872   6  24   0.0213   0.0321   0.0626  -0.0030  -0.0157  -0.0248   0.00    0.0
2025/04/01 21:38:30.000   39.135150961  141.132871912   117.0858   6  24   0.0215   0.0316   0.0617  -0.0037  -0.0156  -0.0244   0.00    0.0
2025/04/01 21:39:00.000   39.135150889  141.132871755   117.0641   6  24   0.0210   0.0313   0.0609  -0.0042  -0.0153  -0.0239   0.00    0.0
2025/04/01 21:39:30.000   39.135150969  141.132872025   117.0900   6  24   0.0209   0.0308   0.0601  -0.0041  -0.0153  -0.0236   0.00    0.0
2025/04/01 21:40:00.000   39.135150966  141.132871996   117.0970   6  24   0.0206   0.0305   0.0591  -0.0045  -0.0152  -0.0233   0.00    0.0
2025/04/01 21:40:30.000   39.135150846  141.132871918   117.1057   6  24   0.0206   0.0300   0.0584  -0.0032  -0.0151  -0.0231   0.00    0.0
2025/04/01 21:41:00.000   39.135150797  141.132871983   117.1212   6  24   0.0204   0.0295   0.0576  -0.0029  -0.0148  -0.0227   0.00    0.0
2025/04/01 21:41:30.000   39.135150882  141.132872087   117.1104   6  24   0.0202   0.0291   0.0568  -0.0045  -0.0144  -0.0221   0.00    0.0
2025/04/01 21:42:00.000   39.135150854  141.132871881   117.0971   6  25   0.0201   0.0286   0.0562  -0.0026  -0.0146  -0.0222   0.00    0.0
2025/04/01 21:42:30.000   39.135150981  141.132872121   117.1023   6  25   0.0198   0.0284   0.0554  -0.0041  -0.0147  -0.0217   0.00    0.0
2025/04/01 21:43:00.000   39.135150848  141.132872178   117.1199   6  25   0.0197   0.0279   0.0547  -0.0032  -0.0142  -0.0215   0.00    0.0
2025/04/01 21:43:30.000   39.135150846  141.132871988   117.1021   6  24   0.0194   0.0277   0.0540  -0.0042  -0.0143  -0.0213   0.00    0.0
2025/04/01 21:44:00.000   39.135150887  141.132871999   117.0918   6  24   0.0195   0.0272   0.0534  -0.0043  -0.0140  -0.0211   0.00    0.0
2025/04/01 21:44:30.000   39.135150891  141.132872213   117.1334   6  25   0.0196   0.0269   0.0527  -0.0016  -0.0141  -0.0210   0.00    0.0
2025/04/01 21:45:00.000   39.135150865  141.132872129   117.1390   6  25   0.0193   0.0268   0.0522  -0.0024  -0.0139  -0.0209   0.00    0.0
2025/04/01 21:45:30.000   39.135150875  141.132872087   117.1050   6  25   0.0191   0.0264   0.0517  -0.0029  -0.0139  -0.0205   0.00    0.0
2025/04/01 21:46:00.000   39.135150820  141.132872093   117.1064   6  25   0.0188   0.0261   0.0511   0.0004  -0.0139  -0.0203   0.00    0.0
2025/04/01 21:46:30.000   39.135150780  141.132871964   117.0948   6  25   0.0187   0.0260   0.0506  -0.0035  -0.0136  -0.0199   0.00    0.0
2025/04/01 21:47:00.000   39.135150830  141.132872070   117.1087   6  25   0.0186   0.0255   0.0502  -0.0018  -0.0134  -0.0199   0.00    0.0
2025/04/01 21:47:30.000   39.135150883  141.132872157   117.1343   6  25   0.0186   0.0255   0.0495  -0.0025  -0.0135  -0.0194   0.00    0.0
2025/04/01 21:48:00.000   39.135150869  141.132872084   117.1061   6  25   0.0184   0.0253   0.0491  -0.0023  -0.0134  -0.0194   0.00    0.0
2025/04/01 21:48:30.000   39.135150842  141.132872127   117.0992   6  25   0.0184   0.0249   0.0487  -0.0031  -0.0130  -0.0193   0.00    0.0
2025/04/01 21:49:00.000   39.135150816  141.132872117   117.1028   6  23   0.0185   0.0248   0.0488  -0.0021  -0.0136  -0.0196   0.00    0.0
2025/04/01 21:49:30.000   39.135150878  141.132872132   117.1054   6  23   0.0184   0.0244   0.0485  -0.0022  -0.0132  -0.0192   0.00    0.0
2025/04/01 21:50:00.000   39.135150796  141.132872131   117.1530   6  22   0.0187   0.0244   0.0481  -0.0025  -0.0135  -0.0189   0.00    0.0
2025/04/01 21:50:30.000   39.135150894  141.132872045   117.0803   6  22   0.0185   0.0240   0.0477  -0.0019  -0.0132  -0.0189   0.00    0.0
2025/04/01 21:51:00.000   39.135150873  141.132872049   117.0879   6  22   0.0180   0.0238   0.0475  -0.0018  -0.0131  -0.0184   0.00    0.0
2025/04/01 21:51:30.000   39.135150804  141.132872203   117.1134   6  22   0.0181   0.0237   0.0469  -0.0020  -0.0129  -0.0183   0.00    0.0
2025/04/01 21:52:00.000   39.135150767  141.132872251   117.1243   6  22   0.0181   0.0235   0.0467  -0.0010  -0.0131  -0.0184   0.00    0.0
2025/04/01 21:52:30.000   39.135150797  141.132872138   117.1126   6  22   0.0181   0.0233   0.0464   0.0006  -0.0129  -0.0183   0.00    0.0
2025/04/01 21:53:00.000   39.135150779  141.132872045   117.1237   6  22   0.0178   0.0230   0.0463   0.0015  -0.0127  -0.0180   0.00    0.0
2025/04/01 21:53:30.000   39.135150824  141.132872259   117.1180   6  23   0.0176   0.0229   0.0460  -0.0013  -0.0129  -0.0176   0.00    0.0
2025/04/01 21:54:00.000   39.135150858  141.132872180   117.0908   6  23   0.0176   0.0226   0.0452   0.0005  -0.0131  -0.0172   0.00    0.0
2025/04/01 21:54:30.000   39.135150810  141.132872201   117.1022   6  23   0.0173   0.0225   0.0447   0.0034  -0.0127  -0.0169   0.00    0.0
2025/04/01 21:55:00.000   39.135150750  141.132872039   117.1233   6  23   0.0173   0.0224   0.0445   0.0021  -0.0125  -0.0167   0.00    0.0
2025/04/01 21:55:30.000   39.135150855  141.132872241   117.1277   6  24   0.0172   0.0222   0.0441   0.0023  -0.0130  -0.0164   0.00    0.0
2025/04/01 21:56:00.000   39.135150854  141.132872227   117.1111   6  24   0.0167   0.0220   0.0436   0.0008  -0.0131  -0.0161   0.00    0.0
2025/04/01 21:56:30.000   39.135150802  141.132871939   117.1092   6  24   0.0171   0.0217   0.0432   0.0028  -0.0129  -0.0161   0.00    0.0
2025/04/01 21:57:00.000   39.135150819  141.132872078   117.1063   6  24   0.0167   0.0217   0.0430   0.0030  -0.0132  -0.0157   0.00    0.0
2025/04/01 21:57:30.000   39.135150862  141.132872285   117.1020   6  24   0.0167   0.0217   0.0427   0.0027  -0.0129  -0.0157   0.00    0.0
2025/04/01 21:58:00.000   39.135150799  141.132872160   117.1153   6  24   0.0166   0.0215   0.0425   0.0025  -0.0131  -0.0153   0.00    0.0
2025/04/01 21:58:30.000   39.135150868  141.132872108   117.1268   6  24   0.0166   0.0212   0.0422   0.0018  -0.0129  -0.0154   0.00    0.0
2025/04/01 21:59:00.000   39.135150790  141.132872053   117.1375   6  24   0.0165   0.0210   0.0419  -0.0013  -0.0129  -0.0149   0.00    0.0
2025/04/01 21:59:30.000   39.135150847  141.132872100   117.1147   6  24   0.0164   0.0210   0.0417   0.0029  -0.0130  -0.0150   0.00    0.0
