% program    : MADOCALIB ver.2.0
% inp file   : .\data\rinex\MIZU00JPN_R_20250910000_01D_30S_MO.rnx
% inp file   : .\data\rinex\BRDM00DLR_S_20250910000_01D_MN.rnx
% inp file   : .\data\l6_is-qzss-mdc-004\%Y\%n\%Y%n%HU.204.l6
% inp file   : .\data\l6_is-qzss-mdc-004\%Y\%n\%Y%n%HU.206.l6
% satantfile : 
% rcvantfile : .\data\igs20.atx
% obs start  : 2025/04/01 02:00:00.0 GPST (week2360 180000.0s)
% obs end    : 2025/04/01 02:59:30.0 GPST (week2360 183570.0s)
% pos mode   : PPP Kinematic
% freqs      : L1+2
% siggps     : L1/L2/L5
% sigqzs     : L1/L5/L2
% siggal     : E1/E5a/E5b/E6
% sigbds2    : B1I/B3I/B2I
% sigbds3    : B1I/B3I/B2a
% solution   : Forward
% elev mask  : 10.0 deg
% dynamics   : off
% tidecorr   : on
% ionos opt  : Iono-Free LC
% tropo opt  : Estimate ZTD
% ephemeris  : Broadcast+SSR APC
% navi sys   : GPS GLONASS Galileo QZSS
% amb mode   : OFF
% ar sys     : GPS Galileo QZSS BDS
% val ratio  : 1.5
% max std pos: 1.5 m
% ionocorr   : off
% antenna1   : SEPCHOKE_B3E6   NONE  ( 0.0000  0.0000  0.1206)
%
% (lat/lon/height=WGS84/ellipsoidal,Q=1:fix,2:float,3:sbas,4:dgps,5:single,6:ppp,ns=# of satellites)
%  GPST                  latitude(deg) longitude(deg)  height(m)   Q  ns   sdn(m)   sde(m)   sdu(m)  sdne(m)  sdeu(m)  sdun(m) age(s)  ratio
2025/04/01 02:00:00.000   39.135151963  141.132876842   117.8418   6  22   2.9562   2.6195   5.7939   0.8364  -0.5331  -1.6544   0.00    0.0
2025/04/01 02:00:30.000   39.135156962  141.132874758   117.8892   6  22   1.7627   1.7938   3.6614   0.4869  -0.3077  -1.2584   0.00    0.0
2025/04/01 02:01:00.000   39.135155118  141.132871474   117.4084   6  22   1.1889   1.3913   2.5964   0.3127  -0.1469  -0.9847   0.00    0.0
2025/04/01 02:01:30.000   39.135150430  141.132874737   117.3507   6  22   0.8600   1.1303   1.9506   0.2104   0.1015  -0.7752   0.00    0.0
2025/04/01 02:02:00.000   39.135153926  141.132879826   117.8403   6  22   0.6540   0.9415   1.5285   0.1456   0.1534  -0.6202   0.00    0.0
2025/04/01 02:02:30.000   39.135152825  141.132878671   118.5487   6  22   0.5165   0.7977   1.2383   0.1019   0.1678  -0.5060   0.00    0.0
2025/04/01 02:03:00.000   39.135150717  141.132878085   118.3254   6  22   0.4201   0.6851   1.0298   0.0708   0.1691  -0.4209   0.00    0.0
2025/04/01 02:03:30.000   39.135149605  141.132875893   117.8314   6  22   0.3498   0.5951   0.8741   0.0472   0.1642  -0.3561   0.00    0.0
2025/04/01 02:04:00.000   39.135149694  141.132873826   117.9425   6  22   0.2968   0.5221   0.7540   0.0275   0.1563  -0.3059   0.00    0.0
2025/04/01 02:04:30.000   39.135150028  141.132873142   117.8543   6  22   0.2558   0.4621   0.6588  -0.0048   0.1468  -0.2661   0.00    0.0
2025/04/01 02:05:00.000   39.135149894  141.132873010   117.6720   6  22   0.2234   0.4122   0.5817  -0.0207   0.1367  -0.2340   0.00    0.0
2025/04/01 02:05:30.000   39.135150856  141.132876090   117.8072   6  22   0.1972   0.3703   0.5182  -0.0254   0.1268  -0.2077   0.00    0.0
2025/04/01 02:06:00.000   39.135150710  141.132874811   117.7693   6  22   0.1759   0.3347   0.4652  -0.0271   0.1173  -0.1860   0.00    0.0
2025/04/01 02:06:30.000   39.135150287  141.132872663   117.5280   6  22   0.1580   0.3043   0.4204  -0.0276   0.1084  -0.1676   0.00    0.0
2025/04/01 02:07:00.000   39.135150061  141.132872665   117.4820   6  22   0.1431   0.2781   0.3822  -0.0274   0.1002  -0.1522   0.00    0.0
2025/04/01 02:07:30.000   39.135150321  141.132872554   117.5088   6  22   0.1304   0.2554   0.3494  -0.0269   0.0926  -0.1389   0.00    0.0
2025/04/01 02:08:00.000   39.135150246  141.132871774   117.3696   6  22   0.1195   0.2355   0.3208  -0.0262   0.0858  -0.1274   0.00    0.0
2025/04/01 02:08:30.000   39.135149994  141.132871377   117.3663   6  22   0.1100   0.2181   0.2960  -0.0256   0.0795  -0.1174   0.00    0.0
2025/04/01 02:09:00.000   39.135150340  141.132872921   117.4389   6  21   0.1020   0.2028   0.2745  -0.0259   0.0728  -0.1081   0.00    0.0
2025/04/01 02:09:30.000   39.135150462  141.132873377   117.4362   6  21   0.0949   0.1893   0.2559  -0.0256   0.0665  -0.1001   0.00    0.0
2025/04/01 02:10:00.000   39.135150455  141.132873406   117.3542   6  21   0.0885   0.1772   0.2393  -0.0253   0.0608  -0.0930   0.00    0.0
2025/04/01 02:10:30.000   39.135150357  141.132873123   117.3765   6  21   0.0829   0.1664   0.2245  -0.0246   0.0559  -0.0866   0.00    0.0
2025/04/01 02:11:00.000   39.135150330  141.132873389   117.3387   6  21   0.0779   0.1566   0.2111  -0.0240   0.0514  -0.0810   0.00    0.0
2025/04/01 02:11:30.000   39.135150283  141.132872973   117.3424   6  21   0.0733   0.1478   0.1990  -0.0232   0.0474  -0.0761   0.00    0.0
2025/04/01 02:12:00.000   39.135150447  141.132872666   117.3153   6  21   0.0693   0.1398   0.1880  -0.0226   0.0439  -0.0715   0.00    0.0
2025/04/01 02:12:30.000   39.135150525  141.132873035   117.2986   6  21   0.0655   0.1324   0.1780  -0.0218   0.0407  -0.0675   0.00    0.0
2025/04/01 02:13:00.000   39.135150433  141.132873089   117.2816   6  21   0.0622   0.1258   0.1690  -0.0213   0.0378  -0.0637   0.00    0.0
2025/04/01 02:13:30.000   39.135150424  141.132872881   117.3219   6  21   0.0592   0.1196   0.1606  -0.0204   0.0351  -0.0604   0.00    0.0
2025/04/01 02:14:00.000   39.135150407  141.132872794   117.2503   6  21   0.0564   0.1140   0.1530  -0.0200   0.0327  -0.0573   0.00    0.0
2025/04/01 02:14:30.000   39.135150458  141.132872827   117.2131   6  21   0.0539   0.1088   0.1460  -0.0193   0.0305  -0.0546   0.00    0.0
2025/04/01 02:15:00.000   39.135150414  141.132873252   117.2845   6  20   0.0515   0.1040   0.1395  -0.0187   0.0285  -0.0520   0.00    0.0
2025/04/01 02:15:30.000   39.135150510  141.132872908   117.2569   6  20   0.0492   0.0996   0.1336  -0.0184   0.0267  -0.0495   0.00    0.0
2025/04/01 02:16:00.000   39.135150409  141.132872583   117.1951   6  20   0.0473   0.0954   0.1281  -0.0179   0.0248  -0.0474   0.00    0.0
2025/04/01 02:16:30.000   39.135150291  141.132872802   117.2169   6  20   0.0455   0.0917   0.1229  -0.0174   0.0232  -0.0453   0.00    0.0
2025/04/01 02:17:00.000   39.135150315  141.132872727   117.2527   6  20   0.0439   0.0881   0.1182  -0.0170   0.0218  -0.0434   0.00    0.0
2025/04/01 02:17:30.000   39.135150443  141.132872646   117.2496   6  20   0.0424   0.0848   0.1137  -0.0165   0.0202  -0.0417   0.00    0.0
2025/04/01 02:18:00.000   39.135150411  141.132872842   117.2226   6  20   0.0409   0.0817   0.1096  -0.0158   0.0191  -0.0401   0.00    0.0
2025/04/01 02:18:30.000   39.135150355  141.132872791   117.1965   6  20   0.0394   0.0788   0.1057  -0.0154   0.0180  -0.0385   0.00    0.0
2025/04/01 02:19:00.000   39.135150404  141.132872521   117.1803   6  20   0.0382   0.0761   0.1020  -0.0150   0.0168  -0.0371   0.00    0.0
2025/04/01 02:19:30.000   39.135150450  141.132872589   117.2007   6  20   0.0370   0.0736   0.0985  -0.0147   0.0157  -0.0357   0.00    0.0
2025/04/01 02:20:00.000   39.135150573  141.132872585   117.1947   6  20   0.0359   0.0712   0.0954  -0.0148   0.0146  -0.0345   0.00    0.0
2025/04/01 02:20:30.000   39.135150349  141.132872577   117.2297   6  20   0.0348   0.0689   0.0924  -0.0143   0.0137  -0.0334   0.00    0.0
2025/04/01 02:21:00.000   39.135150428  141.132872539   117.1867   6  20   0.0338   0.0669   0.0895  -0.0137   0.0130  -0.0322   0.00    0.0
2025/04/01 02:21:30.000   39.135150401  141.132872546   117.2106   6  20   0.0328   0.0648   0.0870  -0.0135   0.0120  -0.0310   0.00    0.0
2025/04/01 02:22:00.000   39.135150406  141.132872381   117.1982   6  20   0.0321   0.0629   0.0845  -0.0132   0.0111  -0.0301   0.00    0.0
2025/04/01 02:22:30.000   39.135150435  141.132872377   117.1848   6  20   0.0311   0.0611   0.0822  -0.0132   0.0104  -0.0292   0.00    0.0
2025/04/01 02:23:00.000   39.135150411  141.132872339   117.1771   6  20   0.0304   0.0595   0.0800  -0.0129   0.0097  -0.0284   0.00    0.0
2025/04/01 02:23:30.000   39.135150452  141.132872312   117.1912   6  20   0.0295   0.0578   0.0780  -0.0130   0.0088  -0.0274   0.00    0.0
2025/04/01 02:24:00.000   39.135150407  141.132872512   117.1633   6  20   0.0292   0.0564   0.0758  -0.0124   0.0080  -0.0268   0.00    0.0
2025/04/01 02:24:30.000   39.135150412  141.132872453   117.1631   6  20   0.0286   0.0550   0.0740  -0.0122   0.0081  -0.0259   0.00    0.0
2025/04/01 02:25:00.000   39.135150390  141.132872491   117.1469   6  20   0.0280   0.0535   0.0722  -0.0117   0.0066  -0.0254   0.00    0.0
2025/04/01 02:25:30.000   39.135150424  141.132872460   117.1466   6  20   0.0272   0.0523   0.0705  -0.0120   0.0053  -0.0246   0.00    0.0
2025/04/01 02:26:00.000   39.135150424  141.132872345   117.1374   6  20   0.0266   0.0510   0.0691  -0.0114   0.0053  -0.0239   0.00    0.0
2025/04/01 02:26:30.000   39.135150434  141.132872269   117.1620   6  20   0.0261   0.0498   0.0677  -0.0115   0.0054  -0.0230   0.00    0.0
2025/04/01 02:27:00.000   39.135150387  141.132872218   117.1790   6  20   0.0257   0.0487   0.0661  -0.0114   0.0043  -0.0224   0.00    0.0
2025/04/01 02:27:30.000   39.135150425  141.132872321   117.1420   6  20   0.0252   0.0477   0.0646  -0.0110   0.0031  -0.0222   0.00    0.0
2025/04/01 02:28:00.000   39.135150427  141.132872292   117.1547   6  20   0.0249   0.0466   0.0634  -0.0111  -0.0013  -0.0215   0.00    0.0
2025/04/01 02:28:30.000   39.135150491  141.132872167   117.1570   6  20   0.0245   0.0457   0.0623  -0.0106   0.0010  -0.0211   0.00    0.0
2025/04/01 02:29:00.000   39.135150547  141.132872214   117.1372   6  20   0.0239   0.0447   0.0610  -0.0110  -0.0019  -0.0207   0.00    0.0
2025/04/01 02:29:30.000   39.135150520  141.132872265   117.1683   6  20   0.0235   0.0438   0.0600  -0.0102  -0.0024  -0.0202   0.00    0.0
2025/04/01 02:30:00.000   39.135150559  141.132872234   117.1647   6  20   0.0233   0.0430   0.0590  -0.0105  -0.0030  -0.0195   0.00    0.0
2025/04/01 02:30:30.000   39.135150486  141.132872363   117.1528   6  19   0.0229   0.0422   0.0581  -0.0101  -0.0046  -0.0193   0.00    0.0
2025/04/01 02:31:00.000   39.135150528  141.132872217   117.1582   6  19   0.0229   0.0415   0.0572  -0.0102  -0.0052  -0.0192   0.00    0.0
2025/04/01 02:31:30.000   39.135150524  141.132872199   117.1540   6  19   0.0227   0.0406   0.0563  -0.0100  -0.0050  -0.0185   0.00    0.0
2025/04/01 02:32:00.000   39.135150492  141.132872256   117.1522   6  19   0.0225   0.0399   0.0556  -0.0100  -0.0046  -0.0181   0.00    0.0
2025/04/01 02:32:30.000   39.135150474  141.132872408   117.1456   6  19   0.0222   0.0394   0.0560  -0.0104  -0.0079  -0.0160   0.00    0.0
2025/04/01 02:33:00.000   39.135150509  141.132872351   117.1408   6  19   0.0221   0.0389   0.0553  -0.0099  -0.0083  -0.0163   0.00    0.0
2025/04/01 02:33:30.000   39.135150457  141.132872285   117.1401   6  19   0.0219   0.0381   0.0540  -0.0099  -0.0066  -0.0161   0.00    0.0
2025/04/01 02:34:00.000   39.135150441  141.132872359   117.1715   6  19   0.0215   0.0375   0.0539  -0.0101  -0.0078  -0.0151   0.00    0.0
2025/04/01 02:34:30.000   39.135150551  141.132872306   117.1596   6  19   0.0212   0.0370   0.0533  -0.0106  -0.0081  -0.0146   0.00    0.0
2025/04/01 02:35:00.000   39.135150467  141.132872440   117.1532   6  19   0.0212   0.0364   0.0521  -0.0096  -0.0065  -0.0147   0.00    0.0
2025/04/01 02:35:30.000   39.135150407  141.132872402   117.1673   6  19   0.0208   0.0358   0.0520  -0.0102  -0.0077  -0.0141   0.00    0.0
2025/04/01 02:36:00.000   39.135150395  141.132872279   117.1704   6  20   0.0206   0.0353   0.0517  -0.0097  -0.0078  -0.0135   0.00    0.0
2025/04/01 02:36:30.000   39.135150476  141.132872539   117.1793   6  20   0.0205   0.0348   0.0506  -0.0098  -0.0079  -0.0138   0.00    0.0
2025/04/01 02:37:00.000   39.135150402  141.132872374   117.1639   6  20   0.0203   0.0343   0.0500  -0.0096  -0.0082  -0.0137   0.00    0.0
2025/04/01 02:37:30.000   39.135150439  141.132872369   117.1395   6  20   0.0200   0.0339   0.0494  -0.0094  -0.0077  -0.0131   0.00    0.0
2025/04/01 02:38:00.000   39.135150411  141.132872408   117.1711   6  20   0.0199   0.0333   0.0490  -0.0096  -0.0081  -0.0132   0.00    0.0
2025/04/01 02:38:30.000   39.135150417  141.132872449   117.1598   6  20   0.0198   0.0329   0.0484  -0.0097  -0.0078  -0.0130   0.00    0.0
2025/04/01 02:39:00.000   39.135150351  141.132872526   117.1702   6  20   0.0198   0.0325   0.0479  -0.0097  -0.0080  -0.0126   0.00    0.0
2025/04/01 02:39:30.000   39.135150367  141.132872350   117.1801   6  20   0.0194   0.0322   0.0474  -0.0099  -0.0081  -0.0122   0.00    0.0
2025/04/01 02:40:00.000   39.135150442  141.132872378   117.2169   6  20   0.0195   0.0317   0.0469  -0.0093  -0.0079  -0.0122   0.00    0.0
2025/04/01 02:40:30.000   39.135150416  141.132872439   117.1685   6  20   0.0194   0.0314   0.0465  -0.0092  -0.0077  -0.0117   0.00    0.0
2025/04/01 02:41:00.000   39.135150458  141.132872363   117.1409   6  20   0.0189   0.0310   0.0461  -0.0093  -0.0076  -0.0119   0.00    0.0
2025/04/01 02:41:30.000   39.135150394  141.132872453   117.1742   6  20   0.0189   0.0306   0.0457  -0.0097  -0.0075  -0.0110   0.00    0.0
2025/04/01 02:42:00.000   39.135150431  141.132872343   117.2110   6  20   0.0186   0.0302   0.0454  -0.0094  -0.0073  -0.0109   0.00    0.0
2025/04/01 02:42:30.000   39.135150459  141.132872389   117.1941   6  20   0.0189   0.0299   0.0450  -0.0093  -0.0077  -0.0109   0.00    0.0
2025/04/01 02:43:00.000   39.135150491  141.132872337   117.1496   6  20   0.0188   0.0296   0.0446  -0.0088  -0.0069  -0.0107   0.00    0.0
2025/04/01 02:43:30.000   39.135150451  141.132872302   117.1803   6  20   0.0184   0.0293   0.0444  -0.0093  -0.0072  -0.0101   0.00    0.0
2025/04/01 02:44:00.000   39.135150465  141.132872289   117.1792   6  20   0.0183   0.0291   0.0440  -0.0093  -0.0076  -0.0103   0.00    0.0
2025/04/01 02:44:30.000   39.135150458  141.132872288   117.1786   6  20   0.0185   0.0286   0.0436  -0.0093  -0.0072  -0.0098   0.00    0.0
2025/04/01 02:45:00.000   39.135150392  141.132872316   117.1928   6  20   0.0181   0.0283   0.0435  -0.0092  -0.0072  -0.0097   0.00    0.0
2025/04/01 02:45:30.000   39.135150401  141.132872302   117.1678   6  20   0.0181   0.0281   0.0429  -0.0092  -0.0069  -0.0096   0.00    0.0
2025/04/01 02:46:00.000   39.135150462  141.132872355   117.1685   6  20   0.0183   0.0277   0.0425  -0.0091  -0.0069  -0.0098   0.00    0.0
2025/04/01 02:46:30.000   39.135150475  141.132872338   117.1911   6  20   0.0179   0.0274   0.0426  -0.0092  -0.0074  -0.0093   0.00    0.0
2025/04/01 02:47:00.000   39.135150439  141.132872110   117.1794   6  20   0.0178   0.0274   0.0423  -0.0088  -0.0068  -0.0088   0.00    0.0
2025/04/01 02:47:30.000   39.135150451  141.132872295   117.1603   6  20   0.0178   0.0270   0.0421  -0.0090  -0.0071  -0.0085   0.00    0.0
2025/04/01 02:48:00.000   39.135150441  141.132872297   117.1771   6  20   0.0180   0.0269   0.0418  -0.0087  -0.0068  -0.0089   0.00    0.0
2025/04/01 02:48:30.000   39.135150367  141.132872258   117.1689   6  20   0.0177   0.0265   0.0412  -0.0091  -0.0067  -0.0086   0.00    0.0
2025/04/01 02:49:00.000   39.135150389  141.132872286   117.1743   6  20   0.0176   0.0263   0.0411  -0.0089  -0.0064  -0.0083   0.00    0.0
2025/04/01 02:49:30.000   39.135150407  141.132872275   117.1703   6  20   0.0175   0.0260   0.0409  -0.0093  -0.0061  -0.0080   0.00    0.0
2025/04/01 02:50:00.000   39.135150358  141.132872355   117.1632   6  20   0.0176   0.0259   0.0407  -0.0089  -0.0067  -0.0083   0.00    0.0
2025/04/01 02:50:30.000   39.135150392  141.132872302   117.1985   6  20   0.0175   0.0254   0.0404  -0.0089  -0.0057  -0.0078   0.00    0.0
2025/04/01 02:51:00.000   39.135150400  141.132872314   117.1919   6  20   0.0173   0.0254   0.0401  -0.0093  -0.0062  -0.0075   0.00    0.0
2025/04/01 02:51:30.000   39.135150453  141.132872222   117.1960   6  21   0.0173   0.0253   0.0399  -0.0089  -0.0062  -0.0070   0.00    0.0
2025/04/01 02:52:00.000   39.135150406  141.132872251   117.1803   6  21   0.0172   0.0249   0.0394  -0.0083  -0.0061  -0.0063   0.00    0.0
2025/04/01 02:52:30.000   39.135150421  141.132872229   117.1684   6  21   0.0170   0.0248   0.0391  -0.0090  -0.0069  -0.0062   0.00    0.0
2025/04/01 02:53:00.000   39.135150431  141.132872272   117.1668   6  21   0.0171   0.0247   0.0390  -0.0084  -0.0063  -0.0047   0.00    0.0
2025/04/01 02:53:30.000   39.135150431  141.132872298   117.1722   6  22   0.0168   0.0243   0.0385  -0.0087  -0.0066  -0.0051   0.00    0.0
2025/04/01 02:54:00.000   39.135150435  141.132872231   117.1626   6  22   0.0165   0.0242   0.0382  -0.0088  -0.0075  -0.0040   0.00    0.0
2025/04/01 02:54:30.000   39.135150427  141.132872208   117.1779   6  22   0.0167   0.0240   0.0379  -0.0085  -0.0068  -0.0026   0.00    0.0
2025/04/01 02:55:00.000   39.135150472  141.132872244   117.1652   6  22   0.0170   0.0238   0.0376  -0.0078  -0.0074  -0.0039   0.00    0.0
2025/04/01 02:55:30.000   39.135150411  141.132872286   117.1606   6  22   0.0168   0.0235   0.0371  -0.0085  -0.0070  -0.0032   0.00    0.0
2025/04/01 02:56:00.000   39.135150382  141.132872162   117.1674   6  22   0.0177   0.0239   0.0385  -0.0098  -0.0105   0.0077   0.00    0.0
2025/04/01 02:56:30.000   39.135150459  141.132872174   117.1782   6  22   0.0171   0.0236   0.0374  -0.0093  -0.0087   0.0058   0.00    0.0
2025/04/01 02:57:00.000   39.135150466  141.132872377   117.1681   6  22   0.0172   0.0231   0.0370  -0.0088  -0.0084   0.0042   0.00    0.0
2025/04/01 02:57:30.000   39.135150442  141.132872234   117.1607   6  22   0.0173   0.0235   0.0380  -0.0098  -0.0100   0.0081   0.00    0.0
2025/04/01 02:58:00.000   39.135150411  141.132872124   117.1682   6  22   0.0176   0.0234   0.0380  -0.0095  -0.0099   0.0087   0.00    0.0
2025/04/01 02:58:30.000   39.135150418  141.132872232   117.1547   6  21   0.0175   0.0233   0.0373  -0.0098  -0.0098   0.0085   0.00    0.0
2025/04/01 02:59:00.000   39.135150451  141.132872248   117.1631   6  21   0.0173   0.0230   0.0374  -0.0099  -0.0103   0.0079   0.00    0.0
2025/04/01 02:59:30.000   39.135150463  141.132872278   117.1994   6  21   0.0177   0.0231   0.0371  -0.0097  -0.0100   0.0082   0.00    0.0
